time(millisecond),datetime(utc),latitude,longitude,height_above_takeoff(feet),height_above_ground_at_drone_location(feet),ground_elevation_at_drone_location(feet),altitude_above_seaLevel(feet),height_sonar(feet),speed(mph),distance(feet),mileage(feet),satellites,gpslevel,voltage(v),max_altitude(feet),max_ascent(feet),max_speed(mph),max_distance(feet), xSpeed(mph), ySpeed(mph), zSpeed(mph), compass_heading(degrees), pitch(degrees), roll(degrees),isPhoto,isVideo,rc_elevator,rc_aileron,rc_throttle,rc_rudder,rc_elevator(percent),rc_aileron(percent),rc_throttle(percent),rc_rudder(percent),gimbal_heading(degrees),gimbal_pitch(degrees),gimbal_roll(degrees),battery_percent,voltageCell1,voltageCell2,voltageCell3,voltageCell4,voltageCell5,voltageCell6,current(A),battery_temperature(f),altitude(feet),ascent(feet),flycStateRaw,flycState,message
100,2025-03-22 04:10:35,37.1259085322402,140.015848529354,0,Available with any HD 360 subscription,Available with any HD 360 subscription,3080.2409840664,0.328084,0,0,0,31,5,0,3080.2409840664,0,0,0,0,0,0,19.6, 5.6, 2.6,0,0,1024,1024,1024,1024,0,0,0,0,26,0,0,100,4.306,4.312,4.316,4.321,0,0,0,73.04,3080.2409840664,0,41,Motors_Started,"機体が高度区域 (500 m)にいます。慎重に飛行してください。 (Code: 190001). IMU初期化中。IMUデータを復旧します (Code: 1610001A). 送信機が紐付けされていない／紐付けステータスを確認中 (Code: 16100089). 機体は飛行していません。ビジョンシステムと障害物回避が無効です (Code: 180059)"
300,2025-03-22 04:10:36,37.1259084557284,140.015848643007,0,,,3080.2409840664,0.328084,0,0.043270342592,0.043270342592,31,5,0,3080.2409840664,0,0,0.043270342592,0,0,0,19.6, 5.6, 2.6,0,0,1024,1024,1024,1024,0,0,0,0,26,0,0,100,4.306,4.312,4.316,4.321,0,0,0,73.04,3080.2409840664,0,41,Motors_Started,
500,2025-03-22 04:10:36,37.1259082864035,140.015848502864,0,,,3080.2409840664,0.328084,0,0.090023624928,0.117287405328,31,5,0,3080.2409840664,0,0,0.090023624928,0,0,0,19.6, 5.6, 2.5,0,0,1024,1024,1024,1024,0,0,0,0,26,0,0,100,4.306,4.312,4.316,4.321,0,0,0,73.04,3080.2409840664,0,41,Motors_Started,"Setting new Return-To-Home altitude to 100m (328 ft). Data Recorder File Index is 118. Setting new Maximum Flight Altitude to 150m (492 ft)"
700,2025-03-22 04:10:36,37.1259082022186,140.015848609646,0,,,3080.2409840664,0.328084,0,0.12265256298,0.160971461844,31,5,0,3080.2409840664,0,0,0.12265256298,0,0,0,19.6, 5.6, 2.6,0,0,1024,1024,1024,1024,0,0,0,0,26,0,0,100,4.306,4.312,4.316,4.321,0,0,0,73.04,3080.2409840664,0,41,Motors_Started,
900,2025-03-22 04:10:36,37.1259081844328,140.015848643453,0,,,3080.2409840664,0.328084,0,0.13116634278,0.172753614452,31,5,0,3080.2409840664,0,0,0.13116634278,0,0,0,19.6, 5.6, 2.5,0,0,1024,1024,1024,1024,0,0,0,0,26,0,0,100,4.306,4.312,4.316,4.321,0,0,0,73.04,3080.2409840664,0,41,Motors_Started,
1100,2025-03-22 04:10:36,37.1259081248018,140.015848741537,0,,,3080.2409840664,0.328084,0,0.160958994652,0.208634849196,31,5,0,3080.2409840664,0,0,0.160958994652,0,0,0,19.6, 5.6, 2.5,0,0,1024,1024,1024,1024,0,0,0,0,26,0,0,100,4.306,4.312,4.316,4.321,0,0,0,73.04,3080.2409840664,0,41,Motors_Started,
1300,2025-03-22 04:10:37,37.1259082435889,140.015848623703,0,,,3080.2409840664,0.328084,0,0.10883202448,0.26389108456,31,5,0,3080.2409840664,0,0,0.160958994652,0,0,0,19.5, 5.6, 2.5,0,0,1024,1024,1024,1024,0,0,0,0,26,0,0,100,4.306,4.312,4.316,4.321,0,0,0,73.04,3080.2409840664,0,41,Motors_Started,離陸準備中
1500,2025-03-22 04:10:37,37.1259078717975,140.015846897763,-0.656168,,,3079.5848160664,0,0,0.53229004328,0.78396656052,31,5,17.225,3080.2409840664,0,0,0.53229004328,0,0,0,26, 5.8, 1.8,0,0,1024,1024,1024,1024,0,0,0,0,26,0,0,100,4.306,4.312,4.316,4.321,0,0,3.66,73.04,3079.5848160664,-0.656168,41,Motors_Started,
1700,2025-03-22 04:10:37,37.1259077973709,140.01584690942,-0.656168,,,3079.5848160664,0,0,0.54217193336,0.81133204696,31,5,17.225,3080.2409840664,0,0,0.54217193336,0,0,0,25.9, 5.7, 1.7,0,0,1024,1024,1024,1024,0,0,0,0,26,0,0,100,4.306,4.312,4.316,4.321,0,0,3.66,73.04,3079.5848160664,-0.656168,11,AutoTakeoff,
1900,2025-03-22 04:10:37,37.1259077399735,140.015846946281,-0.656168,,,3079.5848160664,0,0,0.543717209,0.8348589506,31,5,17.225,3080.2409840664,0,0,0.543717209,0,0,0,26, 5.3, 1.6,0,0,1024,1024,1024,1024,0,0,0,0,26,0,0,100,4.306,4.312,4.316,4.321,0,0,3.66,73.04,3079.5848160664,-0.656168,11,AutoTakeoff,"送信機が紐付けされていない／紐付けステータスを確認中 (Code: 16100089). 機体は飛行していません。ビジョンシステムと障害物回避が無効です (Code: 180059)"
2100,2025-03-22 04:10:37,37.1259076555747,140.015847089836,-0.328084,,,3079.9129000664,0,0,0.52693243156,0.8867454352,31,5,17.225,3080.2409840664,0,0,0.543717209,0,0,0,24.6, 0.6, 1.3,0,0,1024,1024,1024,1024,0,0,0,0,26,0,0,100,4.306,4.312,4.316,4.321,0,0,3.66,73.04,3079.9129000664,-0.328084,11,AutoTakeoff,"送信機が紐付けされていない／紐付けステータスを確認中 (Code: 16100089)"
2300,2025-03-22 04:10:38,37.1259076429239,140.015847535362,-0.328084,,,3079.9129000664,0,0.447388,0.43460959396,1.01643047872,31,5,17.225,3080.2409840664,0,0.447388,0.543717209,0,0.447388,-0.671082,24.9, -3.7, -1.4,0,0,1024,1024,1031,1024,0,0,1,0,25.9,0,0,100,4.306,4.312,4.316,4.321,0,0,3.66,73.04,3079.9129000664,-0.328084,11,AutoTakeoff,
2500,2025-03-22 04:10:38,37.125907905162,140.015848256943,0,,,3080.2409840664,0.328084,0.7158208,0.242124023496,1.2471129008,31,5,17.285,3080.2409840664,0,0.7158208,0.543717209,0.223694,0.671082,-1.11847,24.5, 4.2, -2.6,0,0,1024,1024,1024,1024,0,0,0,0,25.8,0,0,100,4.281,4.276,4.271,4.268,0,0,3.398,73.04,3080.2409840664,0,11,AutoTakeoff,
2700,2025-03-22 04:10:38,37.1259080843517,140.015848941152,0,,,3080.2409840664,0.656168,0.447388,0.2026164763,1.456610939,31,5,17.285,3080.2409840664,0,0.7158208,0.543717209,0,0.447388,-1.11847,24.4, 4.8, -4.3,0,0,1024,1024,1096,1024,0,0,11,0,25.8,0,0,100,4.281,4.276,4.271,4.268,0,0,3.398,73.04,3080.2409840664,0,11,AutoTakeoff,
2900,2025-03-22 04:10:38,37.1259081445172,140.015849482031,0.328084,,,3080.5690680664,0.984252,0.223694,0.311148632004,1.61547577348,31,5,17.285,3080.5690680664,0.328084,0.7158208,0.543717209,0,0.223694,-1.11847,24.6, 4, -5.4,0,0,1024,1024,1134,1024,0,0,17,0,25.8,0,0,100,4.281,4.276,4.271,4.268,0,0,3.398,73.04,3080.5690680664,0.328084,11,AutoTakeoff,
3100,2025-03-22 04:10:38,37.1259081786063,140.015849839466,0.656168,,,3080.8971520664,1.64042,0.223694,0.40235893676,1.7201936246,31,5,17.285,3080.8971520664,0.656168,0.7158208,0.543717209,0,0.223694,-1.11847,24.7, 3.5, -5.1,0,0,1024,1024,1147,1024,0,0,19,0,25.7,0,0,100,4.281,4.276,4.271,4.268,0,0,3.398,73.04,3080.8971520664,0.656168,11,AutoTakeoff,
3300,2025-03-22 04:10:39,37.125908256565,140.015850049224,1.312336,,,3081.5533200664,1.968504,0,0.45342521136,1.7875164614,31,5,17.285,3081.5533200664,1.312336,0.7158208,0.543717209,0,0,-1.342164,24.7, 4, -4.6,0,0,1024,1024,1190,1024,0,0,25,0,25.7,0,0,100,4.281,4.276,4.271,4.268,0,0,3.398,73.04,3081.5533200664,1.312336,11,AutoTakeoff,
3500,2025-03-22 04:10:39,37.1259084084511,140.015850186078,1.64042,,,3081.8814040664,2.296588,0.223694,0.48404857192,1.85574809088,31,5,17.083,3081.8814040664,1.64042,0.7158208,0.543717209,0.223694,0,-1.11847,24.4, 8.1, -3.1,0,0,1024,1024,1217,1024,0,0,29,0,25.7,0,0,100,4.268,4.268,4.266,4.267,0,0,7.042,73.22,3081.8814040664,1.64042,11,AutoTakeoff,
3700,2025-03-22 04:10:39,37.125908560763,140.015850267977,2.296588,,,3082.5375720664,2.624672,0,0.50586943876,1.91621069124,31,5,17.083,3082.5375720664,2.296588,0.7158208,0.543717209,0,0,-1.565858,24.9, 5.3, -4.2,0,0,1024,1024,1273,1024,0,0,38,0,25.7,0,0,100,4.268,4.268,4.266,4.267,0,0,7.042,73.22,3082.5375720664,2.296588,11,AutoTakeoff,
3900,2025-03-22 04:10:39,37.1259087081298,140.015850257419,2.624672,,,3082.8656560664,3.28084,0,0.50677166976,1.97006567984,31,5,17.083,3082.8656560664,2.624672,0.7158208,0.543717209,0,0,-1.789552,24.4, 6.7, -3,0,0,1024,1024,1274,1024,0,0,38,0,25.7,0,0,100,4.268,4.268,4.266,4.267,0,0,7.042,73.22,3082.8656560664,2.624672,11,AutoTakeoff,
4100,2025-03-22 04:10:39,37.1259088156888,140.015850164288,3.608924,,,3083.8499080664,3.937008,0,0.486712614,2.01775268924,31,5,17.083,3083.8499080664,3.608924,0.7158208,0.543717209,0,0,-2.23694,24.5, 6.5, -1.3,0,0,1024,1024,1279,1024,0,0,39,0,25.7,0,0,100,4.268,4.268,4.266,4.267,0,0,7.042,73.22,3083.8499080664,3.608924,6,P-GPS,
4300,2025-03-22 04:10:40,37.1259088330401,140.015850126168,4.265092,,,3084.5060760664,4.593176,0,0.47729988404,2.03052171852,31,5,17.083,3084.5060760664,4.265092,0.7158208,0.543717209,0,0,-1.789552,25.2, 6.5, -2,0,0,1024,1024,1311,1024,0,0,43,0,25.7,0,0,100,4.268,4.268,4.266,4.267,0,0,7.042,73.22,3084.5060760664,4.265092,6,P-GPS,
4500,2025-03-22 04:10:40,37.1259087996744,140.015850066832,4.593176,,,3084.8341600664,5.249344,0,0.45776904352,2.05164376644,31,5,17.057,3084.8341600664,4.593176,0.7158208,0.543717209,0,0,-1.789552,25.1, 4.6, -1.1,0,0,1024,1024,1316,1024,0,0,44,0,25.7,0,0,100,4.278,4.272,4.27,4.265,0,0,7.492,73.22,3084.8341600664,4.593176,6,P-GPS,
4700,2025-03-22 04:10:40,37.1259087937031,140.015849953743,5.249344,,,3085.4903280664,5.905512,0,0.42519358316,2.0846129276,31,5,17.057,3085.4903280664,5.249344,0.7158208,0.543717209,0,0,-2.013246,25.5, 4.3, -0.9,0,0,1024,1024,1322,1024,0,0,45,0,25.7,0,0,100,4.278,4.272,4.27,4.265,0,0,7.492,73.22,3085.4903280664,5.249344,6,P-GPS,
4900,2025-03-22 04:10:40,37.1259088277066,140.015849799534,6.233596,,,3086.4745800664,6.56168,0,0.38489830628,2.13115492384,31,5,17.057,3086.4745800664,6.233596,0.7158208,0.543717209,0,0,-2.460634,25.4, 4.6, 1.3,0,0,1024,1024,1322,1024,0,0,45,0,25.7,0,0,100,4.278,4.272,4.27,4.265,0,0,7.492,73.22,3086.4745800664,6.233596,6,P-GPS,
5100,2025-03-22 04:10:40,37.1259088176403,140.015849804448,6.889764,,,3087.1307480664,7.217848,0,0.38526247952,2.13509521268,30,5,17.057,3087.1307480664,6.889764,0.7158208,0.543717209,0,0,-2.23694,25.9, 6.7, 2.3,0,0,1024,1024,1326,1024,0,0,46,0,25.7,0,0,100,4.278,4.272,4.27,4.265,0,0,7.492,73.22,3087.1307480664,6.889764,6,P-GPS,
5300,2025-03-22 04:10:41,37.1259085682696,140.015850015502,7.874016,,,3088.1150000664,7.874016,0.223694,0.43251641804,2.24485571488,30,5,17.057,3088.1150000664,7.874016,0.7158208,0.543717209,-0.223694,0,-2.460634,25.4, 1.9, -3.4,0,0,1024,1024,1324,1024,0,0,45,0,25.7,0,0,100,4.278,4.272,4.27,4.265,0,0,7.492,73.22,3088.1150000664,7.874016,6,P-GPS,
5500,2025-03-22 04:10:41,37.1259083592131,140.015850190592,8.530184,,,3088.7711680664,8.530184,0.223694,0.48735893948,2.33657159708,30,5,17.01,3088.7711680664,8.530184,0.7158208,0.543717209,-0.223694,0,-2.460634,25, 1.6, -4,0,0,1024,1024,1317,1024,0,0,44,0,25.7,0,0,100,4.24,4.236,4.231,4.24,0,0,7.835,73.22,3088.7711680664,8.530184,6,P-GPS,"ホームポイントを更新 (Code: 3000001)"
5700,2025-03-22 04:10:41,37.1259082852005,140.015850237469,9.514436,,,3089.7554200664,9.514436,0,0.50499673532,2.36682422272,30,5,17.01,3089.7554200664,9.514436,0.7158208,0.543717209,0,0,-2.684328,25, 1.8, -3.2,0,0,1024,1024,1317,1024,0,0,44,0,25.7,0,0,100,4.24,4.236,4.231,4.24,0,0,7.835,73.22,3089.7554200664,9.514436,6,P-GPS,
5900,2025-03-22 04:10:41,37.1259082310223,140.015850275694,10.170604,,,3090.4115880664,10.170604,0,0.51976051532,2.38950466964,30,5,17.01,3090.4115880664,10.170604,0.7158208,0.543717209,0,0,-2.23694,25.4, 2, -4.2,0,0,1024,1024,1324,1024,0,0,45,0,25.7,0,0,100,4.24,4.236,4.231,4.24,0,0,7.835,73.22,3090.4115880664,10.170604,6,P-GPS,
6100,2025-03-22 04:10:41,37.1259082506432,140.015850257583,10.826772,,,3091.0677560664,10.826772,0,0.51312993768,2.3983924652,30,5,17.01,3091.0677560664,10.826772,0.7158208,0.543717209,0,0,-2.684328,25, 0.6, -0.9,0,0,1024,1024,1322,1024,0,0,45,0,25.7,0,0,100,4.24,4.236,4.231,4.24,0,0,7.835,73.22,3091.0677560664,10.826772,6,P-GPS,
6300,2025-03-22 04:10:42,37.1259082902568,140.015850394364,11.811024,,,3092.0520080664,11.811024,0,0.54966537192,2.44072514372,30,5,17.01,3092.0520080664,11.811024,0.7158208,0.54966537192,0,0,-2.460634,25.4, 2.3, -3.1,0,0,1024,1024,1222,1024,0,0,30,0,25.7,0,0,100,4.24,4.236,4.231,4.24,0,0,7.835,73.22,3092.0520080664,11.811024,6,P-GPS,
6500,2025-03-22 04:10:42,37.1259082972664,140.015850547027,13.451444,,,3093.6924280664,12.467192,0,0.59316602948,2.48521005328,30,5,17.006,3093.6924280664,13.451444,0.7158208,0.59316602948,0,0,-2.684328,25.4, 0.5, -2.9,0,0,1024,1024,1024,1024,0,0,0,0,25.7,0,0,100,4.263,4.251,4.239,4.235,0,0,8.214,73.22,3093.6924280664,13.451444,6,P-GPS,
6700,2025-03-22 04:10:42,37.1259082768327,140.015850801894,13.779528,,,3094.0205120664,13.12336,0.223694,0.66761485076,2.55972449136,30,5,17.006,3094.0205120664,13.779528,0.7158208,0.66761485076,0,0.223694,-1.789552,25.1, 1.5, -5.7,0,0,1024,1024,1024,1024,0,0,0,0,25.7,0,0,100,4.263,4.251,4.239,4.235,0,0,8.214,73.22,3094.0205120664,13.779528,6,P-GPS,
6900,2025-03-22 04:10:42,37.1259082872143,140.015851102138,14.107612,,,3094.3485960664,13.451444,0,0.7537401816,2.647145754,30,5,17.006,3094.3485960664,14.107612,0.7158208,0.7537401816,0,0,-0.223694,25, 1.5, -6.5,0,0,1024,1024,1024,1024,0,0,0,0,25.7,0,0,100,4.263,4.251,4.239,4.235,0,0,8.214,73.22,3094.3485960664,14.107612,6,P-GPS,
7100,2025-03-22 04:10:42,37.1259084260602,140.015851252712,14.107612,,,3094.3485960664,13.451444,0.223694,0.79316603588,2.71411426008,30,5,17.006,3094.3485960664,14.107612,0.7158208,0.79316603588,0.223694,0,0,25.1, 1.6, -3.5,0,0,1024,1024,1024,1024,0,0,0,0,25.7,0,0,100,4.263,4.251,4.239,4.235,0,0,8.214,73.22,3094.3485960664,14.107612,6,P-GPS,
7300,2025-03-22 04:10:43,37.1259086567201,140.015851333885,14.107612,,,3094.3485960664,13.451444,0.223694,0.81709648284,2.80151911852,30,5,17.006,3094.3485960664,14.107612,0.7158208,0.81709648284,0.223694,0,0,24.9, 5.1, -3.9,0,0,1024,1024,1024,1103,0,0,0,12,25.7,0,0,100,4.263,4.251,4.239,4.235,0,0,8.214,73.22,3094.3485960664,14.107612,6,P-GPS,飛行中
7500,2025-03-22 04:10:43,37.1259088450291,140.015851386018,14.107612,,,3094.3485960664,13.451444,0,0.83879923944,2.87188001316,30,5,17.187,3094.3485960664,14.107612,0.7158208,0.83879923944,0,0,0,25.3, 5.6, -2.7,0,0,1024,1024,1024,1263,0,0,0,36,25.7,0,0,100,4.267,4.268,4.261,4.259,0,0,7.06,73.4,3094.3485960664,14.107612,6,P-GPS,
7700,2025-03-22 04:10:43,37.1259088381335,140.015851404052,14.107612,,,3094.3485960664,13.451444,0,0.84366144432,2.87769694248,30,5,17.187,3094.3485960664,14.107612,0.7158208,0.84366144432,0,0,0,25.7, 3.1, -2.6,0,0,1024,1024,1024,1276,0,0,0,38,26.4,0,0,100,4.267,4.268,4.261,4.259,0,0,7.06,73.4,3094.3485960664,14.107612,6,P-GPS,
7900,2025-03-22 04:10:43,37.1259087400616,140.015851462181,14.435696,,,3094.6766800664,13.451444,0,0.85651905628,2.9172737154,30,5,17.187,3094.6766800664,14.435696,0.7158208,0.85651905628,0,0,0,26, 2.6, -4,0,0,1024,1024,1024,1323,0,0,0,45,27.5,0,0,100,4.267,4.268,4.261,4.259,0,0,7.06,73.4,3094.6766800664,14.435696,6,P-GPS,
8100,2025-03-22 04:10:43,37.1259086474052,140.015851485604,14.435696,,,3094.6766800664,13.451444,0,0.86099412204,2.95175862464,30,5,17.187,3094.6766800664,14.435696,0.7158208,0.86099412204,0,0,0,27.2, 1.3, -4.1,0,0,1024,1024,1024,1347,0,0,0,49,29,0,0,100,4.267,4.268,4.261,4.259,0,0,7.06,73.4,3094.6766800664,14.435696,6,P-GPS,
8300,2025-03-22 04:10:44,37.1259086138801,140.015851474817,14.435696,,,3094.6766800664,13.451444,0,0.8573491088,2.9643865778,30,5,17.187,3094.6766800664,14.435696,0.7158208,0.86099412204,0,0,0,28.8, 1.7, -4.4,0,0,1024,1024,1024,1361,0,0,0,51,31.1,0,0,100,4.267,4.268,4.261,4.259,0,0,7.06,73.4,3094.6766800664,14.435696,6,P-GPS,
8500,2025-03-22 04:10:44,37.1259087025018,140.015851431071,14.435696,,,3094.6766800664,13.451444,0,0.84638782236,2.99913395424,31,5,17.012,3094.6766800664,14.435696,0.7158208,0.86099412204,0,0,0,30.8, 2.5, -2.4,0,0,1024,1024,1024,1321,0,0,0,45,33.5,0,0,100,4.255,4.256,4.256,4.257,0,0,7.7,73.58,3094.6766800664,14.435696,6,P-GPS,
8700,2025-03-22 04:10:44,37.1259088176045,140.015851379425,14.435696,,,3094.6766800664,13.451444,0,0.83559385876,3.04373697404,31,5,17.012,3094.6766800664,14.435696,0.7158208,0.86099412204,0,0,0,33.8, 2.1, -2.6,0,0,1024,1024,1024,1024,0,0,0,0,35,0,0,100,4.255,4.256,4.256,4.257,0,0,7.7,73.58,3094.6766800664,14.435696,6,P-GPS,
8900,2025-03-22 04:10:44,37.1259088674299,140.01585135959,14.76378,,,3095.0047640664,13.451444,0,0.83234582716,3.06280849696,31,5,17.012,3095.0047640664,14.76378,0.7158208,0.86099412204,0,0,0,34.5, 3, -2.8,0,0,1024,1024,1024,1024,0,0,0,0,35.1,0,0,100,4.255,4.256,4.256,4.257,0,0,7.7,73.58,3095.0047640664,14.76378,6,P-GPS,
9100,2025-03-22 04:10:44,37.1259088190131,140.015851392668,14.76378,,,3095.0047640664,13.451444,0,0.83947837332,3.082923327,31,5,17.012,3095.0047640664,14.76378,0.7158208,0.86099412204,0,0,0,35, 0.4, -4,0,0,1024,1024,1024,1024,0,0,0,0,35.1,0,0,100,4.255,4.256,4.256,4.257,0,0,7.7,73.58,3095.0047640664,14.76378,6,P-GPS,
9300,2025-03-22 04:10:45,37.1259087895708,140.01585144519,14.76378,,,3095.0047640664,13.451444,0,0.85339241576,3.10160114912,31,5,17.012,3095.0047640664,14.76378,0.7158208,0.86099412204,0,0,0,34.7, 1.3, -4.7,0,0,1067,1024,1024,1024,7,0,0,0,35.1,0,0,100,4.255,4.256,4.256,4.257,0,0,7.7,73.58,3095.0047640664,14.76378,6,P-GPS,
9500,2025-03-22 04:10:45,37.1259087807124,140.015851500775,14.76378,,,3095.0047640664,13.451444,0,0.86912404356,3.11809065096,31,5,17.027,3095.0047640664,14.76378,0.7158208,0.86912404356,0,0,0,34.8, 1.1, -4.2,0,0,1117,1024,1024,1024,14,0,0,0,35.1,0,0,99,4.265,4.263,4.261,4.258,0,0,7.252,73.58,3095.0047640664,14.76378,6,P-GPS,
9700,2025-03-22 04:10:45,37.1259088003213,140.015851586514,14.76378,,,3095.0047640664,13.451444,0,0.894685068,3.14403553368,31,5,17.027,3095.0047640664,14.76378,0.7158208,0.894685068,0,0,0,34.9, 1.2, -4.3,0,0,1135,1024,1024,1024,17,0,0,0,35.1,0,0,99,4.265,4.263,4.261,4.258,0,0,7.252,73.58,3095.0047640664,14.76378,6,P-GPS,
9900,2025-03-22 04:10:45,37.1259088664842,140.01585173446,15.091864,,,3095.3328480664,13.451444,0,0.94030186736,3.19338264812,31,5,17.027,3095.3328480664,15.091864,0.7158208,0.94030186736,0,0,0,34.8, 1.8, -4.6,0,0,1142,1024,1024,1024,18,0,0,0,35.1,0,0,99,4.265,4.263,4.261,4.258,0,0,7.252,73.58,3095.3328480664,15.091864,6,P-GPS,
10100,2025-03-22 04:10:45,37.1259089354439,140.015851920016,15.091864,,,3095.3328480664,13.451444,0,0.99724740724,3.2529364558,31,5,17.027,3095.3328480664,15.091864,0.7158208,0.99724740724,0,0,0,34.7, 1.9, -5.5,0,0,1164,1024,1031,1024,21,0,1,0,35.1,0,0,99,4.265,4.263,4.261,4.258,0,0,7.252,73.58,3095.3328480664,15.091864,6,P-GPS,
10300,2025-03-22 04:10:46,37.1259089919888,140.015852101151,15.091864,,,3095.3328480664,13.451444,0,1.05248362948,3.3095145416,31,5,17.027,3095.3328480664,15.091864,0.7158208,1.05248362948,0,0,0,34.1, 2.9, -5.4,0,0,1163,1024,1043,1024,21,0,3,0,35.1,0,0,99,4.265,4.263,4.261,4.258,0,0,7.252,73.58,3095.3328480664,15.091864,6,P-GPS,
10500,2025-03-22 04:10:46,37.1259089613682,140.015852298013,15.091864,,,3095.3328480664,13.451444,0,1.10742129528,3.3678806852,31,5,17.035,3095.3328480664,15.091864,0.7158208,1.10742129528,0,0,0,34.6, 0, -6.1,0,0,1173,1024,1089,1024,23,0,10,0,35.1,0,0,99,4.262,4.258,4.251,4.248,0,0,6.844,73.76,3095.3328480664,15.091864,6,P-GPS,
10700,2025-03-22 04:10:46,37.1259089577035,140.015852524673,15.091864,,,3095.3328480664,13.451444,0,1.17255253096,3.4338255692,31,5,17.035,3095.3328480664,15.091864,0.7158208,1.17255253096,0,0,0,34.6, -0.8, -6.3,0,0,1206,1024,1075,1024,28,0,8,0,35.1,0,0,99,4.262,4.258,4.251,4.248,0,0,6.844,73.76,3095.3328480664,15.091864,6,P-GPS,
10900,2025-03-22 04:10:46,37.1259091261129,140.015852805652,15.091864,,,3095.3328480664,13.451444,0.3131716,1.2626968908,3.5360565436,31,5,17.035,3095.3328480664,15.091864,0.7158208,1.2626968908,0.223694,0.223694,0,34.3, 0.1, -6.3,0,0,1212,1024,1073,1024,28,0,7,0,35.1,0,0,99,4.262,4.258,4.251,4.248,0,0,6.844,73.76,3095.3328480664,15.091864,6,P-GPS,
11100,2025-03-22 04:10:46,37.125909398946,140.015853173386,15.419948,,,3095.6609320664,13.12336,0.3131716,1.38745739348,3.6821851572,31,5,17.035,3095.6609320664,15.419948,0.7158208,1.38745739348,0.223694,0.223694,0,34.5, -0.6, -5.5,0,0,1228,1024,1081,1024,31,0,9,0,35.1,0,0,99,4.262,4.258,4.251,4.248,0,0,6.844,73.76,3095.6609320664,15.419948,6,P-GPS,
11300,2025-03-22 04:10:47,37.1259097904713,140.015853720327,15.419948,,,3095.6609320664,13.451444,0.6263432,1.57828417124,3.8960303084,31,5,17.035,3095.6609320664,15.419948,0.7158208,1.57828417124,0.447388,0.447388,0,34.6, -1.1, -6.6,0,0,1232,1024,1092,1024,32,0,10,0,35.1,0,0,99,4.262,4.258,4.251,4.248,0,0,6.844,73.76,3095.6609320664,15.419948,6,P-GPS,
11500,2025-03-22 04:10:47,37.1259103187972,140.0158543142,15.419948,,,3095.6609320664,13.451444,0.8052984,1.80463260368,4.154855776,31,5,16.967,3095.6609320664,15.419948,0.8052984,1.80463260368,0.671082,0.447388,0,34.7, -0.4, -6.9,0,0,1229,1024,1096,1024,31,0,11,0,35.1,0,0,99,4.238,4.237,4.235,4.238,0,0,7.709,73.76,3095.6609320664,15.419948,6,P-GPS,
11700,2025-03-22 04:10:47,37.1259110522905,140.015854941847,15.748032,,,3095.9890160664,13.451444,1.006623,2.07966870172,4.478838726,31,5,16.967,3095.9890160664,15.748032,1.006623,2.07966870172,0.894776,0.447388,0,34.5, -1.8, -4.1,0,0,1230,1024,1096,1024,31,0,11,0,35.1,0,0,99,4.238,4.237,4.235,4.238,0,0,7.709,73.76,3095.9890160664,15.748032,6,P-GPS,
11900,2025-03-22 04:10:47,37.1259119205176,140.015855786738,15.748032,,,3095.9890160664,13.451444,1.2974252,2.4464731754,4.879757374,31,5,16.967,3095.9890160664,15.748032,1.2974252,2.4464731754,1.11847,0.671082,-0.223694,34.9, -0.5, -5.9,0,0,1233,1024,1102,1024,32,0,12,0,35.1,0,0,99,4.238,4.237,4.235,4.238,0,0,7.709,73.76,3095.9890160664,15.748032,6,P-GPS,
12100,2025-03-22 04:10:47,37.1259128730492,140.01585679681,16.076116,,,3096.3171000664,13.451444,1.4316416,2.87961951472,5.3348754988,31,5,16.967,3096.3171000664,16.076116,1.4316416,2.87961951472,1.11847,0.894776,-0.223694,34.6, 0.9, -6.9,0,0,1231,1024,1109,1024,31,0,13,0,35.1,0,0,99,4.238,4.237,4.235,4.238,0,0,7.709,73.76,3096.3171000664,16.076116,6,P-GPS,
12300,2025-03-22 04:10:48,37.125913984324,140.01585790125,16.076116,,,3096.3171000664,13.451444,1.6105968,3.374836066,5.8521655416,31,5,16.967,3096.3171000664,16.076116,1.6105968,3.374836066,1.342164,0.894776,0,34.2, 0.4, -6.1,0,0,1233,1024,1119,1024,32,0,14,0,35.1,0,0,99,4.238,4.237,4.235,4.238,0,0,7.709,73.76,3096.3171000664,16.076116,6,P-GPS,
12500,2025-03-22 04:10:48,37.1259151761279,140.015858956308,16.4042,,,3096.6451840664,13.451444,1.8119214,3.8828085232,6.3844162148,31,5,16.921,3096.6451840664,16.4042,1.8119214,3.8828085232,1.565858,0.894776,-0.223694,34.1, 0.7, -5,0,0,1238,1024,1120,1024,32,0,15,0,35.1,0,0,99,4.24,4.234,4.231,4.23,0,0,8.668,73.76,3096.6451840664,16.4042,6,P-GPS,
12700,2025-03-22 04:10:48,37.1259165315697,140.015860137129,16.4042,,,3096.6451840664,13.779528,1.8119214,4.4631891192,6.9865159716,31,5,16.921,3096.6451840664,16.4042,1.8119214,4.4631891192,1.565858,0.894776,0,34, 2.5, -6.4,0,0,1237,1024,1119,1024,32,0,14,0,35.1,0,0,99,4.24,4.234,4.231,4.23,0,0,8.668,73.76,3096.6451840664,16.4042,6,P-GPS,
12900,2025-03-22 04:10:48,37.1259178496089,140.015861239071,16.732284,,,3096.9732680664,13.451444,1.8119214,5.0225067224,7.564468746,31,5,16.921,3096.9732680664,16.732284,1.8119214,5.0225067224,1.565858,0.894776,-0.223694,34.6, 0.8, -4.8,0,0,1238,1024,1119,1024,32,0,14,0,35.1,0,0,99,4.24,4.234,4.231,4.23,0,0,8.668,73.76,3096.9732680664,16.732284,6,P-GPS,
13100,2025-03-22 04:10:49,37.1259193361475,140.015862425539,16.732284,,,3096.9732680664,13.779528,2.1027236,5.6461287896,8.2073165356,31,5,16.921,3096.9732680664,16.732284,2.1027236,5.6461287896,1.789552,1.11847,-0.223694,34.7, 0.3, -5.6,0,0,1234,1024,1126,1024,32,0,15,0,35.1,0,0,99,4.24,4.234,4.231,4.23,0,0,8.668,73.76,3096.9732680664,16.732284,6,P-GPS,
13500,2025-03-22 04:10:49,37.1259226971526,140.015865001317,17.060368,,,3097.3013520664,13.779528,2.3040482,7.0476052124,9.6443900724,30,5,16.929,3097.3013520664,17.060368,2.3040482,7.0476052124,2.013246,1.11847,-0.223694,34.3, 1.3, -3.9,0,0,1235,1024,1127,1024,32,0,16,0,35.1,0,0,99,4.249,4.252,4.251,4.253,0,0,7.932,73.94,3097.3013520664,17.060368,6,P-GPS,
13700,2025-03-22 04:10:49,37.1259243646964,140.015866489886,17.388452,,,3097.6294360664,13.779528,2.4158952,7.7887797768,10.3911748732,30,5,16.929,3097.6294360664,17.388452,2.4158952,7.7887797768,2.013246,1.342164,-0.223694,34, 1.8, -4.9,0,0,1236,1024,1127,1024,32,0,16,0,35.1,0,0,99,4.249,4.252,4.251,4.253,0,0,7.932,73.94,3097.6294360664,17.388452,6,P-GPS,
13900,2025-03-22 04:10:49,37.1259260198521,140.015868096722,17.388452,,,3097.6294360664,13.779528,2.4158952,8.5503939744,11.1548231916,30,5,16.929,3097.6294360664,17.388452,2.4158952,8.5503939744,2.013246,1.342164,-0.223694,33.7, 2.3, -5.9,0,0,1234,1024,1127,1024,32,0,16,0,35.1,0,0,99,4.249,4.252,4.251,4.253,0,0,7.932,73.94,3097.6294360664,17.388452,6,P-GPS,
14100,2025-03-22 04:10:49,37.1259276539179,140.015869718845,17.716536,,,3097.9575200664,13.779528,2.4158952,9.3095147336,11.9151578616,30,5,16.929,3097.9575200664,17.716536,2.4158952,9.3095147336,2.013246,1.342164,0,34, 1.6, -6.1,0,0,1234,1024,1127,1024,32,0,16,0,35.1,0,0,99,4.249,4.252,4.251,4.253,0,0,7.932,73.94,3097.9575200664,17.716536,6,P-GPS,
14300,2025-03-22 04:10:50,37.1259292846881,140.015871279608,17.716536,,,3097.9575200664,13.779528,2.4158952,10.0561354924,12.6635830824,30,5,16.929,3097.9575200664,17.716536,2.4158952,10.0561354924,2.013246,1.342164,0,34.1, 0.8, -6.7,0,0,1233,1024,1130,1024,32,0,16,0,35.1,0,0,99,4.249,4.252,4.251,4.253,0,0,7.932,73.94,3097.9575200664,17.716536,6,P-GPS,
14500,2025-03-22 04:10:50,37.1259309848629,140.015872779216,18.04462,,,3098.2856040664,13.779528,2.4158952,10.8105646504,13.42191644,30,5,17.008,3098.2856040664,18.04462,2.4158952,10.8105646504,2.013246,1.342164,0,34.2, -0.4, -5.5,0,0,1231,1024,1133,1024,31,0,17,0,35.1,0,0,99,4.245,4.246,4.244,4.246,0,0,6.738,73.94,3098.2856040664,18.04462,6,P-GPS,
14700,2025-03-22 04:10:50,37.1259327762921,140.015874380358,18.04462,,,3098.2856040664,13.779528,2.7290668,11.6100069332,14.2245083292,30,5,17.008,3098.2856040664,18.04462,2.7290668,11.6100069332,2.23694,1.565858,-0.223694,34.2, 0, -5.7,0,0,1231,1024,1133,1024,31,0,17,0,35.1,0,0,99,4.245,4.246,4.244,4.246,0,0,6.738,73.94,3098.2856040664,18.04462,6,P-GPS,
14900,2025-03-22 04:10:50,37.1259345955449,140.01587598482,18.04462,,,3098.2856040664,14.107612,2.7290668,12.4182418672,15.035925678,30,5,17.008,3098.2856040664,18.04462,2.7290668,12.4182418672,2.23694,1.565858,-0.223694,34.5, -1.2, -6.2,0,0,1230,1024,1140,1024,31,0,18,0,35.1,0,0,99,4.245,4.246,4.244,4.246,0,0,6.738,73.94,3098.2856040664,18.04462,6,P-GPS,
15100,2025-03-22 04:10:50,37.1259365561464,140.015877558163,18.372704,,,3098.6136880664,14.107612,2.908022,13.2607943876,15.8851383036,30,5,17.008,3098.6136880664,18.372704,2.908022,13.2607943876,2.460634,1.565858,-0.223694,34.1, 0.1, -3.9,0,0,1230,1024,1150,1024,31,0,19,0,35.1,0,0,99,4.245,4.246,4.244,4.246,0,0,6.738,73.94,3098.6136880664,18.372704,6,P-GPS,
15300,2025-03-22 04:10:51,37.1259387163262,140.015879333477,18.372704,,,3098.6136880664,14.107612,2.908022,14.1977366748,16.8273955516,30,5,17.008,3098.6136880664,18.372704,2.908022,14.1977366748,2.460634,1.565858,-0.223694,34.2, 1.4, -4,0,0,1232,1024,1156,1024,32,0,20,0,35.1,0,0,99,4.245,4.246,4.244,4.246,0,0,6.738,73.94,3098.6136880664,18.372704,6,P-GPS,
15500,2025-03-22 04:10:51,37.1259408036805,140.015881204633,18.700788,,,3098.9417720664,14.107612,3.0422384,15.1321199068,17.7634848204,30,5,16.957,3098.9417720664,18.700788,3.0422384,15.1321199068,2.460634,1.789552,-0.223694,34.1, 2.3, -5.3,0,0,1231,1024,1158,1024,31,0,20,0,35.1,0,0,99,4.245,4.242,4.24,4.244,0,0,7.669,74.12,3098.9417720664,18.700788,6,P-GPS,
15700,2025-03-22 04:10:51,37.125942839039,140.015883081489,18.700788,,,3098.9417720664,14.107612,3.2211936,16.0529204612,18.68520401,30,5,16.957,3098.9417720664,18.700788,3.2211936,16.0529204612,2.684328,1.789552,-0.223694,34, 2.2, -6,0,0,1231,1024,1169,1024,31,0,22,0,35.1,0,0,99,4.245,4.242,4.24,4.244,0,0,7.669,74.12,3098.9417720664,18.700788,6,P-GPS,
15900,2025-03-22 04:10:51,37.1259449592963,140.015885000058,19.028872,,,3099.2698560664,14.435696,3.2211936,17.0056107804,19.6390754316,30,5,16.957,3099.2698560664,19.028872,3.2211936,17.0056107804,2.684328,1.789552,-0.447388,34, 2.3, -5.5,0,0,1233,1024,1182,1024,32,0,24,0,35.1,0,0,99,4.245,4.242,4.24,4.244,0,0,7.669,74.12,3099.2698560664,19.028872,6,P-GPS,
16100,2025-03-22 04:10:51,37.125947102,140.015886896587,19.028872,,,3099.2698560664,14.435696,3.2211936,17.9608601548,20.5959324176,30,5,16.957,3099.2698560664,19.028872,3.2211936,17.9608601548,2.684328,1.789552,-0.447388,34.2, 2.6, -5.3,0,0,1231,1024,1177,1024,31,0,23,0,35.1,0,0,99,4.245,4.242,4.24,4.244,0,0,7.669,74.12,3099.2698560664,19.028872,6,P-GPS,
16300,2025-03-22 04:10:52,37.125949270844,140.015888736,19.356956,,,3099.5979400664,14.435696,3.1093466,18.9134848572,21.5511489836,30,5,16.957,3099.5979400664,19.356956,3.2211936,18.9134848572,2.684328,1.565858,-0.447388,34.1, 2.3, -5.4,0,0,1232,1024,1176,1024,32,0,23,0,35.1,0,0,99,4.245,4.242,4.24,4.244,0,0,7.669,74.12,3099.5979400664,19.356956,6,P-GPS,
16500,2025-03-22 04:10:52,37.1259514927267,140.015890476849,19.68504,,,3099.9260240664,14.435696,3.1093466,19.8639770136,22.5069889092,30,5,16.957,3099.9260240664,19.68504,3.2211936,19.8639770136,2.684328,1.565858,-0.447388,33.9, 2.1, -4.1,0,0,1232,1024,1176,1024,32,0,23,0,35.1,0,0,99,4.241,4.24,4.239,4.237,0,0,7.669,74.12,3099.9260240664,19.68504,6,P-GPS,
16700,2025-03-22 04:10:52,37.1259538129948,140.015892224308,19.68504,,,3099.9260240664,14.76378,3.1093466,20.8445872812,23.494423324,30,5,16.957,3099.9260240664,19.68504,3.2211936,20.8445872812,2.684328,1.565858,-0.447388,33.9, 0.9, -2.5,0,0,1232,1024,1181,1024,32,0,24,0,35.1,0,0,99,4.241,4.24,4.239,4.237,0,0,7.669,74.12,3099.9260240664,19.68504,6,P-GPS,
16900,2025-03-22 04:10:52,37.1259561052018,140.015894026348,20.013124,,,3100.2541080664,14.76378,3.4225182,21.827264478,24.481464038,31,5,16.957,3100.2541080664,20.013124,3.4225182,21.827264478,2.908022,1.789552,-0.671082,34.2, 2.2, -2.6,0,0,1234,1024,1189,1024,32,0,25,0,35.1,0,0,99,4.241,4.24,4.239,4.237,0,0,7.669,74.12,3100.2541080664,20.013124,6,P-GPS,
17100,2025-03-22 04:10:52,37.1259583835066,140.015895827018,20.341208,,,3100.5821920664,15.091864,3.4225182,22.8060374752,25.4639771928,31,5,16.957,3100.5821920664,20.341208,3.4225182,22.8060374752,2.908022,1.789552,-0.671082,34.2, 2.9, -2.6,0,0,1234,1024,1190,1024,32,0,25,0,35.1,0,0,99,4.241,4.24,4.239,4.237,0,0,7.669,74.12,3100.5821920664,20.341208,6,P-GPS,
17300,2025-03-22 04:10:53,37.1259607615846,140.015897726623,20.341208,,,3100.5821920664,15.091864,3.4225182,23.831529634,26.492618958,31,5,16.957,3100.5821920664,20.341208,3.4225182,23.831529634,2.908022,1.789552,-0.671082,34.1, 3.1, -2.2,0,0,1233,1024,1189,1024,32,0,25,0,35.1,0,0,99,4.241,4.24,4.239,4.237,0,0,7.669,74.12,3100.5821920664,20.341208,6,P-GPS,
17500,2025-03-22 04:10:53,37.1259630467292,140.015899565211,20.669292,,,3100.9102760664,15.419948,3.2211936,24.8194889832,27.4831701708,31,5,16.945,3100.9102760664,20.669292,3.4225182,24.8194889832,2.684328,1.789552,-0.671082,34.2, 2.3, -1.8,0,0,1234,1024,1192,1024,32,0,25,0,35.1,0,0,99,4.24,4.241,4.237,4.242,0,0,7.875,74.12,3100.9102760664,20.669292,6,P-GPS,
17700,2025-03-22 04:10:53,37.125965318674,140.015901409923,20.997376,,,3101.2383600664,15.419948,3.2211936,25.8048236604,28.470637394,31,5,16.945,3101.2383600664,20.997376,3.4225182,25.8048236604,2.684328,1.789552,-0.671082,34.4, 1.7, -2,0,0,1234,1024,1195,1024,32,0,26,0,35.1,0,0,99,4.24,4.241,4.237,4.242,0,0,7.875,74.12,3101.2383600664,20.997376,6,P-GPS,
17900,2025-03-22 04:10:53,37.1259675243804,140.01590326482,21.32546,,,3101.5664440664,15.748032,3.4225182,26.772638652,29.4395350628,31,5,16.945,3101.5664440664,21.32546,3.4225182,26.772638652,2.908022,1.789552,-0.671082,34.6, 3.3, -1.8,0,0,1235,1024,1220,1024,32,0,30,0,35.1,0,0,99,4.24,4.241,4.237,4.242,0,0,7.875,74.12,3101.5664440664,21.32546,6,P-GPS,
18100,2025-03-22 04:10:53,37.1259698242751,140.015905168727,21.653544,,,3101.8945280664,15.748032,3.4225182,27.7766741172,30.4449484808,31,5,16.945,3101.8945280664,21.653544,3.4225182,27.7766741172,2.908022,1.789552,-0.671082,34.6, 3.1, -1.3,0,0,1234,1024,1216,1024,32,0,29,0,35.1,0,0,99,4.24,4.241,4.237,4.242,0,0,7.875,74.12,3101.8945280664,21.653544,6,P-GPS,
18300,2025-03-22 04:10:54,37.1259721859283,140.015907070007,21.981628,,,3102.2226120664,16.076116,3.4225182,28.7985245436,31.468833028,31,5,16.945,3102.2226120664,21.981628,3.4225182,28.7985245436,2.908022,1.789552,-0.894776,34.4, 1.9, 0.2,0,0,1233,1024,1221,1024,32,0,30,0,35.1,0,0,99,4.24,4.241,4.237,4.242,0,0,7.875,74.12,3102.2226120664,21.981628,6,P-GPS,
18500,2025-03-22 04:10:54,37.1259744520785,140.015908947787,22.309712,,,3102.5506960664,16.4042,3.2211936,29.7883211632,32.4597779416,31,5,16.986,3102.5506960664,22.309712,3.4225182,29.7883211632,2.684328,1.789552,-1.11847,34.5, 1.2, -0.6,0,0,1233,1024,1219,1024,32,0,30,0,35.1,0,0,99,4.233,4.233,4.232,4.235,0,0,7.15,74.3,3102.5506960664,22.309712,6,P-GPS,
18700,2025-03-22 04:10:54,37.1259767220875,140.015910815919,22.637796,,,3102.8787800664,16.732284,3.2211936,30.7776912736,33.450460388,31,5,16.986,3102.8787800664,22.637796,3.4225182,30.7776912736,2.684328,1.789552,-1.11847,34.7, 0.5, -0.5,0,0,1233,1024,1220,1024,32,0,30,0,35.1,0,0,99,4.233,4.233,4.232,4.235,0,0,7.15,74.3,3102.8787800664,22.637796,6,P-GPS,
18900,2025-03-22 04:10:54,37.1259790027779,140.015912735602,22.96588,,,3103.2068640664,17.060368,3.2211936,31.7791020668,34.452428924,31,5,16.986,3103.2068640664,22.96588,3.4225182,31.7791020668,2.684328,1.789552,-0.894776,34.7, 0.6, -0.8,0,0,1234,1024,1220,1024,32,0,30,0,35.1,0,0,99,4.233,4.233,4.232,4.235,0,0,7.15,74.3,3103.2068640664,22.96588,6,P-GPS,
19100,2025-03-22 04:10:54,37.1259812353377,140.015914695498,23.622048,,,3103.8630320664,17.060368,3.4225182,32.7731965868,35.446851528,31,5,16.986,3103.8630320664,23.622048,3.4225182,32.7731965868,2.908022,1.789552,-0.894776,34.6, 1.1, -0.3,0,0,1237,1024,1219,1024,32,0,30,0,35.1,0,0,99,4.233,4.233,4.232,4.235,0,0,7.15,74.3,3103.8630320664,23.622048,6,P-GPS,
19300,2025-03-22 04:10:55,37.1259835783563,140.015916838839,23.950132,,,3104.1911160664,17.388452,3.5343652,33.831365912,36.504922428,31,5,16.986,3104.1911160664,23.950132,3.5343652,33.831365912,2.908022,2.013246,-0.894776,34.5, 1.1, -1,0,0,1237,1024,1220,1024,32,0,30,0,35.1,0,0,99,4.233,4.233,4.232,4.235,0,0,7.15,74.3,3104.1911160664,23.950132,6,P-GPS,
19500,2025-03-22 04:10:55,37.1259858766492,140.015919001469,24.278216,,,3104.5192000664,17.716536,3.5343652,34.879266208,37.553150808,31,5,16.986,3104.5192000664,24.278216,3.5343652,34.879266208,2.908022,2.013246,-0.894776,34.5, 1.6, -1.2,0,0,1236,1024,1228,1024,32,0,31,0,35.1,0,0,99,4.245,4.243,4.242,4.243,0,0,7.439,74.3,3104.5192000664,24.278216,6,P-GPS,
19700,2025-03-22 04:10:55,37.1259881455703,140.015921192349,24.6063,,,3104.8472840664,18.04462,3.6685816,35.923885664,38.597770264,31,5,16.986,3104.8472840664,24.6063,3.6685816,35.923885664,2.908022,2.23694,-0.894776,34.6, 1.8, -1.9,0,0,1237,1024,1237,1024,32,0,32,0,35.1,0,0,99,4.245,4.243,4.242,4.243,0,0,7.439,74.3,3104.8472840664,24.6063,6,P-GPS,
19900,2025-03-22 04:10:55,37.1259905136393,140.015923511422,25.262468,,,3105.5034520664,18.04462,3.6685816,37.01935814,39.693898908,31,5,16.986,3105.5034520664,25.262468,3.6685816,37.01935814,2.908022,2.23694,-1.11847,34.4, 3.4, -2.6,0,0,1237,1024,1232,1024,32,0,32,0,35.1,0,0,99,4.245,4.243,4.242,4.243,0,0,7.439,74.3,3105.5034520664,25.262468,6,P-GPS,
20100,2025-03-22 04:10:55,37.125992953463,140.015925888257,25.590552,,,3105.8315360664,18.372704,3.6685816,38.145998596,40.821195532,31,5,16.986,3105.8315360664,25.590552,3.6685816,38.145998596,2.908022,2.23694,-1.11847,34.1, 3.3, -1.7,0,0,1236,1024,1234,1024,32,0,32,0,35.1,0,0,99,4.245,4.243,4.242,4.243,0,0,7.439,74.3,3105.8315360664,25.590552,6,P-GPS,
20300,2025-03-22 04:10:56,37.1259952196688,140.015928144283,26.24672,,,3106.4877040664,18.372704,3.5343652,39.200788656,41.87664176,31,5,16.986,3106.4877040664,26.24672,3.6685816,39.200788656,2.908022,2.013246,-1.11847,33.9, 3.7, -2.9,0,0,1236,1024,1236,1014,32,0,32,-2,35.1,0,0,99,4.245,4.243,4.242,4.243,0,0,7.439,74.3,3106.4877040664,26.24672,6,P-GPS,
20500,2025-03-22 04:10:56,37.1259975665976,140.015930408647,26.574804,,,3106.8157880664,18.700788,3.5343652,40.280841184,42.957022372,31,5,16.974,3106.8157880664,26.574804,3.6685816,40.280841184,2.908022,2.013246,-1.11847,33.9, 2.6, -1.6,0,0,1236,1024,1239,1008,32,0,33,-2,35.1,0,0,99,4.24,4.243,4.238,4.238,0,0,7.079,74.3,3106.8157880664,26.574804,6,P-GPS,
20700,2025-03-22 04:10:56,37.1259997778889,140.015932482237,26.902888,,,3107.1438720664,19.356956,3.5343652,41.288059064,43.964568336,31,5,16.974,3107.1438720664,26.902888,3.6685816,41.288059064,2.908022,2.013246,-1.11847,34, 2.2, -2.5,0,0,1236,1024,1233,1013,32,0,32,-2,35.1,0,0,99,4.24,4.243,4.238,4.238,0,0,7.079,74.3,3107.1438720664,26.902888,6,P-GPS,
20900,2025-03-22 04:10:56,37.1260020461419,140.015934585662,27.559056,,,3107.8000400664,19.68504,3.35541,42.317258572,44.993767844,31,5,16.974,3107.8000400664,27.559056,3.6685816,42.317258572,2.684328,2.013246,-1.11847,34.2, 1.1, -1.8,0,0,1236,1024,1235,1014,32,0,32,-2,35.1,0,0,99,4.24,4.243,4.238,4.238,0,0,7.079,74.3,3107.8000400664,27.559056,6,P-GPS,
21100,2025-03-22 04:10:56,37.1260043399121,140.015936787301,27.88714,,,3108.1281240664,20.013124,3.35541,43.37106438,46.047573652,31,5,16.974,3108.1281240664,27.88714,3.6685816,43.37106438,2.684328,2.013246,-1.11847,34.7, 0.5, -2.4,0,0,1237,1024,1236,1012,32,0,32,-2,35.1,0,0,99,4.24,4.243,4.238,4.238,0,0,7.079,74.3,3108.1281240664,27.88714,6,P-GPS,
21300,2025-03-22 04:10:57,37.1260065557346,140.015938954691,28.543308,,,3108.7842920664,20.341208,3.5343652,44.395670712,47.072836152,31,5,16.974,3108.7842920664,28.543308,3.6685816,44.395670712,2.908022,2.013246,-1.11847,34.3, 1.2, -3.1,0,0,1237,1024,1252,965,32,0,35,-9,35.1,0,0,99,4.24,4.243,4.238,4.238,0,0,7.079,74.3,3108.7842920664,28.543308,6,P-GPS,
21500,2025-03-22 04:10:57,37.1260088439457,140.015941177398,28.871392,,,3109.1123760664,20.669292,3.5343652,45.451445024,48.128610464,31,5,16.942,3109.1123760664,28.871392,3.6685816,45.451445024,2.908022,2.013246,-1.11847,34.3, -0.2, -2.6,0,0,1237,1024,1251,970,32,0,34,-8,35,0,0,99,4.241,4.238,4.237,4.242,0,0,7.454,74.48,3109.1123760664,28.871392,6,P-GPS,
21700,2025-03-22 04:10:57,37.1260111912942,140.015943474093,29.199476,,,3109.4404600664,20.997376,3.6685816,46.53707498,49.214896588,31,5,16.942,3109.4404600664,29.199476,3.6685816,46.53707498,2.908022,2.23694,-1.342164,34.5, -1.4, -1.4,0,0,1235,1024,1245,970,32,0,33,-8,35,0,0,99,4.241,4.238,4.237,4.242,0,0,7.454,74.48,3109.4404600664,29.199476,6,P-GPS,
21900,2025-03-22 04:10:57,37.1260136493628,140.015946015991,29.855644,,,3110.0966280664,21.32546,3.9817532,47.697836172,50.3772982,30,5,16.942,3110.0966280664,29.855644,3.9817532,47.697836172,3.131716,2.460634,-1.342164,34.6, 0.2, -2.4,0,0,1235,1024,1239,940,32,0,33,-13,34.9,0,0,99,4.241,4.238,4.237,4.242,0,0,7.454,74.48,3110.0966280664,29.855644,6,P-GPS,
22100,2025-03-22 04:10:57,37.126016253502,140.01594871373,30.183728,,,3110.4247120664,21.981628,3.9817532,48.928479256,51.609581704,30,5,16.942,3110.4247120664,30.183728,3.9817532,48.928479256,3.131716,2.460634,-1.342164,34.5, 1.5, -2.9,0,0,1235,1024,1238,920,32,0,32,-16,34.8,0,0,99,4.241,4.238,4.237,4.242,0,0,7.454,74.48,3110.4247120664,30.183728,6,P-GPS,
22300,2025-03-22 04:10:58,37.126018771873,140.015951299139,30.511812,,,3110.7527960664,22.309712,3.9817532,50.114502916,52.7969177,30,5,16.942,3110.7527960664,30.511812,3.9817532,50.114502916,3.131716,2.460634,-1.342164,34.2, 1.5, -2.8,0,0,1234,1024,1231,919,32,0,31,-16,34.7,0,0,99,4.241,4.238,4.237,4.242,0,0,7.454,74.48,3110.7527960664,30.511812,6,P-GPS,
22500,2025-03-22 04:10:58,37.1260214396209,140.015954062068,31.16798,,,3111.4089640664,22.637796,4.1159696,51.375001644,54.059056848,30,5,16.934,3111.4089640664,31.16798,4.1159696,51.375001644,3.131716,2.684328,-1.11847,33.8, 2, -3,0,0,1232,1024,1227,905,32,0,31,-18,34.5,0,0,99,4.241,4.241,4.241,4.242,0,0,7.524,74.48,3111.4089640664,31.16798,6,P-GPS,
22700,2025-03-22 04:10:58,37.1260239284746,140.015956716512,31.496064,,,3111.7370480664,22.96588,4.1159696,52.564634228,55.251314104,30,5,16.934,3111.7370480664,31.496064,4.1159696,52.564634228,3.131716,2.684328,-1.11847,33.9, 2.4, -3.8,0,0,1232,1024,1230,899,32,0,31,-19,34.4,0,0,99,4.241,4.241,4.241,4.242,0,0,7.524,74.48,3111.7370480664,31.496064,6,P-GPS,
22900,2025-03-22 04:10:58,37.1260264948391,140.015959512444,31.824148,,,3112.0651320664,23.293964,3.9817532,53.801838992,56.491471624,30,5,16.934,3112.0651320664,31.824148,4.1159696,53.801838992,3.131716,2.460634,-1.11847,33.3, 2.9, -4.5,0,0,1229,1024,1226,842,31,0,31,-28,34.2,0,0,99,4.241,4.241,4.241,4.242,0,0,7.524,74.48,3112.0651320664,31.824148,6,P-GPS,
23100,2025-03-22 04:10:58,37.1260289282471,140.015962111346,32.152232,,,3112.3932160664,23.622048,3.802798,54.96555294,57.65748216,30,5,16.934,3112.3932160664,32.152232,4.1159696,54.96555294,2.908022,2.460634,-1.11847,33.3, 1, -4.2,0,0,1228,1024,1229,834,31,0,31,-29,33.8,0,0,99,4.241,4.241,4.241,4.242,0,0,7.524,74.48,3112.3932160664,32.152232,6,P-GPS,
23300,2025-03-22 04:10:59,37.1260313727391,140.015964615009,32.480316,,,3112.7213000664,23.950132,3.9817532,56.116143528,58.809057,30,5,16.934,3112.7213000664,32.480316,4.1159696,56.116143528,3.131716,2.460634,-1.11847,32.8, 1.1, -4.1,0,0,1228,1024,1225,826,31,0,30,-30,33.2,0,0,99,4.241,4.241,4.241,4.242,0,0,7.524,74.48,3112.7213000664,32.480316,6,P-GPS,
23500,2025-03-22 04:10:59,37.1260338103185,140.015967024476,32.480316,,,3112.7213000664,23.950132,3.8475368,57.248361412,59.941274884,30,5,16.966,3112.7213000664,32.480316,4.1159696,57.248361412,3.131716,2.23694,-1.11847,32.3, 1.1, -4.1,0,0,1228,1024,1223,818,31,0,30,-31,32.6,0,0,99,4.24,4.24,4.237,4.24,0,0,6.919,74.48,3112.7213000664,32.480316,6,P-GPS,
23700,2025-03-22 04:10:59,37.1260362304754,140.015969351564,32.8084,,,3113.0493840664,24.6063,3.8475368,58.360894256,61.053807728,30,5,16.966,3113.0493840664,32.8084,4.1159696,58.360894256,3.131716,2.23694,-1.11847,31.6, 0.4, -3.8,0,0,1231,1024,1225,810,31,0,30,-32,31.8,0,0,99,4.24,4.24,4.237,4.24,0,0,6.919,74.48,3113.0493840664,32.8084,6,P-GPS,
24100,2025-03-22 04:10:59,37.1260412085682,140.015973876831,33.464568,,,3113.7055520664,25.262468,3.8475368,60.60367648,63.29724612,30,5,16.966,3113.7055520664,33.464568,4.1159696,60.60367648,3.131716,2.23694,-1.11847,30.2, 0.8, -4.1,0,0,1230,1024,1223,811,31,0,30,-32,30.3,0,0,99,4.24,4.24,4.237,4.24,0,0,6.919,74.48,3113.7055520664,33.464568,6,P-GPS,
24300,2025-03-22 04:11:00,37.1260436458478,140.015976063387,33.464568,,,3113.7055520664,25.590552,3.7133204,61.696524284,64.390422008,30,5,16.966,3113.7055520664,33.464568,4.1159696,61.696524284,3.131716,2.013246,-1.11847,29.3, 1.2, -4.5,0,0,1231,1024,1225,810,31,0,30,-32,29.5,0,0,99,4.24,4.24,4.237,4.24,0,0,6.919,74.48,3113.7055520664,33.464568,6,P-GPS,
24500,2025-03-22 04:11:00,37.1260462216261,140.015978344289,33.792652,,,3114.0336360664,26.574804,3.7133204,62.846458704,65.540684512,30,5,16.962,3114.0336360664,33.792652,4.1159696,62.846458704,3.131716,2.013246,-1.11847,28.6, 0.5, -4.7,0,0,1231,1024,1223,826,31,0,30,-30,28.7,0,0,99,4.241,4.24,4.237,4.239,0,0,7.084,74.66,3114.0336360664,33.792652,6,P-GPS,
24700,2025-03-22 04:11:00,37.1260488162573,140.015980573678,34.120736,,,3114.3617200664,26.902888,3.914645,63.9927842,66.688322344,30,5,16.962,3114.3617200664,34.120736,4.1159696,63.9927842,3.35541,2.013246,-1.11847,27.4, 2.3, -5,0,0,1230,1024,1242,888,31,0,33,-21,27.9,0,0,99,4.241,4.24,4.237,4.239,0,0,7.084,74.66,3114.3617200664,34.120736,6,P-GPS,
24900,2025-03-22 04:11:00,37.1260514608351,140.015982793839,34.44882,,,3114.6898040664,26.902888,3.914645,65.152233056,67.84941162,30,5,16.962,3114.6898040664,34.44882,4.1159696,65.152233056,3.35541,2.013246,-1.11847,26.6, 2.4, -4.4,0,0,1232,1024,1251,888,32,0,34,-21,27.4,0,0,99,4.241,4.24,4.237,4.239,0,0,7.084,74.66,3114.6898040664,34.44882,6,P-GPS,
25100,2025-03-22 04:11:00,37.1260541221503,140.015985019725,34.776904,,,3115.0178880664,27.230972,3.914645,66.317587424,69.016406408,31,5,16.962,3115.0178880664,34.776904,4.1159696,66.317587424,3.35541,2.013246,-1.11847,26.3, 2.9, -4.6,0,0,1231,1024,1263,912,31,0,36,-17,27.2,0,0,99,4.241,4.24,4.237,4.239,0,0,7.084,74.66,3115.0178880664,34.776904,6,P-GPS,
25300,2025-03-22 04:11:01,37.1260567379045,140.0159871684,35.104988,,,3115.3459720664,27.559056,3.914645,67.456366988,70.157154476,31,5,16.962,3115.3459720664,35.104988,4.1159696,67.456366988,3.35541,2.013246,-1.11847,26, 3.4, -4.3,0,0,1230,1024,1277,940,31,0,38,-13,27,0,0,99,4.241,4.24,4.237,4.239,0,0,7.084,74.66,3115.3459720664,35.104988,6,P-GPS,
25500,2025-03-22 04:11:01,37.1260594503653,140.015989294794,35.433072,,,3115.6740560664,27.88714,3.914645,68.619424768,71.324149264,31,5,16.962,3115.6740560664,35.433072,4.1159696,68.619424768,3.35541,2.013246,-1.342164,25.8, 2.8, -3.6,0,0,1231,1024,1296,919,31,0,41,-16,26.9,0,0,99,4.229,4.228,4.226,4.225,0,0,7.084,74.66,3115.6740560664,35.433072,6,P-GPS,
25700,2025-03-22 04:11:01,37.1260621745954,140.015991397145,35.761156,,,3116.0021400664,28.215224,3.914645,69.782154464,72.491472136,31,5,16.962,3116.0021400664,35.761156,4.1159696,69.782154464,3.35541,2.013246,-1.789552,25.6, 3.4, -3.7,0,0,1231,1024,1290,915,31,0,40,-17,26.7,0,0,99,4.229,4.228,4.226,4.225,0,0,7.084,74.66,3116.0021400664,35.761156,6,P-GPS,
25900,2025-03-22 04:11:01,37.1260648518684,140.015993452676,36.417324,,,3116.6583080664,28.543308,3.802798,70.922902532,73.636485296,31,5,16.962,3116.6583080664,36.417324,4.1159696,70.922902532,3.35541,1.789552,-2.013246,25.8, 3.1, -4.3,0,0,1229,1024,1266,933,31,0,37,-14,26.6,0,0,99,4.229,4.228,4.226,4.225,0,0,7.084,74.66,3116.6583080664,36.417324,6,P-GPS,
26100,2025-03-22 04:11:01,37.1260674903046,140.015995474108,36.745408,,,3116.9863920664,29.199476,3.802798,72.046590232,74.764766172,31,5,16.962,3116.9863920664,36.745408,4.1159696,72.046590232,3.35541,1.789552,-2.013246,25.5, 2, -4,0,0,1235,1024,1264,932,32,0,36,-14,26.4,0,0,99,4.229,4.228,4.226,4.225,0,0,7.084,74.66,3116.9863920664,36.745408,6,P-GPS,
26300,2025-03-22 04:11:02,37.1260701378718,140.015997480801,37.401576,,,3117.6425600664,29.52756,3.802798,73.170606016,75.893375132,31,5,16.962,3117.6425600664,37.401576,4.1159696,73.170606016,3.35541,1.789552,-1.565858,25.5, 2.7, -4.4,0,0,1239,1024,1263,933,33,0,36,-14,26.3,0,0,99,4.229,4.228,4.226,4.225,0,0,7.084,74.66,3117.6425600664,37.401576,6,P-GPS,
26500,2025-03-22 04:11:02,37.126072853382,140.015999518961,37.72966,,,3117.9706440664,29.855644,3.802798,74.320212352,77.047902728,31,5,16.912,3117.9706440664,37.72966,4.1159696,74.320212352,3.35541,1.789552,-1.565858,25.4, 2.2, -4.3,0,0,1247,1024,1260,936,34,0,36,-13,26.2,0,0,99,4.241,4.241,4.239,4.238,0,0,7.961,74.84,3117.9706440664,37.72966,6,P-GPS,
26700,2025-03-22 04:11:02,37.1260754988078,140.016001506918,38.057744,,,3118.2987280664,30.183728,3.802798,75.440619212,78.172902764,31,5,16.912,3118.2987280664,38.057744,4.1159696,75.440619212,3.35541,1.789552,-1.565858,25.4, 1.9, -4.6,0,0,1252,1024,1254,938,35,0,35,-13,26.1,0,0,99,4.241,4.241,4.239,4.238,0,0,7.961,74.84,3118.2987280664,38.057744,6,P-GPS,
26900,2025-03-22 04:11:02,37.1260781457583,140.016003498731,38.385828,,,3118.6268120664,30.839896,3.802798,76.562338408,79.299215136,31,5,16.912,3118.6268120664,38.385828,4.1159696,76.562338408,3.35541,1.789552,-1.342164,25.1, 1.9, -4.5,0,0,1251,1024,1254,942,34,0,35,-12,25.9,0,0,99,4.241,4.241,4.239,4.238,0,0,7.961,74.84,3118.6268120664,38.385828,6,P-GPS,
27100,2025-03-22 04:11:02,37.1260807769993,140.016005447024,38.713912,,,3118.9548960664,31.16798,3.802798,77.671918496,80.414044568,31,5,16.912,3118.9548960664,38.713912,4.1159696,77.671918496,3.35541,1.789552,-1.342164,24.9, 2.1, -4.6,0,0,1251,1024,1254,949,34,0,35,-11,25.8,0,0,99,4.241,4.241,4.239,4.238,0,0,7.961,74.84,3118.9548960664,38.713912,6,P-GPS,
27300,2025-03-22 04:11:03,37.1260835897814,140.016007518917,39.041996,,,3119.2829800664,31.496064,3.914645,78.85662982,81.60433332,31,5,16.912,3119.2829800664,39.041996,4.1159696,78.85662982,3.35541,2.013246,-1.342164,25, 1.9, -4.9,0,0,1250,1024,1254,947,34,0,35,-12,25.7,0,0,99,4.241,4.241,4.239,4.238,0,0,7.961,74.84,3119.2829800664,39.041996,6,P-GPS,
27500,2025-03-22 04:11:03,37.1260863446595,140.016009515629,39.698164,,,3119.9391480664,31.824148,4.1159696,80.0114855,82.765094512,31,5,16.912,3119.9391480664,39.698164,4.1159696,80.0114855,3.579104,2.013246,-1.342164,24.6, 2.9, -4.8,0,0,1248,1024,1254,950,34,0,35,-11,25.6,0,0,99,4.239,4.238,4.235,4.237,0,0,7.961,74.84,3119.9391480664,39.698164,6,P-GPS,
27700,2025-03-22 04:11:03,37.1260892119194,140.016011528779,40.026248,,,3120.2672320664,32.480316,4.1159696,81.20243042,83.963913448,31,5,16.912,3120.2672320664,40.026248,4.1159696,81.20243042,3.579104,2.013246,-1.342164,24.6, 2.5, -5,0,0,1250,1024,1254,947,34,0,35,-12,25.5,0,0,99,4.239,4.238,4.235,4.237,0,0,7.961,74.84,3120.2672320664,40.026248,6,P-GPS,
27900,2025-03-22 04:11:03,37.1260920929357,140.016013521634,40.354332,,,3120.5953160664,32.8084,4.1159696,82.394687676,85.164372804,31,5,16.912,3120.5953160664,40.354332,4.1159696,82.394687676,3.579104,2.013246,-1.342164,24.3, 3.7, -4.7,0,0,1249,1024,1255,947,34,0,35,-12,25.4,0,0,99,4.239,4.238,4.235,4.237,0,0,7.961,74.84,3120.5953160664,40.354332,6,P-GPS,
28100,2025-03-22 04:11:03,37.1260950379206,140.016015569624,40.682416,,,3120.9234000664,33.136484,4.0041226,83.615160156,86.393047384,31,5,16.912,3120.9234000664,40.682416,4.1159696,83.615160156,3.579104,1.789552,-1.342164,24.6, 2.6, -4.5,0,0,1249,1024,1256,945,34,0,35,-12,25.3,0,0,99,4.239,4.238,4.235,4.237,0,0,7.961,74.84,3120.9234000664,40.682416,6,P-GPS,
28300,2025-03-22 04:11:04,37.1260979397173,140.016017584611,41.0105,,,3121.2514840664,33.464568,4.1159696,84.817259932,87.603021176,31,5,16.912,3121.2514840664,41.0105,4.1159696,84.817259932,3.579104,2.013246,-1.342164,24.2, 2.7, -4.8,0,0,1249,1024,1255,944,34,0,35,-12,25.2,0,0,99,4.239,4.238,4.235,4.237,0,0,7.961,74.84,3121.2514840664,41.0105,6,P-GPS,
28500,2025-03-22 04:11:04,37.1261007760037,140.016019579926,41.338584,,,3121.5795680664,33.792652,4.1159696,85.997049996,88.789701004,31,5,16.957,3121.5795680664,41.338584,4.1159696,85.997049996,3.579104,2.013246,-1.342164,24.1, 3.3, -5.5,0,0,1249,1024,1255,944,34,0,35,-12,25.1,0,0,99,4.235,4.236,4.231,4.237,0,0,6.901,74.84,3121.5795680664,41.338584,6,P-GPS,
28700,2025-03-22 04:11:04,37.1261036795649,140.016021646298,41.666668,,,3121.9076520664,34.120736,4.1159696,87.208992292,90.007548812,31,5,16.957,3121.9076520664,41.666668,4.1159696,87.208992292,3.579104,2.013246,-1.342164,24.1, 3.1, -5.3,0,0,1248,1024,1256,945,34,0,35,-12,25,0,0,99,4.235,4.236,4.231,4.237,0,0,6.901,74.84,3121.9076520664,41.666668,6,P-GPS,
28900,2025-03-22 04:11:04,37.1261067205711,140.016023775356,41.994752,,,3122.2357360664,34.44882,4.2949248,88.47277186,91.278218144,31,5,16.957,3122.2357360664,41.994752,4.2949248,88.47277186,3.802798,2.013246,-1.342164,24.1, 3.5, -5.5,0,0,1248,1024,1256,944,34,0,35,-12,24.9,0,0,99,4.235,4.236,4.231,4.237,0,0,6.901,74.84,3122.2357360664,41.994752,6,P-GPS,
29100,2025-03-22 04:11:04,37.1261097920026,140.016025874741,42.65092,,,3122.8919040664,34.776904,4.4962494,89.740488436,92.554464904,31,5,16.957,3122.8919040664,42.65092,4.4962494,89.740488436,4.026492,2.013246,-1.342164,24, 4.7, -5.1,0,0,1246,1024,1256,944,34,0,35,-12,24.8,0,0,99,4.235,4.236,4.231,4.237,0,0,6.901,74.84,3122.8919040664,42.65092,6,P-GPS,
29300,2025-03-22 04:11:05,37.1261129087808,140.016027943992,42.979004,,,3123.2199880664,35.433072,4.4067718,91.01706328,93.841210352,31,5,16.957,3123.2199880664,42.979004,4.4962494,91.01706328,4.026492,1.789552,-1.342164,24.1, 5.5, -4.4,0,0,1245,1024,1255,945,33,0,35,-12,24.7,0,0,99,4.235,4.236,4.231,4.237,0,0,6.901,74.84,3123.2199880664,42.979004,6,P-GPS,
29500,2025-03-22 04:11:05,37.1261159869107,140.016029948461,43.307088,,,3123.5480720664,35.761156,4.2054472,92.271656496,95.10663034,31,5,16.952,3123.5480720664,43.307088,4.4962494,92.271656496,3.802798,1.789552,-1.342164,24.2, 4.8, -3.7,0,0,1245,1024,1250,949,33,0,34,-11,24.6,0,0,99,4.228,4.228,4.225,4.224,0,0,7.127,74.84,3123.5480720664,43.307088,6,P-GPS,
29700,2025-03-22 04:11:05,37.1261189650105,140.016031862815,43.635172,,,3123.8761560664,36.417324,4.2054472,93.481630288,96.327430904,31,5,16.952,3123.8761560664,43.635172,4.4962494,93.481630288,3.802798,1.789552,-1.342164,23.7, 5.3, -4.5,0,0,1243,1024,1251,950,33,0,34,-11,24.5,0,0,99,4.228,4.228,4.225,4.224,0,0,7.127,74.84,3123.8761560664,43.635172,6,P-GPS,
29900,2025-03-22 04:11:05,37.1261219729189,140.016033767759,43.963256,,,3124.2042400664,36.745408,4.2054472,94.699478096,97.556761652,31,5,16.952,3124.2042400664,43.963256,4.4962494,94.699478096,3.802798,1.789552,-1.342164,24, 4.8, -4.1,0,0,1242,1024,1253,952,33,0,35,-11,24.4,0,0,99,4.228,4.228,4.225,4.224,0,0,7.127,74.84,3124.2042400664,43.963256,6,P-GPS,
30100,2025-03-22 04:11:05,37.1261249674134,140.016035709918,44.29134,,,3124.5323240664,37.073492,4.2054472,95.919294408,98.786748568,31,5,16.952,3124.5323240664,44.29134,4.4962494,95.919294408,3.802798,1.789552,-1.342164,23.7, 3.8, -4,0,0,1242,1024,1254,953,33,0,35,-11,24.3,0,0,99,4.228,4.228,4.225,4.224,0,0,7.127,74.84,3124.5323240664,44.29134,6,P-GPS,
30300,2025-03-22 04:11:06,37.1261278632827,140.016037627947,44.619424,,,3124.8604080664,37.72966,4.2054472,97.105974236,99.981630496,31,5,16.952,3124.8604080664,44.619424,4.4962494,97.105974236,3.802798,1.789552,-1.342164,23.6, 4.3, -4.4,0,0,1240,1024,1255,955,33,0,35,-10,24.2,0,0,99,4.228,4.228,4.225,4.224,0,0,7.127,74.84,3124.8604080664,44.619424,6,P-GPS,
30500,2025-03-22 04:11:06,37.1261306829173,140.01603941276,44.947508,,,3125.1884920664,38.057744,4.2054472,98.24803464,101.134189588,31,5,16.929,3125.1884920664,44.947508,4.4962494,98.24803464,3.802798,1.789552,-1.342164,23.6, 3.9, -4.2,0,0,1239,1024,1254,957,33,0,35,-10,24.1,0,0,99,4.223,4.227,4.224,4.229,0,0,7.398,75.02,3125.1884920664,44.947508,6,P-GPS,
30700,2025-03-22 04:11:06,37.1261335806539,140.01604115503,45.275592,,,3125.5165760664,38.385828,4.1159696,99.406827328,102.30643372,31,5,16.929,3125.5165760664,45.275592,4.4962494,99.406827328,3.802798,1.565858,-1.342164,23.4, 3.5, -4.3,0,0,1239,1024,1254,960,33,0,35,-10,24.1,0,0,99,4.223,4.227,4.224,4.229,0,0,7.398,75.02,3125.5165760664,45.275592,6,P-GPS,
30900,2025-03-22 04:11:06,37.1261365166791,140.01604275998,45.603676,,,3125.8446600664,38.713912,4.1159696,100.555121328,103.475068928,31,5,16.929,3125.8446600664,45.603676,4.4962494,100.555121328,3.802798,1.565858,-1.342164,23.4, 3.7, -2.8,0,0,1238,1024,1253,966,32,0,35,-9,24,0,0,99,4.223,4.227,4.224,4.229,0,0,7.398,75.02,3125.8446600664,45.603676,6,P-GPS,
31100,2025-03-22 04:11:06,37.1261395195337,140.016044320389,45.93176,,,3126.1727440664,39.041996,4.3172942,101.716538688,104.660764504,31,5,16.929,3126.1727440664,45.93176,4.4962494,101.716538688,4.026492,1.565858,-1.342164,23.2, 4.5, -2,0,0,1234,1024,1244,970,32,0,33,-8,23.9,0,0,99,4.223,4.227,4.224,4.229,0,0,7.398,75.02,3126.1727440664,45.93176,6,P-GPS,
31300,2025-03-22 04:11:07,37.1261425274764,140.016045890746,46.259844,,,3126.5008280664,39.37008,4.1159696,102.881893056,105.84974092,31,5,16.929,3126.5008280664,46.259844,4.4962494,102.881893056,3.802798,1.565858,-1.342164,23.2, 4.8, -1.9,0,0,1234,1024,1244,979,32,0,33,-7,23.8,0,0,99,4.223,4.227,4.224,4.229,0,0,7.398,75.02,3126.5008280664,46.259844,6,P-GPS,
31500,2025-03-22 04:11:07,37.1261455023555,140.016047455796,46.587928,,,3126.8289120664,39.698164,4.1159696,104.03707682,107.026578228,31,5,16.922,3126.8289120664,46.587928,4.4962494,104.03707682,3.802798,1.565858,-1.342164,23.2, 4.8, -1.8,0,0,1234,1024,1244,980,32,0,33,-7,23.8,0,0,99,4.231,4.232,4.23,4.231,0,0,7.649,75.02,3126.8289120664,46.587928,6,P-GPS,
31700,2025-03-22 04:11:07,37.1261485121655,140.016049088528,46.916012,,,3127.1569960664,40.026248,4.1159696,105.213914128,108.223100576,31,5,16.922,3127.1569960664,46.916012,4.4962494,105.213914128,3.802798,1.565858,-1.11847,23, 4.8, -1.5,0,0,1237,1024,1242,981,32,0,33,-7,23.8,0,0,99,4.231,4.232,4.23,4.231,0,0,7.649,75.02,3127.1569960664,46.916012,6,P-GPS,
31900,2025-03-22 04:11:07,37.126151382115,140.016050688064,47.244096,,,3127.4850800664,40.354332,3.914645,106.34350734,109.368769904,31,5,16.922,3127.4850800664,47.244096,4.4962494,106.34350734,3.579104,1.565858,-1.342164,23.2, 3.5, -1.7,0,0,1237,1024,1240,982,32,0,33,-6,23.7,0,0,99,4.231,4.232,4.23,4.231,0,0,7.649,75.02,3127.4850800664,47.244096,6,P-GPS,
32100,2025-03-22 04:11:07,37.1261541865884,140.016052251223,47.57218,,,3127.8131640664,40.682416,4.1159696,107.44751,110.488520596,31,5,16.922,3127.8131640664,47.57218,4.4962494,107.44751,3.802798,1.565858,-1.342164,23.1, 3.7, -2.6,0,0,1236,1024,1239,987,32,0,33,-6,23.7,0,0,99,4.231,4.232,4.23,4.231,0,0,7.649,75.02,3127.8131640664,47.57218,6,P-GPS,
32300,2025-03-22 04:11:08,37.1261571621699,140.016053938682,47.900264,,,3128.1412480664,41.0105,4.1159696,108.624019224,111.680121684,31,5,16.922,3128.1412480664,47.900264,4.4962494,108.624019224,3.802798,1.565858,-1.11847,22.8, 5.7, -2.3,0,0,1237,1024,1238,989,32,0,32,-5,23.6,0,0,99,4.231,4.232,4.23,4.231,0,0,7.649,75.02,3128.1412480664,47.900264,6,P-GPS,
32500,2025-03-22 04:11:08,37.1261602790509,140.016055759656,48.556432,,,3128.7974160664,41.338584,4.4067718,109.865160996,112.9347149,31,5,16.922,3128.7974160664,48.556432,4.4962494,109.865160996,4.026492,1.789552,-1.11847,23, 6.8, -2.5,0,0,1237,1024,1238,989,32,0,32,-5,23.6,0,0,99,4.233,4.231,4.228,4.234,0,0,7.649,75.02,3128.7974160664,48.556432,6,P-GPS,
32700,2025-03-22 04:11:08,37.1261633047417,140.0160575981,48.884516,,,3129.1255000664,41.338584,4.2054472,111.081696468,114.161092892,31,5,16.922,3129.1255000664,48.884516,4.4962494,111.081696468,3.802798,1.789552,-1.11847,23, 6.8, -3.3,0,0,1236,1024,1239,989,32,0,33,-5,23.6,0,0,99,4.233,4.231,4.228,4.234,0,0,7.649,75.02,3129.1255000664,48.884516,6,P-GPS,
32900,2025-03-22 04:11:08,37.1261662059388,140.016059540086,49.2126,,,3129.4535840664,41.338584,4.0041226,112.27690648,115.36089608,31,5,16.922,3129.4535840664,49.2126,4.4962494,112.27690648,3.579104,1.789552,-1.11847,23.2, 5.9, -4.4,0,0,1238,1024,1239,988,32,0,33,-5,23.6,0,0,99,4.233,4.231,4.228,4.234,0,0,7.649,75.02,3129.4535840664,49.2126,6,P-GPS,
33100,2025-03-22 04:11:08,37.12616893476,140.016061560434,49.540684,,,3129.7816680664,41.666668,4.1159696,113.43176216,116.517064096,31,5,16.922,3129.7816680664,49.540684,4.4962494,113.43176216,3.579104,2.013246,-1.11847,22.9, 5.4, -5.8,0,0,1239,1024,1246,983,33,0,34,-6,23.5,0,0,99,4.233,4.231,4.228,4.234,0,0,7.649,75.02,3129.7816680664,49.540684,6,P-GPS,
33300,2025-03-22 04:11:09,37.1261716605833,140.016063720894,50.196852,,,3130.4378360664,41.666668,4.1159696,114.608271384,117.69357332,31,5,16.922,3130.4378360664,50.196852,4.4962494,114.608271384,3.579104,2.013246,-1.11847,23, 5, -6.9,0,0,1238,1024,1256,975,32,0,35,-7,23.5,0,0,99,4.233,4.231,4.228,4.234,0,0,7.649,75.02,3130.4378360664,50.196852,6,P-GPS,
33500,2025-03-22 04:11:09,37.1261743742091,140.016065978709,50.524936,,,3130.7659200664,41.994752,4.1159696,115.796263548,118.881893568,31,5,16.89,3130.7659200664,50.524936,4.4962494,115.796263548,3.579104,2.013246,-1.342164,23, 4.8, -7.5,0,0,1239,1024,1257,976,33,0,35,-7,23.5,0,0,98,4.219,4.215,4.215,4.217,0,0,7.562,75.2,3130.7659200664,50.524936,6,P-GPS,
33700,2025-03-22 04:11:09,37.1261772137675,140.016068255111,51.181104,,,3131.4220880664,42.322836,4.1159696,117.02592238,120.111224316,31,5,16.89,3131.4220880664,51.181104,4.4962494,117.02592238,3.579104,2.013246,-1.342164,23.1, 5.4, -7.6,0,0,1237,1024,1255,977,32,0,35,-7,23.4,0,0,98,4.219,4.215,4.215,4.217,0,0,7.562,75.2,3131.4220880664,51.181104,6,P-GPS,
33900,2025-03-22 04:11:09,37.1261800437838,140.016070378851,51.837272,,,3132.0782560664,42.322836,4.2949248,118.228022156,121.314636428,31,5,16.89,3132.0782560664,51.837272,4.4962494,118.228022156,3.802798,2.013246,-1.342164,23, 7, -6.7,0,0,1238,1024,1245,981,32,0,33,-7,23.4,0,0,98,4.219,4.215,4.215,4.217,0,0,7.562,75.2,3132.0782560664,51.837272,6,P-GPS,
