time(millisecond),datetime(utc),latitude,longitude,height_above_takeoff(feet),height_above_ground_at_drone_location(feet),ground_elevation_at_drone_location(feet),altitude_above_seaLevel(feet),height_sonar(feet),speed(mph),distance(feet),mileage(feet),satellites,gpslevel,voltage(v),max_altitude(feet),max_ascent(feet),max_speed(mph),max_distance(feet), xSpeed(mph), ySpeed(mph), zSpeed(mph), compass_heading(degrees), pitch(degrees), roll(degrees),isPhoto,isVideo,rc_elevator,rc_aileron,rc_throttle,rc_rudder,rc_elevator(percent),rc_aileron(percent),rc_throttle(percent),rc_rudder(percent),gimbal_heading(degrees),gimbal_pitch(degrees),gimbal_roll(degrees),battery_percent,voltageCell1,voltageCell2,voltageCell3,voltageCell4,voltageCell5,voltageCell6,current(A),battery_temperature(f),altitude(feet),ascent(feet),flycStateRaw,flycState,message
0,2025-03-22 03:51:26,37.125917614971,140.015793927604,0,Available with any HD 360 subscription,Available with any HD 360 subscription,3080.861748522,0.328084,0,0,0,23,5,0,3080.861748522,0,0,0,0,0,0,62.7, 2.2, 3,0,0,1024,1024,1024,1024,0,0,0,0,63,0,0,96,4.201,4.197,4.2,4.195,0,0,0,70.88,3080.861748522,0,6,P-GPS,"Setting new Return-To-Home altitude to 100m (328 ft). Data Recorder File Index is 117. Setting new Maximum Flight Altitude to 150m (492 ft) 機体が高度区域 (500 m)にいます。慎重に飛行してください。 (Code: 190001)"
200,2025-03-22 03:51:26,37.1259175280193,140.015793918305,0,,,3080.861748522,0.328084,0,0.031839403906,0.031839403906,23,5,0,3080.861748522,0,0,0.031839403906,0,0,0,62.8, 2.2, 3,0,0,1024,1024,1024,1024,0,0,0,0,63,0,0,96,4.201,4.197,4.2,4.195,0,0,0,70.88,3080.861748522,0,41,Motors_Started,"飛行中 機体は飛行していません。ビジョンシステムと障害物回避が無効です (Code: 180059)"
400,2025-03-22 03:51:26,37.1259174335062,140.015793912648,0,,,3080.861748522,0.328084,0,0.06635006774,0.06636155068,23,5,0,3080.861748522,0,0,0.06635006774,0,0,0,62.8, 2.2, 3,0,0,1024,1024,1024,1024,0,0,0,0,63,0,0,96,4.201,4.197,4.2,4.195,0,0,0,70.88,3080.861748522,0,41,Motors_Started,
600,2025-03-22 03:51:26,37.125917333609,140.015793897498,0,,,3080.861748522,0,0,0.103027562352,0.103074478364,23,5,0,3080.861748522,0,0,0.103027562352,0,0,0,63, 2.2, 3.1,0,0,1024,1024,1024,1024,0,0,0,0,63,0,0,96,4.201,4.197,4.2,4.195,0,0,0,70.88,3080.861748522,0,41,Motors_Started,
800,2025-03-22 03:51:27,37.1259172206026,140.015793853576,0,,,3080.861748522,0,0,0.145487537464,0.146239177908,23,5,0,3080.861748522,0,0,0.145487537464,0,0,0,64, 2.1, 3.4,0,0,1024,1024,1024,1024,0,0,0,0,63,0,0,96,4.201,4.197,4.2,4.195,0,0,0,70.88,3080.861748522,0,41,Motors_Started,
1000,2025-03-22 03:51:27,37.1259171212253,140.015793822916,0,,,3080.861748522,0,0,0.182698824744,0.18357776178,23,5,16.981,3080.861748522,0,0,0.182698824744,0,0,0,64.7, 2, 3.7,0,0,1024,1024,1024,1024,0,0,0,0,63.2,0,0,96,4.201,4.197,4.2,4.195,0,0,1.225,70.88,3080.861748522,0,41,Motors_Started,
1200,2025-03-22 03:51:27,37.1259170640221,140.015793839309,0,,,3080.861748522,0,0,0.20264764428,0.204986227032,23,5,16.981,3080.861748522,0,0,0.20264764428,0,0,0,64.7, 2, 3.7,0,0,1024,1024,1024,1024,0,0,0,0,63.3,0,0,96,4.201,4.197,4.2,4.195,0,0,1.225,70.88,3080.861748522,0,41,Motors_Started,
1400,2025-03-22 03:51:27,37.1259170175325,140.015793871103,0,,,3080.861748522,0,0,0.218593839016,0.224305781456,23,5,16.981,3080.861748522,0,0,0.218593839016,0,0,0,64.7, 2, 3.7,0,0,1024,1024,1024,1024,0,0,0,0,63.4,0,0,96,4.201,4.197,4.2,4.195,0,0,1.225,70.88,3080.861748522,0,41,Motors_Started,
1600,2025-03-22 03:51:27,37.1259169587527,140.015793898159,0,,,3080.861748522,0,0,0.239574154648,0.247150270376,23,5,16.981,3080.861748522,0,0,0.239574154648,0,0,0,64.7, 2, 3.7,0,0,1024,1024,1024,1024,0,0,0,0,63.5,0,0,96,4.201,4.197,4.2,4.195,0,0,1.225,70.88,3080.861748522,0,11,AutoTakeoff,
1800,2025-03-22 03:51:28,37.1259168954684,140.015793917691,0,,,3080.861748522,0,0,0.262525927036,0.270928158276,24,5,16.981,3080.861748522,0,0,0.262525927036,0,0,0,64.6, 2, 3.7,0,0,1024,1024,1024,1024,0,0,0,0,63.6,0,0,96,4.201,4.197,4.2,4.195,0,0,1.225,70.88,3080.861748522,0,11,AutoTakeoff,
2000,2025-03-22 03:51:28,37.1259168172451,140.015793959031,0,,,3080.861748522,0,0,0.291193250788,0.30189797554,24,5,16.831,3080.861748522,0,0,0.291193250788,0,0,0,64.7, 1.7, 3.7,0,0,1024,1024,1024,1024,0,0,0,0,63.6,0,0,96,4.229,4.228,4.231,4.22,0,0,2.518,71.06,3080.861748522,0,11,AutoTakeoff,
2200,2025-03-22 03:51:28,37.1259166141701,140.015794045237,0,,,3080.861748522,0,0.223694,0.36674213772,0.3801181224,24,5,16.831,3080.861748522,0,0.223694,0.36674213772,-0.223694,0,-0.223694,64.8, -2.9, 1.4,0,0,1024,1024,1024,1024,0,0,0,0,63.7,0,0,96,4.229,4.228,4.231,4.22,0,0,2.518,71.06,3080.861748522,0,11,AutoTakeoff,
2600,2025-03-22 03:51:28,37.1259162538781,140.015794566418,0.328084,,,3081.189832522,0.328084,0,0.53022639492,0.58078085848,24,5,16.831,3081.189832522,0.328084,0.223694,0.53022639492,0,0,-0.894776,65, 2.2, -2.2,0,0,1024,1024,1024,1024,0,0,0,0,63.9,0,0,96,4.229,4.228,4.231,4.22,0,0,2.518,71.06,3081.189832522,0.328084,11,AutoTakeoff,
2800,2025-03-22 03:51:29,37.1259162501536,140.015794651068,0.656168,,,3081.517916522,0.656168,0,0.540600411,0.60544293276,24,5,16.831,3081.517916522,0.656168,0.223694,0.540600411,0,0,-0.671082,64.6, 1.7, -0.8,0,0,1024,1024,1024,1024,0,0,0,0,64,0,0,96,4.229,4.228,4.231,4.22,0,0,2.518,71.06,3081.517916522,0.656168,11,AutoTakeoff,
3000,2025-03-22 03:51:29,37.125916353112,140.015794638863,0.656168,,,3081.517916522,0.984252,0,0.50474411064,0.6431758736,24,5,16.871,3081.517916522,0.656168,0.223694,0.540600411,0,0,-0.894776,64.7, 1, 0.4,0,0,1024,1024,1024,1024,0,0,0,0,64,0,0,96,4.154,4.149,4.152,4.151,0,0,3.852,71.06,3081.517916522,0.656168,11,AutoTakeoff,
3200,2025-03-22 03:51:29,37.1259164922897,140.015794629261,0.984252,,,3081.846000522,1.312336,0,0.45764765244,0.69403217444,24,5,16.871,3081.846000522,0.984252,0.223694,0.540600411,0,0,-0.894776,64.7, 2, 1.6,0,0,1024,1024,1024,1024,0,0,0,0,64.1,0,0,96,4.154,4.149,4.152,4.151,0,0,3.852,71.06,3081.846000522,0.984252,11,AutoTakeoff,
3400,2025-03-22 03:51:29,37.1259165963326,140.015794730632,1.312336,,,3082.174084522,1.64042,0,0.43896654948,0.74209976128,25,5,16.871,3082.174084522,1.312336,0.223694,0.540600411,0,0,-1.11847,64.8, 2.6, 2.3,0,0,1034,1024,1024,1024,2,0,0,0,64.1,0,0,96,4.154,4.149,4.152,4.151,0,0,3.852,71.06,3082.174084522,1.312336,11,AutoTakeoff,
3600,2025-03-22 03:51:29,37.1259165739682,140.015794994509,1.64042,,,3082.502168522,1.968504,0,0.49048886084,0.8192913648,25,5,16.871,3082.502168522,1.64042,0.223694,0.540600411,0,0,-1.11847,64.9, 2.8, 1.8,0,0,1152,1024,1024,1024,19,0,0,0,64.1,0,0,96,4.154,4.149,4.152,4.151,0,0,3.852,71.06,3082.502168522,1.64042,11,AutoTakeoff,
3800,2025-03-22 03:51:30,37.1259164804161,140.015795309364,1.968504,,,3082.830252522,2.624672,0,0.5769849266,0.91703743092,24,5,16.871,3082.830252522,1.968504,0.223694,0.5769849266,0,0,-1.11847,64.7, 2.9, 2.3,0,0,1216,1024,1024,1024,29,0,0,0,64.2,0,0,96,4.154,4.149,4.152,4.151,0,0,3.852,71.06,3082.830252522,1.968504,11,AutoTakeoff,
4000,2025-03-22 03:51:30,37.1259163416864,140.015795697295,2.624672,,,3083.486420522,2.952756,0,0.6934219382,1.0407152564,25,5,16.628,3083.486420522,2.624672,0.223694,0.6934219382,0,0,-1.11847,64.9, 2.2, 1.5,0,0,1239,1024,1024,1024,33,0,0,0,64.2,0,0,96,4.142,4.139,4.143,4.142,0,0,5.476,71.06,3083.486420522,2.624672,11,AutoTakeoff,
4200,2025-03-22 03:51:30,37.1259162099292,140.015796087467,2.952756,,,3083.814504522,3.28084,0,0.81089569524,1.1639764152,25,5,16.628,3083.814504522,2.952756,0.223694,0.81089569524,0,0,-1.11847,64.8, 1.3, 1,0,0,1228,1024,1024,1024,31,0,0,0,64.2,0,0,96,4.142,4.139,4.143,4.142,0,0,5.476,71.06,3083.814504522,2.952756,11,AutoTakeoff,
4400,2025-03-22 03:51:30,37.1259160754503,140.0157965284,3.28084,,,3084.142588522,3.608924,0,0.94228021388,1.30130909676,25,5,16.628,3084.142588522,3.28084,0.223694,0.94228021388,0,0,-1.11847,64.7, 0.6, 0.8,0,0,1024,1024,1024,1024,0,0,0,0,64.3,0,0,96,4.142,4.139,4.143,4.142,0,0,5.476,71.06,3084.142588522,3.28084,11,AutoTakeoff,
4600,2025-03-22 03:51:30,37.1259159205535,140.015797055219,3.28084,,,3084.142588522,3.937008,0,1.09997706932,1.46464571616,25,5,16.628,3084.142588522,3.28084,0.223694,1.09997706932,0,0,-0.671082,64.6, 0.8, 1.1,0,0,1024,1024,1054,1024,0,0,5,0,64.3,0,0,96,4.142,4.139,4.143,4.142,0,0,5.476,71.06,3084.142588522,3.28084,6,P-GPS,
4800,2025-03-22 03:51:31,37.1259158246373,140.015797608758,3.608924,,,3084.470672522,3.937008,0.223694,1.25434387216,1.629429186,25,5,16.628,3084.470672522,3.608924,0.223694,1.25434387216,0,0.223694,0,64.5, 3.1, 0,0,0,1024,1024,1149,1024,0,0,19,0,64.3,0,0,96,4.142,4.139,4.143,4.142,0,0,5.476,71.06,3084.470672522,3.608924,6,P-GPS,
5000,2025-03-22 03:51:31,37.1259157919073,140.015798079035,3.608924,,,3084.470672522,3.937008,0,1.37870411236,1.76675202504,25,5,16.556,3084.470672522,3.608924,0.223694,1.37870411236,0,0,0,64.4, 3.3, 0.1,0,0,1024,1024,1246,1024,0,0,34,0,64.3,0,0,95,4.152,4.149,4.15,4.147,0,0,7.77,71.06,3084.470672522,3.608924,6,P-GPS,"ホームポイントを更新 (Code: 3000001)"
5200,2025-03-22 03:51:31,37.125915748656,140.015798433015,3.608924,,,3084.470672522,3.937008,0,1.47694886616,1.87092853756,25,5,16.556,3084.470672522,3.608924,0.223694,1.47694886616,0,0,-0.223694,63.7, 3.3, 0.1,0,0,1024,1024,1249,1024,0,0,34,0,64.3,0,0,95,4.152,4.149,4.15,4.147,0,0,7.77,71.06,3084.470672522,3.608924,6,P-GPS,
5400,2025-03-22 03:51:31,37.1259157576446,140.015798645302,3.937008,,,3084.798756522,4.265092,0,1.53055779176,1.93276909072,25,5,16.556,3084.798756522,3.937008,0.223694,1.53055779176,0,0,-0.894776,63.3, 2.6, 1,0,0,1024,1024,1245,1024,0,0,33,0,64.3,0,0,95,4.152,4.149,4.15,4.147,0,0,7.77,71.06,3084.798756522,3.937008,6,P-GPS,
5600,2025-03-22 03:51:31,37.1259157510244,140.015798745072,4.265092,,,3085.126840522,4.593176,0,1.55768705772,1.96188982656,25,5,16.556,3085.126840522,4.265092,0.223694,1.55768705772,0,0,-1.342164,63.4, 2.5, 2.5,0,0,1024,1024,1245,1024,0,0,33,0,64.3,0,0,95,4.152,4.149,4.15,4.147,0,0,7.77,71.06,3085.126840522,4.265092,6,P-GPS,
5800,2025-03-22 03:51:32,37.1259157017263,140.015798849163,4.593176,,,3085.454924522,4.92126,0,1.5927822032,1.99710964396,25,5,16.556,3085.454924522,4.593176,0.223694,1.5927822032,0,0,-1.11847,64.1, 2.1, 1.2,0,0,1024,1024,1287,1024,0,0,40,0,64.3,0,0,95,4.152,4.149,4.15,4.147,0,0,7.77,71.06,3085.454924522,4.593176,6,P-GPS,
6000,2025-03-22 03:51:32,37.1259156797971,140.015799020869,4.92126,,,3085.783008522,5.577428,0,1.64125333336,2.04769691592,25,5,16.565,3085.783008522,4.92126,0.223694,1.64125333336,0,0,-1.342164,63.4, 0.2, 1.5,0,0,1024,1024,1244,1299,0,0,33,42,64.3,0,0,95,4.129,4.128,4.132,4.129,0,0,7.418,71.24,3085.783008522,4.92126,6,P-GPS,
6200,2025-03-22 03:51:32,37.1259157530389,140.015799342374,5.577428,,,3086.439176522,5.905512,0,1.71539375568,2.1449639794,25,5,16.565,3086.439176522,5.577428,0.223694,1.71539375568,0,0,-1.789552,63, 0.2, 1.4,0,0,1024,1024,1064,1684,0,0,6,100,65,0,0,95,4.129,4.128,4.132,4.129,0,0,7.418,71.24,3086.439176522,5.577428,6,P-GPS,
6400,2025-03-22 03:51:32,37.1259158955621,140.015799791946,5.905512,,,3086.767260522,6.56168,0,1.81761488756,2.28570217288,25,5,16.565,3086.767260522,5.905512,0.223694,1.81761488756,0,0,-1.11847,64.2, 1.3, -0.1,0,0,1024,1024,1150,1684,0,0,19,100,71.2,0,0,95,4.129,4.128,4.132,4.129,0,0,7.418,71.24,3086.767260522,5.905512,6,P-GPS,
6600,2025-03-22 03:51:32,37.1259160553178,140.015800270381,6.233596,,,3087.095344522,6.889764,0,1.93085964184,2.43659128532,25,5,16.565,3087.095344522,6.233596,0.223694,1.93085964184,0,0,-0.447388,70.9, 2.3, 0.3,0,0,1024,1024,1141,1684,0,0,18,100,82.7,0,0,95,4.129,4.128,4.132,4.129,0,0,7.418,71.24,3087.095344522,6.233596,6,P-GPS,
6800,2025-03-22 03:51:33,37.1259161948242,140.015800669439,6.233596,,,3087.095344522,6.889764,0,2.02848103604,2.56334325788,25,5,16.565,3087.095344522,6.233596,0.223694,2.02848103604,0,0,-0.223694,83.3, 1.6, 0.7,0,0,1024,1024,1114,1684,0,0,14,100,94.7,0,0,95,4.129,4.128,4.132,4.129,0,0,7.418,71.24,3087.095344522,6.233596,6,P-GPS,
7000,2025-03-22 03:51:33,37.1259162939001,140.015801007037,6.56168,,,3087.423428522,6.889764,0,2.11504928028,2.66799221136,25,5,16.491,3087.423428522,6.56168,0.223694,2.11504928028,0,0,-0.223694,95.1, 1.5, 0.7,0,0,1024,1024,1114,1684,0,0,14,100,106.7,0,0,95,4.131,4.13,4.133,4.132,0,0,7.464,71.06,3087.423428522,6.56168,6,P-GPS,
7200,2025-03-22 03:51:33,37.1259163681431,140.015801271185,6.56168,,,3087.423428522,7.217848,0,2.18413392816,2.74946859192,25,5,16.491,3087.423428522,6.56168,0.223694,2.18413392816,0,0,-0.223694,107.4, 1.5, 1.4,0,0,1024,1024,1104,1684,0,0,12,100,118.7,0,0,95,4.131,4.13,4.133,4.132,0,0,7.464,71.06,3087.423428522,6.56168,6,P-GPS,
7400,2025-03-22 03:51:33,37.125916476766,140.015801452637,6.56168,,,3087.423428522,7.217848,0,2.22806109492,2.81547253104,25,5,16.491,3087.423428522,6.56168,0.223694,2.22806109492,0,0,-0.223694,119.1, 0.8, 1.3,0,0,1024,1024,1095,1684,0,0,11,100,130.7,0,0,95,4.131,4.13,4.133,4.132,0,0,7.464,71.06,3087.423428522,6.56168,6,P-GPS,
7600,2025-03-22 03:51:33,37.1259166406305,140.015801589811,6.889764,,,3087.751512522,7.217848,0,2.25709324808,2.8873524546,25,5,16.491,3087.751512522,6.889764,0.223694,2.25709324808,0,0,-0.223694,131.1, -0.2, 1.6,0,0,1024,1024,1090,1684,0,0,10,100,142.7,0,0,95,4.131,4.13,4.133,4.132,0,0,7.464,71.06,3087.751512522,6.889764,6,P-GPS,
7800,2025-03-22 03:51:34,37.1259168417991,140.015801736913,6.889764,,,3087.751512522,7.217848,0,2.28916345908,2.97231308724,25,5,16.491,3087.751512522,6.889764,0.223694,2.28916345908,0,0,0,143.2, -0.6, 2,0,0,1024,1024,1082,1684,0,0,9,100,154.7,0,0,95,4.131,4.13,4.133,4.132,0,0,7.464,71.06,3087.751512522,6.889764,6,P-GPS,
8000,2025-03-22 03:51:34,37.1259170366543,140.015801897485,6.889764,,,3087.751512522,7.217848,0,2.32800860468,3.05737870676,25,5,16.573,3087.751512522,6.889764,0.223694,2.32800860468,0,0,0,155.1, -0.8, 2.1,0,0,1024,1024,1065,1684,0,0,6,100,166.7,0,0,95,4.128,4.128,4.129,4.128,0,0,7.748,71.24,3087.751512522,6.889764,6,P-GPS,
8200,2025-03-22 03:51:34,37.1259171750247,140.01580202862,6.889764,,,3087.751512522,7.217848,0,2.36203419632,3.120652987,24,5,16.573,3087.751512522,6.889764,0.223694,2.36203419632,0,0,0,167.2, -1.3, 1.3,0,0,1024,1024,1063,1684,0,0,6,100,178.7,0,0,95,4.128,4.128,4.129,4.128,0,0,7.748,71.24,3087.751512522,6.889764,6,P-GPS,
8400,2025-03-22 03:51:34,37.1259172815982,140.015802190611,6.889764,,,3087.751512522,7.217848,0,2.40677173056,3.18174878948,24,5,16.573,3087.751512522,6.889764,0.223694,2.40677173056,0,0,0,179.2, -1.1, 1.3,0,0,1024,1024,1056,1684,0,0,5,100,190.7,0,0,95,4.128,4.128,4.129,4.128,0,0,7.748,71.24,3087.751512522,6.889764,6,P-GPS,
8600,2025-03-22 03:51:34,37.1259173741471,140.015802398729,6.889764,,,3087.751512522,7.545932,0,2.46580388468,3.25106965784,24,5,16.573,3087.751512522,6.889764,0.223694,2.46580388468,0,0,0,191.4, -1.6, 0.9,0,0,1024,1024,1024,1684,0,0,0,100,202.7,0,0,95,4.128,4.128,4.129,4.128,0,0,7.748,71.24,3087.751512522,6.889764,6,P-GPS,
8800,2025-03-22 03:51:35,37.1259174465544,140.015802669104,6.889764,,,3087.751512522,7.217848,0,2.54363197116,3.3340224164,25,5,16.573,3087.751512522,6.889764,0.223694,2.54363197116,0,0,0,203.3, -1.9, 1.6,0,0,1024,1024,1024,1415,0,0,0,59,214.6,0,0,95,4.128,4.128,4.129,4.128,0,0,7.748,71.24,3087.751512522,6.889764,6,P-GPS,
9000,2025-03-22 03:51:35,37.1259175135106,140.015802866223,6.889764,,,3087.751512522,7.217848,0,2.60049549004,3.3963583764,25,5,16.573,3087.751512522,6.889764,0.223694,2.60049549004,0,0,0,215.4, -1.7, 0.7,0,0,1024,1024,1024,1024,0,0,0,0,220,0,0,95,4.119,4.119,4.126,4.126,0,0,7.748,71.24,3087.751512522,6.889764,6,P-GPS,
9200,2025-03-22 03:51:35,37.1259175587695,140.01580298081,6.889764,,,3087.751512522,7.217848,0.223694,2.63364181656,3.433563102,24,5,16.573,3087.751512522,6.889764,0.223694,2.63364181656,0,-0.223694,0,219.9, -0.6, -0.4,0,0,1024,1024,1024,1024,0,0,0,0,220.2,0,0,95,4.119,4.119,4.126,4.126,0,0,7.748,71.24,3087.751512522,6.889764,6,P-GPS,
9400,2025-03-22 03:51:35,37.1259176324782,140.015803076517,6.889764,,,3087.751512522,7.217848,0,2.66141084632,3.472277014,24,5,16.573,3087.751512522,6.889764,0.223694,2.66141084632,0,0,0,219.2, 0.3, -1.8,0,0,1024,1024,1024,1024,0,0,0,0,220.2,0,0,95,4.119,4.119,4.126,4.126,0,0,7.748,71.24,3087.751512522,6.889764,6,P-GPS,
9600,2025-03-22 03:51:35,37.125917747232,140.015803279831,6.889764,,,3087.751512522,7.217848,0,2.72097777736,3.5447507696,24,5,16.573,3087.751512522,6.889764,0.223694,2.72097777736,0,0,0,219.4, 0, -3.1,0,0,1024,1024,1024,1518,0,0,0,75,220.2,0,0,95,4.119,4.119,4.126,4.126,0,0,7.748,71.24,3087.751512522,6.889764,6,P-GPS,
9800,2025-03-22 03:51:36,37.1259178553259,140.015803643309,6.889764,,,3087.751512522,7.217848,0,2.82764444744,3.6575788572,24,5,16.573,3087.751512522,6.889764,0.223694,2.82764444744,0,0,0,219.4, -0.3, -2.4,0,0,1024,1024,1024,1024,0,0,0,0,222.4,0,0,95,4.119,4.119,4.126,4.126,0,0,7.748,71.24,3087.751512522,6.889764,6,P-GPS,
10000,2025-03-22 03:51:36,37.1259179378463,140.015804114099,7.217848,,,3088.079596522,7.217848,0.223694,2.96557752272,3.7978019588,24,5,16.491,3088.079596522,7.217848,0.223694,2.96557752272,-0.223694,0,0,222, 0.3, -0.8,0,0,1024,1024,1024,1024,0,0,0,0,223.9,0,0,95,4.119,4.12,4.121,4.121,0,0,7.881,71.42,3088.079596522,7.217848,6,P-GPS,
10200,2025-03-22 03:51:36,37.1259180813759,140.015804601498,7.217848,,,3088.079596522,7.217848,0,3.1096785772,3.9489502576,24,5,16.491,3088.079596522,7.217848,0.223694,3.1096785772,0,0,0,223.6, 0.5, -0.9,0,0,1024,1024,1024,1024,0,0,0,0,223.9,0,0,95,4.119,4.12,4.121,4.121,0,0,7.881,71.42,3088.079596522,7.217848,6,P-GPS,
10400,2025-03-22 03:51:36,37.1259182602384,140.015805011676,7.217848,,,3088.079596522,7.217848,0.223694,3.2329233318,4.0849410756,24,5,16.491,3088.079596522,7.217848,0.223694,3.2329233318,-0.223694,0,0,223.4, 0.8, -1.5,0,0,1024,1024,1024,1024,0,0,0,0,223.9,0,0,95,4.119,4.12,4.121,4.121,0,0,7.881,71.42,3088.079596522,7.217848,6,P-GPS,
10600,2025-03-22 03:51:36,37.1259183852397,140.015805330636,7.217848,,,3088.079596522,7.217848,0.223694,3.3290027312,4.1883531524,24,5,16.491,3088.079596522,7.217848,0.223694,3.3290027312,-0.223694,0,0,223.2, 2.6, -1.2,0,0,1024,1024,1024,1024,0,0,0,0,223.9,0,0,95,4.119,4.12,4.121,4.121,0,0,7.881,71.42,3088.079596522,7.217848,6,P-GPS,
10800,2025-03-22 03:51:37,37.1259185365159,140.015805656914,7.217848,,,3088.079596522,7.217848,0.223694,3.4285762252,4.2981300588,24,5,16.491,3088.079596522,7.217848,0.223694,3.4285762252,-0.223694,0,0,223, 3.2, -1,0,0,1024,1024,1024,1024,0,0,0,0,223.9,0,0,95,4.119,4.12,4.121,4.121,0,0,7.881,71.42,3088.079596522,7.217848,6,P-GPS,
11000,2025-03-22 03:51:37,37.1259187529222,140.015805962447,7.217848,,,3088.079596522,7.217848,0,3.5254594304,4.4170277004,24,5,16.491,3088.079596522,7.217848,0.223694,3.5254594304,0,0,0,223.6, 3.1, 0.3,0,1,1024,1024,1024,1024,0,0,0,0,223.9,0,0,95,4.12,4.119,4.121,4.12,0,0,7.832,71.6,3088.079596522,7.217848,6,P-GPS,
11200,2025-03-22 03:51:37,37.1259190825475,140.015806173158,7.217848,,,3088.079596522,7.217848,0,3.6022310864,4.552001458,25,5,16.491,3088.079596522,7.217848,0.223694,3.6022310864,0,0,0,223.8, 2.9, -0.3,0,1,1024,1024,1024,1024,0,0,0,0,223.9,0,0,95,4.12,4.119,4.121,4.12,0,0,7.832,71.6,3088.079596522,7.217848,6,P-GPS,
11400,2025-03-22 03:51:37,37.1259194451003,140.015806313211,7.545932,,,3088.407680522,7.217848,0,3.6643045792,4.6904200976,25,5,16.491,3088.407680522,7.545932,0.223694,3.6643045792,0,0,0,223.5, 2.9, -1,0,1,1024,1024,1024,1024,0,0,0,0,223.9,0,0,95,4.12,4.119,4.121,4.12,0,0,7.832,71.6,3088.407680522,7.545932,6,P-GPS,
11600,2025-03-22 03:51:37,37.1259197700948,140.015806432582,7.545932,,,3088.407680522,7.217848,0,3.7216864708,4.813976532,25,5,16.491,3088.407680522,7.545932,0.223694,3.7216864708,0,0,0,223.6, 3.3, -0.9,0,1,1024,1024,1024,1024,0,0,0,0,223.9,0,0,95,4.12,4.119,4.121,4.12,0,0,7.832,71.6,3088.407680522,7.545932,6,P-GPS,
11800,2025-03-22 03:51:38,37.1259200855027,140.015806559587,7.545932,,,3088.407680522,7.217848,0,3.7835631132,4.9348426776,25,5,16.491,3088.407680522,7.545932,0.223694,3.7835631132,0,0,0,223.5, 3.5, -0.8,0,1,1024,1024,1024,1024,0,0,0,0,223.9,0,0,95,4.12,4.119,4.121,4.12,0,0,7.832,71.6,3088.407680522,7.545932,6,P-GPS,
12000,2025-03-22 03:51:38,37.1259203828377,140.01580675496,7.545932,,,3088.407680522,7.217848,0,3.8656825384,5.0572836264,25,5,16.466,3088.407680522,7.545932,0.223694,3.8656825384,0,0,0,223.6, 3, -0.7,0,1,1024,1024,1024,1024,0,0,0,0,223.9,0,0,95,4.12,4.12,4.124,4.121,0,0,7.937,71.6,3088.407680522,7.545932,6,P-GPS,
12200,2025-03-22 03:51:38,37.1259206496307,140.015806972522,7.545932,,,3088.407680522,7.217848,0,3.9529856908,5.173392554,25,5,16.466,3088.407680522,7.545932,0.223694,3.9529856908,0,0,0,223.4, 2.3, -0.5,0,1,1024,1024,1024,1024,0,0,0,0,223.9,0,0,95,4.12,4.12,4.124,4.121,0,0,7.937,71.6,3088.407680522,7.545932,6,P-GPS,
12400,2025-03-22 03:51:38,37.1259209385476,140.015807166519,7.874016,,,3088.735764522,7.217848,0,4.037565746,5.292979172,25,5,16.466,3088.735764522,7.874016,0.223694,4.037565746,0,0,0,223, 2.1, -1.1,0,1,1024,1024,1024,1024,0,0,0,0,223.9,0,0,95,4.12,4.12,4.124,4.121,0,0,7.937,71.6,3088.735764522,7.874016,6,P-GPS,
12600,2025-03-22 03:51:38,37.1259212684514,140.01580733131,7.874016,,,3088.735764522,7.217848,0.223694,4.1206694232,5.4225395436,25,5,16.466,3088.735764522,7.874016,0.223694,4.1206694232,0.223694,0,0,223.4, 1.6, -1.4,0,1,1024,1024,1024,1024,0,0,0,0,223.9,0,0,95,4.12,4.12,4.124,4.121,0,0,7.937,71.6,3088.735764522,7.874016,6,P-GPS,
12800,2025-03-22 03:51:39,37.1259216048915,140.015807482352,7.874016,,,3088.735764522,7.217848,0,4.2031825492,5.5529201252,26,5,16.466,3088.735764522,7.874016,0.223694,4.2031825492,0,0,0,223.8, 0.5, -3.7,0,1,1024,1024,1024,1024,0,0,0,0,223.9,0,0,95,4.12,4.12,4.124,4.121,0,0,7.937,71.6,3088.735764522,7.874016,6,P-GPS,
13000,2025-03-22 03:51:39,37.1259218029116,140.015807682174,7.874016,,,3088.735764522,7.217848,0,4.2830053864,5.6456366636,26,5,16.495,3088.735764522,7.874016,0.223694,4.2830053864,0,0,0,223, 0.8, -2.7,0,1,1024,1024,1104,1024,0,0,12,0,223.9,0,0,95,4.121,4.123,4.126,4.123,0,0,7.516,71.6,3088.735764522,7.874016,6,P-GPS,
13200,2025-03-22 03:51:39,37.1259219165596,140.015807920695,7.874016,,,3088.735764522,7.217848,0,4.3626313732,5.7264765612,26,5,16.495,3088.735764522,7.874016,0.223694,4.3626313732,0,0,0,223.1, 1.7, -2.7,0,1,1024,1024,1187,1024,0,0,25,0,223.9,0,0,95,4.121,4.123,4.126,4.123,0,0,7.516,71.6,3088.735764522,7.874016,6,P-GPS,
13400,2025-03-22 03:51:39,37.1259220125825,140.015808203841,7.874016,,,3088.735764522,7.217848,0,4.45209988,5.8159778764,26,5,16.495,3088.735764522,7.874016,0.223694,4.45209988,0,0,0,223.2, 0.8, -4,0,1,1024,1024,1211,1024,0,0,28,0,223.9,0,0,95,4.121,4.123,4.126,4.123,0,0,7.516,71.6,3088.735764522,7.874016,6,P-GPS,
13600,2025-03-22 03:51:39,37.1259220431186,140.015808553406,8.2021,,,3089.063848522,7.217848,0,4.5510500144,5.9182744676,26,5,16.495,3089.063848522,8.2021,0.223694,4.5510500144,0,0,-0.447388,223.3, 0.3, -3.8,0,1,1024,1024,1200,1024,0,0,27,0,223.9,0,0,95,4.121,4.123,4.126,4.123,0,0,7.516,71.6,3089.063848522,8.2021,6,P-GPS,
13800,2025-03-22 03:51:40,37.1259220031115,140.015808941097,8.530184,,,3089.391932522,7.217848,0,4.6516077604,6.031988382,26,5,16.495,3089.391932522,8.530184,0.223694,4.6516077604,0,0,-0.671082,223.1, 0.5, -2.7,0,1,1024,1024,1201,1024,0,0,27,0,223.9,0,0,95,4.121,4.123,4.126,4.123,0,0,7.516,71.6,3089.391932522,8.530184,6,P-GPS,
14000,2025-03-22 03:51:40,37.1259219392402,140.015809308441,8.858268,,,3089.720016522,7.545932,0,4.7442914904,6.1413715876,26,5,16.503,3089.720016522,8.858268,0.223694,4.7442914904,0,0,-0.894776,223.1, 1.1, -2.8,0,1,1024,1024,1177,1024,0,0,23,0,223.9,0,0,95,4.105,4.111,4.118,4.122,0,0,7.344,71.78,3089.720016522,8.858268,6,P-GPS,
14200,2025-03-22 03:51:40,37.1259218561695,140.015809662916,9.186352,,,3090.048100522,7.874016,0,4.83185711,6.248851906,26,5,16.503,3090.048100522,9.186352,0.223694,4.83185711,0,0,-0.894776,223.2, 0.5, -2.7,0,1,1024,1024,1142,1024,0,0,18,0,223.9,0,0,95,4.105,4.111,4.118,4.122,0,0,7.344,71.78,3090.048100522,9.186352,6,P-GPS,
14400,2025-03-22 03:51:40,37.1259217664569,140.015809906766,9.186352,,,3090.048100522,8.2021,0,4.8888781092,6.3269687064,25,5,16.503,3090.048100522,9.186352,0.223694,4.8888781092,0,0,-0.671082,223.5, 0.8, -3.1,0,1,1024,1024,1084,1024,0,0,9,0,223.9,0,0,95,4.105,4.111,4.118,4.122,0,0,7.344,71.78,3090.048100522,9.186352,6,P-GPS,
14600,2025-03-22 03:51:40,37.1259216398399,140.015810075111,9.514436,,,3090.376184522,8.2021,0,4.9214568504,6.3942915432,26,5,16.503,3090.376184522,9.514436,0.223694,4.9214568504,0,0,-0.223694,222.8, 2.4, -1.8,0,1,1024,1024,1108,1024,0,0,13,0,223.9,0,0,95,4.105,4.111,4.118,4.122,0,0,7.344,71.78,3090.376184522,9.514436,6,P-GPS,
14800,2025-03-22 03:51:41,37.1259215626878,140.015810201593,9.514436,,,3090.376184522,8.2021,0,4.94832693,6.440617004,26,5,16.503,3090.376184522,9.514436,0.223694,4.94832693,0,0,-0.223694,223.5, 1.7, -2.4,0,1,1024,1024,1138,1024,0,0,17,0,223.9,0,0,95,4.105,4.111,4.118,4.122,0,0,7.344,71.78,3090.376184522,9.514436,6,P-GPS,
15000,2025-03-22 03:51:41,37.1259215288056,140.015810275078,9.84252,,,3090.704268522,8.2021,0,4.965223256,6.4652889208,26,5,16.457,3090.704268522,9.84252,0.223694,4.965223256,0,0,-0.223694,223.5, 1.8, -2.9,0,1,1024,1024,1171,1024,0,0,22,0,223.9,0,0,95,4.117,4.12,4.123,4.127,0,0,7.758,71.78,3090.704268522,9.84252,6,P-GPS,
15200,2025-03-22 03:51:41,37.1259215099611,140.015810307621,9.84252,,,3090.704268522,8.530184,0,4.9723098704,6.4770015196,26,5,16.457,3090.704268522,9.84252,0.223694,4.9723098704,0,0,-0.223694,223, 2.9, -2.3,0,1,1024,1024,1173,1024,0,0,23,0,223.9,0,0,95,4.117,4.12,4.123,4.127,0,0,7.758,71.78,3090.704268522,9.84252,6,P-GPS,
15400,2025-03-22 03:51:41,37.1259215896175,140.015810359172,10.170604,,,3091.032352522,8.530184,0,4.9950460916,6.5097114944,26,5,16.457,3091.032352522,10.170604,0.223694,4.9950460916,0,0,-0.447388,223.3, 3.3, -1.5,0,1,1024,1024,1188,1024,0,0,25,0,223.9,0,0,95,4.117,4.12,4.123,4.127,0,0,7.758,71.78,3091.032352522,10.170604,6,P-GPS,
15600,2025-03-22 03:51:41,37.125921812715,140.015810454899,10.498688,,,3091.360436522,8.530184,0,5.0458006864,6.5957351192,25,5,16.457,3091.360436522,10.498688,0.223694,5.0458006864,0,0,-0.447388,224.2, 1.3, -3.3,0,1,1024,1024,1179,1024,0,0,23,0,223.9,0,0,95,4.117,4.12,4.123,4.127,0,0,7.758,71.78,3091.360436522,10.498688,6,P-GPS,
15800,2025-03-22 03:51:41,37.1259219896426,140.015810588557,10.498688,,,3091.360436522,8.858268,0,5.102690452,6.671096014,25,5,16.457,3091.360436522,10.498688,0.223694,5.102690452,0,0,-0.671082,223.9, 1.5, -3.4,0,1,1024,1024,1180,1024,0,0,24,0,223.9,0,0,95,4.117,4.12,4.123,4.127,0,0,7.758,71.78,3091.360436522,10.498688,6,P-GPS,
16000,2025-03-22 03:51:42,37.1259220346475,140.015810783046,10.826772,,,3091.688520522,9.186352,0,5.16158153,6.7300199004,26,5,16.489,3091.688520522,10.826772,0.223694,5.16158153,0,0,-0.671082,223.8, 3.8, 0.1,0,1,1024,1024,1137,1024,0,0,17,0,223.9,0,0,95,4.111,4.115,4.118,4.116,0,0,7.395,71.96,3091.688520522,10.826772,6,P-GPS,
16200,2025-03-22 03:51:42,37.1259221414007,140.015810973467,11.154856,,,3092.016604522,9.186352,0,5.22637812,6.797736438,26,5,16.489,3092.016604522,11.154856,0.223694,5.22637812,0,0,-0.671082,223.8, 2.8, 0.5,0,1,1024,1024,1161,1024,0,0,21,0,223.9,0,0,95,4.111,4.115,4.118,4.116,0,0,7.395,71.96,3092.016604522,11.154856,6,P-GPS,
16400,2025-03-22 03:51:42,37.1259223492031,140.015811113615,11.48294,,,3092.344688522,9.514436,0,5.289370248,6.8837928712,26,5,16.489,3092.344688522,11.48294,0.223694,5.289370248,0,0,-0.447388,223.2, 4.4, 2.4,0,1,1024,1024,1218,1024,0,0,29,0,223.9,0,0,95,4.111,4.115,4.118,4.116,0,0,7.395,71.96,3092.344688522,11.48294,6,P-GPS,
16600,2025-03-22 03:51:42,37.125922746043,140.015811244856,11.48294,,,3092.344688522,9.514436,0.223694,5.374179962,7.0335304088,26,5,16.489,3092.344688522,11.48294,0.223694,5.374179962,0.223694,0,-0.447388,223.1, 1.2, 1.6,0,1,1024,1024,1272,1024,0,0,38,0,223.9,0,0,95,4.111,4.115,4.118,4.116,0,0,7.395,71.96,3092.344688522,11.48294,6,P-GPS,
16800,2025-03-22 03:51:43,37.1259232369248,140.015811223542,11.811024,,,3092.672772522,9.84252,0.223694,5.433399124,7.2127298896,25,5,16.489,3092.672772522,11.811024,0.223694,5.433399124,0.223694,0,-0.894776,223.7, 0.2, -0.6,0,1,1024,1024,1284,1024,0,0,39,0,223.9,0,0,95,4.111,4.115,4.118,4.116,0,0,7.395,71.96,3092.672772522,11.811024,6,P-GPS,
17000,2025-03-22 03:51:43,37.1259236660622,140.015811074143,12.139108,,,3093.000856522,10.170604,0.223694,5.4546589672,7.3752298948,26,5,16.443,3093.000856522,12.139108,0.223694,5.4546589672,0.223694,0,-1.342164,223.4, 0.4, -3.4,0,1,1024,1024,1269,1024,0,0,37,0,223.9,0,0,95,4.113,4.116,4.119,4.109,0,0,7.418,71.96,3093.000856522,12.139108,6,P-GPS,
17200,2025-03-22 03:51:43,37.1259238919372,140.015811001666,12.795276,,,3093.657024522,10.498688,0,5.4693899388,7.460302076,26,5,16.443,3093.657024522,12.795276,0.223694,5.4693899388,0,0,-1.565858,223.1, 0.6, -5.4,0,1,1024,1024,1291,1024,0,0,40,0,223.9,0,0,95,4.113,4.116,4.119,4.109,0,0,7.418,71.96,3093.657024522,12.795276,6,P-GPS,
17400,2025-03-22 03:51:43,37.1259238738283,140.015811147351,13.451444,,,3094.313192522,11.154856,0,5.5051510948,7.5031826548,26,5,16.443,3094.313192522,13.451444,0.223694,5.5051510948,0,0,-1.789552,223.6, 1.2, -3.3,0,1,1024,1024,1314,1024,0,0,44,0,223.9,0,0,95,4.113,4.116,4.119,4.109,0,0,7.418,71.96,3094.313192522,13.451444,6,P-GPS,
17600,2025-03-22 03:51:43,37.1259237871777,140.01581137821,13.779528,,,3094.641276522,11.48294,0,5.5534122512,7.577428064,26,5,16.443,3094.641276522,13.779528,0.223694,5.5534122512,0,0,-2.013246,227, 1.9, -1.1,0,1,1024,1024,1305,1024,0,0,43,0,223.9,0,0,95,4.113,4.116,4.119,4.109,0,0,7.418,71.96,3094.641276522,13.779528,6,P-GPS,
17800,2025-03-22 03:51:44,37.1259238231544,140.015811612777,14.76378,,,3095.625528522,12.139108,0,5.6211287888,7.6469162552,26,5,16.443,3095.625528522,14.76378,0.223694,5.6211287888,0,0,-2.23694,227.7, 2.3, -1.5,0,1,1024,1024,1299,1024,0,0,42,0,223.9,0,0,95,4.113,4.116,4.119,4.109,0,0,7.418,71.96,3095.625528522,14.76378,6,P-GPS,
18000,2025-03-22 03:51:44,37.125923967741,140.015811839302,15.419948,,,3096.281696522,13.12336,0,5.702756088,7.73129946,26,5,16.516,3096.281696522,15.419948,0.223694,5.702756088,0,0,-2.23694,227.3, 0, -3.6,0,1,1024,1024,1315,1024,0,0,44,0,223.9,0,0,95,4.105,4.108,4.123,4.124,0,0,7.146,71.96,3096.281696522,15.419948,6,P-GPS,
18200,2025-03-22 03:51:44,37.1259240967382,140.015812045034,16.076116,,,3096.937864522,13.779528,0,5.776574988,7.8074477564,26,5,16.516,3096.937864522,16.076116,0.223694,5.776574988,0,0,-2.013246,227.3, 0.3, -3.2,0,1,1024,1024,1301,1024,0,0,42,0,223.9,0,0,95,4.105,4.108,4.123,4.124,0,0,7.146,71.96,3096.937864522,16.076116,6,P-GPS,
18400,2025-03-22 03:51:44,37.1259242192394,140.015812241444,16.732284,,,3097.594032522,14.435696,0,5.8470474312,7.8799871288,26,5,16.516,3097.594032522,16.732284,0.223694,5.8470474312,0,0,-2.23694,227.5, 0, -3.1,0,1,1024,1024,1295,1024,0,0,41,0,223.9,0,0,95,4.105,4.108,4.123,4.124,0,0,7.146,71.96,3097.594032522,16.732284,6,P-GPS,
18600,2025-03-22 03:51:44,37.1259242978839,140.015812413455,17.716536,,,3098.578284522,14.76378,0,5.9044621312,7.937664296,26,5,16.516,3098.578284522,17.716536,0.223694,5.9044621312,0,0,-2.013246,227.4, 0.3, -3.3,0,1,1024,1024,1302,1024,0,0,42,0,223.9,0,0,95,4.105,4.108,4.123,4.124,0,0,7.146,71.96,3098.578284522,17.716536,6,P-GPS,
18800,2025-03-22 03:51:45,37.1259243314696,140.015812567158,18.372704,,,3099.234452522,15.419948,0,5.9502626576,7.9840225652,26,5,16.516,3099.234452522,18.372704,0.223694,5.9502626576,0,0,-2.013246,227.5, 1.3, -1.5,0,1,1024,1024,1290,1024,0,0,40,0,223.9,0,0,95,4.105,4.108,4.123,4.124,0,0,7.146,71.96,3099.234452522,18.372704,6,P-GPS,
19000,2025-03-22 03:51:45,37.1259243929575,140.01581270188,19.028872,,,3099.890620522,16.076116,0,5.9952101656,8.029199732,26,5,16.45,3099.890620522,19.028872,0.223694,5.9952101656,0,0,-2.013246,227.6, 0.3, -1.7,0,1,1024,1024,1315,1024,0,0,44,0,223.9,0,0,95,4.106,4.106,4.11,4.107,0,0,7.755,72.14,3099.890620522,19.028872,6,P-GPS,
19200,2025-03-22 03:51:45,37.1259244390145,140.015812750884,19.68504,,,3100.546788522,16.4042,0,6.0151248644,8.0512141684,26,5,16.45,3100.546788522,19.68504,0.223694,6.0151248644,0,0,-2.013246,227.9, 1.5, -1.1,0,1,1024,1024,1321,1024,0,0,45,0,223.9,0,0,95,4.106,4.106,4.11,4.107,0,0,7.755,72.14,3100.546788522,19.68504,6,P-GPS,
19400,2025-03-22 03:51:45,37.1259245331829,140.015812763417,20.341208,,,3101.202956522,17.388452,0,6.0327429752,8.0857614136,26,5,16.45,3101.202956522,20.341208,0.223694,6.0327429752,0,0,-2.23694,228.7, 2.2, -1.2,0,1,1024,1024,1316,1024,0,0,44,0,223.9,0,0,95,4.106,4.106,4.11,4.107,0,0,7.755,72.14,3101.202956522,20.341208,6,P-GPS,
19600,2025-03-22 03:51:45,37.1259247513336,140.015812774496,21.32546,,,3102.187208522,18.04462,0,6.069389958,8.1654202088,26,5,16.45,3102.187208522,21.32546,0.223694,6.069389958,0,0,-2.460634,227.8, -0.1, -1.3,0,1,1024,1024,1307,1024,0,0,43,0,223.9,0,0,95,4.106,4.106,4.11,4.107,0,0,7.755,72.14,3102.187208522,21.32546,6,P-GPS,
19800,2025-03-22 03:51:46,37.1259250780179,140.015812693565,22.309712,,,3103.171460522,18.700788,0,6.100393896,8.286909714,26,5,16.45,3103.171460522,22.309712,0.223694,6.100393896,0,0,-2.460634,227.5, 1.1, -3.6,0,1,1043,1024,1300,1024,3,0,42,0,223.9,0,0,95,4.106,4.106,4.11,4.107,0,0,7.755,72.14,3103.171460522,22.309712,6,P-GPS,
20000,2025-03-22 03:51:46,37.1259253516218,140.015812665437,22.96588,,,3103.827628522,19.356956,0,6.1383204064,8.3870737592,26,5,16.433,3103.827628522,22.96588,0.223694,6.1383204064,0,0,-2.23694,227.8, 1.7, -2.8,0,1,1081,1024,1293,1024,9,0,41,0,223.9,0,0,95,4.116,4.111,4.111,4.108,0,0,7.616,72.14,3103.827628522,22.96588,6,P-GPS,
20200,2025-03-22 03:51:46,37.1259256158608,140.015812774941,23.950132,,,3104.811880522,19.68504,0,6.2113519048,8.4886157572,26,5,16.433,3104.811880522,23.950132,0.223694,6.2113519048,0,0,-2.013246,230, 1.2, -3.5,0,1,1122,1024,1292,1024,15,0,41,0,223.9,0,0,95,4.116,4.111,4.111,4.108,0,0,7.616,72.14,3104.811880522,23.950132,6,P-GPS,
20400,2025-03-22 03:51:46,37.1259258382527,140.015813041958,24.6063,,,3105.468048522,20.341208,0,6.3181432468,8.6009517188,26,5,16.433,3105.468048522,24.6063,0.223694,6.3181432468,0,0,-2.013246,229.8, -0.4, -3,0,1,1110,1024,1292,1024,13,0,41,0,223.9,0,0,95,4.116,4.111,4.111,4.108,0,0,7.616,72.14,3105.468048522,24.6063,6,P-GPS,
20600,2025-03-22 03:51:46,37.125925962474,140.015813366311,25.262468,,,3106.124216522,20.997376,0,6.4227036176,8.7056105148,26,5,16.433,3106.124216522,25.262468,0.223694,6.4227036176,0,0,-2.013246,229.7, -1.1, -1.6,0,1,1089,1024,1260,1140,10,0,36,18,223.9,0,0,95,4.116,4.111,4.111,4.108,0,0,7.616,72.14,3106.124216522,25.262468,6,P-GPS,
20800,2025-03-22 03:51:47,37.125926007644,140.015813629908,25.918636,,,3106.780384522,21.653544,0,6.4980645124,8.7840553992,26,5,16.433,3106.780384522,25.918636,0.223694,6.4980645124,0,0,-1.789552,229.9, -1.2, 0.6,0,1,1070,1024,1240,1180,7,0,33,24,224.2,0,0,95,4.116,4.111,4.111,4.108,0,0,7.616,72.14,3106.780384522,25.918636,6,P-GPS,
21000,2025-03-22 03:51:47,37.1259260616104,140.0158136953,26.574804,,,3107.436552522,22.309712,0,6.524114382,8.8114176048,26,5,16.393,3107.436552522,26.574804,0.223694,6.524114382,0,0,-1.342164,230.1, -0.2, -0.5,0,1,1059,1024,1240,1186,5,0,33,25,224.7,0,0,95,4.12,4.118,4.122,4.125,0,0,7.867,72.32,3107.436552522,26.574804,6,P-GPS,
21200,2025-03-22 03:51:47,37.125926140031,140.015813641876,26.902888,,,3107.764636522,22.637796,0,6.5240159568,8.843996346,26,5,16.393,3107.764636522,26.902888,0.223694,6.524114382,0,0,-1.11847,231, 0.1, -0.5,0,1,1047,1024,1247,1094,3,0,34,11,225.2,0,0,95,4.12,4.118,4.122,4.125,0,0,7.867,72.32,3107.764636522,26.902888,6,P-GPS,
21400,2025-03-22 03:51:47,37.1259262821984,140.015813490353,27.559056,,,3108.420804522,23.293964,0,6.510334854,8.9120409676,26,5,16.393,3108.420804522,27.559056,0.223694,6.524114382,0,0,-1.342164,231.3, -0.6, -1.4,0,1,1035,1024,1235,1085,2,0,32,9,225.4,0,0,95,4.12,4.118,4.122,4.125,0,0,7.867,72.32,3108.420804522,27.559056,6,P-GPS,
21600,2025-03-22 03:51:47,37.1259264287493,140.015813313993,27.88714,,,3108.748888522,23.622048,0.223694,6.4918637248,8.9861551432,26,5,16.393,3108.748888522,27.88714,0.223694,6.524114382,0,-0.223694,-1.342164,231.3, 0.6, -2.4,0,1,1049,1024,1228,1063,4,0,31,6,225.5,0,0,95,4.12,4.118,4.122,4.125,0,0,7.867,72.32,3108.748888522,27.88714,6,P-GPS,
21800,2025-03-22 03:51:48,37.1259265501179,140.015813230623,28.215224,,,3109.076972522,23.950132,0,6.492946402,9.0366472708,26,5,16.393,3109.076972522,28.215224,0.223694,6.524114382,0,0,-1.11847,230.7, 1.4, -2.4,0,1,1115,1024,1217,1029,14,0,29,1,225.5,0,0,95,4.12,4.118,4.122,4.125,0,0,7.867,72.32,3109.076972522,28.215224,6,P-GPS,
22000,2025-03-22 03:51:48,37.1259267324013,140.015813290093,28.543308,,,3109.405056522,24.278216,0,6.5414700256,9.1053480604,26,5,16.457,3109.405056522,28.543308,0.223694,6.5414700256,0,0,-1.11847,231.1, -0.6, -1.8,0,1,1148,1024,1216,1039,19,0,29,2,225.5,0,0,95,4.107,4.111,4.115,4.116,0,0,7.442,72.32,3109.405056522,28.543308,6,P-GPS,
22200,2025-03-22 03:51:48,37.1259269660528,140.015813344878,28.871392,,,3109.733140522,23.950132,0,6.5988519172,9.19209347,26,5,16.457,3109.733140522,28.871392,0.223694,6.5988519172,0,0,-0.894776,231.9, 0.7, -1.5,0,1,1149,1024,1217,1041,19,0,29,3,225.5,0,0,95,4.107,4.111,4.115,4.116,0,0,7.442,72.32,3109.733140522,28.871392,6,P-GPS,
22400,2025-03-22 03:51:48,37.1259272053633,140.015813426997,29.199476,,,3110.061224522,24.278216,0,6.6647311844,9.2826118456,26,5,16.457,3110.061224522,29.199476,0.223694,6.6647311844,0,0,-0.894776,231.7, -1.3, -3.1,0,1,1153,1024,1244,1026,20,0,33,0,225.5,0,0,95,4.107,4.111,4.115,4.116,0,0,7.442,72.32,3110.061224522,29.199476,6,P-GPS,
22600,2025-03-22 03:51:48,37.1259273464597,140.015813546935,29.52756,,,3110.389308522,24.6063,0,6.7215225248,9.3447837636,26,5,16.457,3110.389308522,29.52756,0.223694,6.7215225248,0,0,-1.11847,231.4, -2, -4.9,0,1,1167,1024,1223,1024,22,0,30,0,225.5,0,0,95,4.107,4.111,4.115,4.116,0,0,7.442,72.32,3110.389308522,29.52756,6,P-GPS,
22800,2025-03-22 03:51:49,37.1259272589592,140.015813703461,29.855644,,,3110.717392522,24.278216,0.223694,6.7435041528,9.4003940016,25,5,16.457,3110.717392522,29.855644,0.223694,6.7435041528,-0.223694,0,-1.11847,230.7, -1.5, -2,0,1,1184,1024,1185,1024,24,0,24,0,225.5,0,0,95,4.107,4.111,4.115,4.116,0,0,7.442,72.32,3110.717392522,29.855644,6,P-GPS,
23000,2025-03-22 03:51:49,37.1259270825727,140.015813789804,30.183728,,,3111.045476522,24.6063,0.3131716,6.7316931288,9.469488492,26,5,16.375,3111.045476522,30.183728,0.3131716,6.7435041528,-0.223694,-0.223694,-1.11847,231.4, -0.3, -0.7,0,1,1178,1024,1177,1024,23,0,23,0,225.5,0,0,95,4.108,4.112,4.112,4.11,0,0,7.373,72.32,3111.045476522,30.183728,6,P-GPS,
23200,2025-03-22 03:51:49,37.125926971196,140.015813771414,30.511812,,,3111.373560522,24.934384,0.3131716,6.7063322356,9.5104661836,26,5,16.375,3111.373560522,30.511812,0.3131716,6.7435041528,-0.223694,-0.223694,-0.671082,231.5, -0.2, -1.5,0,1,1174,1024,1196,1024,23,0,26,0,225.5,0,0,95,4.108,4.112,4.112,4.11,0,0,7.373,72.32,3111.373560522,30.511812,6,P-GPS,
23400,2025-03-22 03:51:49,37.1259269060701,140.015813595182,30.511812,,,3111.373560522,25.262468,0.3131716,6.650098638,9.5669622484,25,5,16.375,3111.373560522,30.511812,0.3131716,6.7435041528,-0.223694,-0.223694,-0.671082,230.4, -2.4, -2,0,1,1193,1024,1225,1024,26,0,30,0,225.5,0,0,95,4.108,4.112,4.112,4.11,0,0,7.373,72.32,3111.373560522,30.511812,6,P-GPS,
23600,2025-03-22 03:51:49,37.1259267708018,140.015813245877,30.839896,,,3111.701644522,25.590552,0.4921268,6.5375330176,9.679954378,26,5,16.375,3111.701644522,30.839896,0.4921268,6.7435041528,-0.447388,-0.223694,-0.671082,229.9, -1, -1.2,0,1,1190,1024,1253,1024,25,0,35,0,225.5,0,0,95,4.108,4.112,4.112,4.11,0,0,7.373,72.32,3111.701644522,30.839896,6,P-GPS,
23800,2025-03-22 03:51:50,37.1259266815791,140.015812757358,31.16798,,,3112.029728522,25.918636,0.6263432,6.3989175276,9.8257220992,26,5,16.375,3112.029728522,31.16798,0.6263432,6.7435041528,-0.447388,-0.447388,-0.894776,229.6, -1.9, -1.6,0,1,1193,1024,1262,1024,26,0,36,0,225.5,0,0,95,4.108,4.112,4.112,4.11,0,0,7.373,72.32,3112.029728522,31.16798,6,P-GPS,
24000,2025-03-22 03:51:50,37.1259266182041,140.015812164632,31.496064,,,3112.357812522,26.24672,0.6263432,6.2397311708,9.9997050444,26,5,16.419,3112.357812522,31.496064,0.6263432,6.7435041528,-0.447388,-0.447388,-1.342164,229.9, -1.4, -2.1,0,1,1197,1024,1280,1024,26,0,39,0,225.5,0,0,95,4.092,4.094,4.102,4.102,0,0,7.46,72.5,3112.357812522,31.496064,6,P-GPS,
24200,2025-03-22 03:51:50,37.1259265246203,140.015811432457,31.824148,,,3112.685896522,26.902888,0.8052984,6.0412403508,10.2154202744,26,5,16.419,3112.685896522,31.824148,0.8052984,6.7435041528,-0.671082,-0.447388,-1.565858,229.9, -2, -0.8,0,1,1196,1024,1277,1024,26,0,38,0,225.5,0,0,95,4.092,4.094,4.102,4.102,0,0,7.46,72.5,3112.685896522,31.824148,6,P-GPS,
24400,2025-03-22 03:51:50,37.1259264410111,140.01581056322,32.152232,,,3113.013980522,27.559056,0.9395148,5.8127626532,10.4701118836,26,5,16.419,3113.013980522,32.152232,0.9395148,6.7435041528,-0.671082,-0.671082,-1.565858,229.8, -1.6, -0.8,0,1,1190,1024,1275,1024,25,0,38,0,225.5,0,0,95,4.092,4.094,4.102,4.102,0,0,7.46,72.5,3113.013980522,32.152232,6,P-GPS,
24600,2025-03-22 03:51:50,37.1259264672678,140.015809482153,32.480316,,,3113.342064522,28.543308,1.11847,5.559219338,10.7847116312,26,5,16.419,3113.342064522,32.480316,1.11847,6.7435041528,-0.671082,-0.894776,-1.789552,232, -1.9, -1.3,0,1,1180,1024,1274,1024,24,0,38,0,225.5,0,0,95,4.092,4.094,4.102,4.102,0,0,7.46,72.5,3113.342064522,32.480316,6,P-GPS,
24800,2025-03-22 03:51:51,37.125926479059,140.015808293764,33.136484,,,3113.998232522,28.871392,1.11847,5.2843177544,11.1304465504,26,5,16.419,3113.998232522,33.136484,1.11847,6.7435041528,-0.671082,-0.894776,-1.789552,232.4, -1.4, -1.5,0,1,1172,1024,1271,1024,22,0,37,0,225.5,0,0,95,4.092,4.094,4.102,4.102,0,0,7.46,72.5,3113.998232522,33.136484,6,P-GPS,
25000,2025-03-22 03:51:51,37.1259264843499,140.015807107159,33.464568,,,3114.326316522,29.52756,1.2750558,5.0170277196,11.4756565352,26,5,16.433,3114.326316522,33.464568,1.2750558,6.7435041528,-0.894776,-0.894776,-1.789552,232.6, -1.2, -1.4,0,1,1167,1024,1270,1024,22,0,37,0,225.5,0,0,94,4.108,4.108,4.113,4.111,0,0,7.345,72.5,3114.326316522,33.464568,6,P-GPS,
25200,2025-03-22 03:51:51,37.1259265573075,140.015805832411,34.120736,,,3114.982484522,30.183728,1.2750558,4.7579069764,11.8474085156,26,5,16.433,3114.982484522,34.120736,1.2750558,6.7435041528,-0.894776,-0.894776,-1.565858,232.5, 0, -0.4,0,1,1159,1024,1270,1024,20,0,37,0,225.5,0,0,94,4.108,4.108,4.113,4.111,0,0,7.345,72.5,3114.982484522,34.120736,6,P-GPS,
25400,2025-03-22 03:51:51,37.1259267688504,140.015804487857,34.44882,,,3115.310568522,30.511812,1.2750558,4.537729804,12.2460961924,26,5,16.433,3115.310568522,34.44882,1.2750558,6.7435041528,-0.894776,-0.894776,-1.565858,232.3, 0, -0.8,0,1,1158,1024,1268,1024,20,0,37,0,225.5,0,0,94,4.108,4.108,4.113,4.111,0,0,7.345,72.5,3115.310568522,34.44882,6,P-GPS,
25600,2025-03-22 03:51:51,37.1259270449464,140.015803214151,34.776904,,,3115.638652522,34.120736,1.2750558,4.374343972,12.6300528976,26,5,16.433,3115.638652522,34.776904,1.2750558,6.7435041528,-0.894776,-0.894776,-1.565858,232.7, -1.5, -0.1,0,1,1166,1024,1263,1024,22,0,36,0,225.5,0,0,94,4.108,4.108,4.113,4.111,0,0,7.345,72.5,3115.638652522,34.776904,6,P-GPS,
25800,2025-03-22 03:51:52,37.125927374175,140.01580190239,35.104988,,,3115.966736522,34.44882,1.2750558,4.2497048604,13.0301185272,26,5,16.433,3115.966736522,35.104988,1.2750558,6.7435041528,-0.894776,-0.894776,-1.565858,232.5, -1.7, 1.8,0,1,1167,1024,1269,1024,22,0,37,0,225.5,0,0,94,4.108,4.108,4.113,4.111,0,0,7.345,72.5,3115.966736522,35.104988,6,P-GPS,
26000,2025-03-22 03:51:52,37.1259277484799,140.015800542835,35.433072,,,3116.294820522,35.104988,1.2750558,4.1680447528,13.4485240524,26,5,16.422,3116.294820522,35.433072,1.2750558,6.7435041528,-0.894776,-0.894776,-1.565858,232.4, -1.6, 1.6,0,1,1161,1024,1266,1024,21,0,37,0,225.5,0,0,94,4.107,4.105,4.108,4.105,0,0,7.752,72.68,3116.294820522,35.433072,6,P-GPS,
26200,2025-03-22 03:51:52,37.1259281734861,140.015799103219,35.761156,,,3116.622904522,35.761156,1.2750558,4.1360237544,13.8950791848,26,5,16.422,3116.622904522,35.761156,1.2750558,6.7435041528,-0.894776,-0.894776,-1.565858,232.5, -2, 2.2,0,1,1159,1024,1269,1024,20,0,37,0,225.5,0,0,94,4.107,4.105,4.108,4.105,0,0,7.752,72.68,3116.622904522,35.761156,6,P-GPS,
26400,2025-03-22 03:51:52,37.1259286707486,140.01579746556,36.08924,,,3116.950988522,36.417324,1.2750558,4.1629266424,14.404856104,26,5,16.422,3116.950988522,36.08924,1.2750558,6.7435041528,-0.894776,-0.894776,-1.565858,232.7, -2, 1.4,0,1,1158,1024,1266,1024,20,0,37,0,225.5,0,0,94,4.107,4.105,4.108,4.105,0,0,7.752,72.68,3116.950988522,36.08924,6,P-GPS,
26600,2025-03-22 03:51:52,37.1259292180362,140.015796001569,36.417324,,,3117.279072522,36.745408,1.3645334,4.2761484308,14.8751973264,26,5,16.422,3117.279072522,36.417324,1.3645334,6.7435041528,-0.223694,-1.342164,-1.565858,259.2, -1.6, 2,0,1,1158,1024,1269,1024,20,0,37,0,225.5,0,0,94,4.107,4.105,4.108,4.105,0,0,7.752,72.68,3117.279072522,36.417324,6,P-GPS,
26800,2025-03-22 03:51:53,37.1259298395491,140.015794472795,36.745408,,,3117.607156522,37.401576,1.1408394,4.4629594604,15.3744099408,26,5,16.422,3117.607156522,36.745408,1.3645334,6.7435041528,0.223694,-1.11847,-1.565858,282.6, -2, 1.2,0,1,1158,1024,1262,1024,20,0,36,0,225.5,0,0,94,4.107,4.105,4.108,4.105,0,0,7.752,72.68,3117.607156522,36.745408,6,P-GPS,
27000,2025-03-22 03:51:53,37.1259304557818,140.01579316323,37.073492,,,3117.935240522,37.72966,1.2079476,4.6902232472,15.816765598,26,5,16.448,3117.935240522,37.073492,1.3645334,6.7435041528,0.447388,-1.11847,-1.565858,287.7, -2.9, -0.5,0,1,1158,1024,1268,1024,20,0,37,0,225.5,0,0,94,4.109,4.103,4.106,4.104,0,0,7.011,72.86,3117.935240522,37.073492,6,P-GPS,
27200,2025-03-22 03:51:53,37.1259310157086,140.015791901579,37.401576,,,3118.263324522,38.385828,1.2079476,4.9246392652,16.2367787348,26,5,16.448,3118.263324522,37.401576,1.3645334,6.7435041528,0.447388,-1.11847,-1.565858,289.1, -3.6, -1.2,0,1,1149,1024,1268,1024,19,0,37,0,225.5,0,0,94,4.109,4.103,4.106,4.104,0,0,7.011,72.86,3118.263324522,37.401576,6,P-GPS,
27400,2025-03-22 03:51:53,37.1259315811608,140.015790671041,37.72966,,,3118.591408522,39.041996,1.2079476,5.1828741816,16.649934916,26,5,16.448,3118.591408522,37.72966,1.3645334,6.7435041528,0.447388,-1.11847,-1.789552,289.1, -3.7, -1.5,0,1,1149,1024,1269,1024,19,0,37,0,225.5,0,0,94,4.109,4.103,4.106,4.104,0,0,7.011,72.86,3118.591408522,37.72966,6,P-GPS,
27600,2025-03-22 03:51:53,37.1259321410592,140.015789476402,38.057744,,,3118.919492522,39.37008,1.2079476,5.455708836,17.0530517268,26,5,16.448,3118.919492522,38.057744,1.3645334,6.7435041528,0.447388,-1.11847,-1.789552,289.1, -4.7, -2.3,0,1,1138,1024,1275,1024,17,0,38,0,225.5,0,0,94,4.109,4.103,4.106,4.104,0,0,7.011,72.86,3118.919492522,38.057744,6,P-GPS,
27800,2025-03-22 03:51:54,37.1259327251599,140.015788196618,38.057744,,,3118.919492522,40.026248,1.2079476,5.75951462,17.4820215568,26,5,16.448,3118.919492522,38.057744,1.3645334,6.7435041528,0.447388,-1.11847,-1.565858,289.1, -4.5, -2,0,1,1134,1024,1270,1024,17,0,37,0,225.5,0,0,94,4.109,4.103,4.106,4.104,0,0,7.011,72.86,3118.919492522,38.057744,6,P-GPS,
28000,2025-03-22 03:51:54,37.1259332692782,140.015786904211,38.385828,,,3119.247576522,40.354332,1.2079476,6.0658794592,17.9071856124,26,5,16.436,3119.247576522,38.385828,1.3645334,6.7435041528,0.447388,-1.11847,-1.565858,289.1, -5.4, -2.2,0,1,1138,1024,1272,1024,17,0,38,0,225.5,0,0,94,4.125,4.119,4.12,4.118,0,0,7.315,72.68,3119.247576522,38.385828,6,P-GPS,
28200,2025-03-22 03:51:54,37.125933772898,140.015785625098,38.713912,,,3119.575660522,41.0105,1.2079476,6.3707679204,18.322179064,26,5,16.436,3119.575660522,38.713912,1.3645334,6.7435041528,0.447388,-1.11847,-1.565858,289.3, -5.3, -1.4,0,1,1131,1024,1280,1024,16,0,39,0,225.5,0,0,94,4.125,4.119,4.12,4.118,0,0,7.315,72.68,3119.575660522,38.713912,6,P-GPS,
28400,2025-03-22 03:51:54,37.1259342398417,140.015784351288,39.041996,,,3119.903744522,41.338584,1.2079476,6.674704938,18.729987476,26,5,16.436,3119.903744522,39.041996,1.3645334,6.7435041528,0.447388,-1.11847,-1.565858,289.4, -5.6, -1.4,0,1,1135,1024,1294,1024,17,0,41,0,225.5,0,0,94,4.125,4.119,4.12,4.118,0,0,7.315,72.68,3119.903744522,39.041996,6,P-GPS,
28600,2025-03-22 03:51:54,37.1259346585929,140.015783057399,39.37008,,,3120.231828522,41.666668,1.1408394,6.9761813256,19.1362210848,26,5,16.436,3120.231828522,39.37008,1.3645334,6.9761813256,0.223694,-1.11847,-1.565858,289.3, -4.3, -0.5,0,1,1134,1024,1296,1024,17,0,41,0,225.5,0,0,94,4.125,4.119,4.12,4.118,0,0,7.315,72.68,3120.231828522,39.37008,6,P-GPS,
28800,2025-03-22 03:51:55,37.1259351113722,140.015781705047,39.698164,,,3120.559912522,42.322836,1.2079476,7.3069556144,19.5628943268,26,5,16.436,3120.559912522,39.698164,1.3645334,7.3069556144,0.447388,-1.11847,-2.013246,289.4, -4.5, -1.4,0,1,1132,1024,1314,1024,16,0,44,0,225.5,0,0,94,4.125,4.119,4.12,4.118,0,0,7.315,72.68,3120.559912522,39.698164,6,P-GPS,
29000,2025-03-22 03:51:55,37.125935533965,140.01578043098,40.026248,,,3120.887996522,42.65092,1.2079476,7.6260501128,19.9643051008,26,5,16.436,3120.887996522,40.026248,1.3645334,7.6260501128,0.447388,-1.11847,-2.23694,289.3, -4.4, -2.1,0,1,1133,1024,1316,1024,17,0,44,0,225.5,0,0,94,4.099,4.103,4.104,4.099,0,0,7.042,72.68,3120.887996522,40.026248,6,P-GPS,
29200,2025-03-22 03:51:55,37.1259359440712,140.015779051587,40.682416,,,3121.544164522,43.307088,1.1408394,7.965387394,20.392553146,26,5,16.436,3121.544164522,40.682416,1.3645334,7.965387394,0.223694,-1.11847,-2.460634,289.1, -3.7, -1.6,0,1,1128,1024,1317,1024,16,0,44,0,225.5,0,0,94,4.099,4.103,4.104,4.099,0,0,7.042,72.68,3121.544164522,40.682416,6,P-GPS,
29400,2025-03-22 03:51:55,37.1259362747276,140.015777725109,41.0105,,,3121.872248522,43.963256,1.1408394,8.2803152256,20.7968510592,26,5,16.436,3121.872248522,41.0105,1.3645334,8.2803152256,0.223694,-1.11847,-2.460634,289.2, -4, -1.4,0,1,1124,1024,1310,1024,15,0,43,0,225.5,0,0,94,4.099,4.103,4.104,4.099,0,0,7.042,72.68,3121.872248522,41.0105,6,P-GPS,
29600,2025-03-22 03:51:55,37.1259365706823,140.015776379954,41.666668,,,3122.528416522,44.619424,1.1408394,8.5958008,21.2027893924,26,5,16.436,3122.528416522,41.666668,1.3645334,8.5958008,0.223694,-1.11847,-2.460634,289, -3.9, -0.6,0,1,1124,1024,1312,1024,15,0,44,0,225.5,0,0,94,4.099,4.103,4.104,4.099,0,0,7.042,72.68,3122.528416522,41.666668,6,P-GPS,
29800,2025-03-22 03:51:56,37.1259368390545,140.015775036824,42.322836,,,3123.184584522,45.275592,1.1408394,8.910269314,21.6055781192,26,5,16.436,3123.184584522,42.322836,1.3645334,8.910269314,0.223694,-1.11847,-2.23694,289, -3.8, -0.2,0,1,1112,1024,1319,1024,13,0,45,0,225.5,0,0,94,4.099,4.103,4.104,4.099,0,0,7.042,72.68,3123.184584522,42.322836,6,P-GPS,
30000,2025-03-22 03:51:56,37.1259370778761,140.015773751193,42.979004,,,3123.840752522,46.259844,1.1408394,9.2126643368,21.9895676328,26,5,16.45,3123.840752522,42.979004,1.3645334,9.2126643368,0.223694,-1.11847,-2.23694,289.4, -4.1, 0.4,0,1,1083,1024,1332,1024,9,0,47,0,225.5,0,0,94,4.108,4.108,4.109,4.102,0,0,6.681,72.86,3123.840752522,42.979004,6,P-GPS,
30400,2025-03-22 03:51:56,37.1259375283534,140.015771476093,43.963256,,,3124.825004522,47.900264,0.894776,9.7693900764,22.6714902268,26,5,16.45,3124.825004522,43.963256,1.3645334,9.7693900764,0,-0.894776,-2.684328,288.9, -4.2, 0.4,0,1,1078,1024,1339,1024,8,0,48,0,225.5,0,0,94,4.108,4.108,4.109,4.102,0,0,6.681,72.86,3124.825004522,43.963256,6,P-GPS,
30600,2025-03-22 03:51:56,37.1259376612456,140.015770591696,43.635172,,,3124.496920522,48.884516,0.671082,9.9787076684,22.9333012588,26,5,16.45,3124.825004522,43.963256,1.3645334,9.9787076684,0,-0.671082,-2.684328,289.2, -6.2, 1.4,0,1,1078,1024,1337,1024,8,0,47,0,225.5,0,0,94,4.108,4.108,4.109,4.102,0,0,6.681,72.86,3124.496920522,43.635172,6,P-GPS,
30800,2025-03-22 03:51:57,37.1259378583941,140.015769728137,43.963256,,,3124.825004522,49.540684,0.9171454,10.2032155496,23.1946201648,26,5,16.45,3124.825004522,43.963256,1.3645334,10.2032155496,0.223694,-0.894776,-2.684328,289.1, -5.4, 0.9,0,1,1083,1024,1336,1024,9,0,47,0,225.5,0,0,94,4.108,4.108,4.109,4.102,0,0,6.681,72.86,3124.825004522,43.963256,6,P-GPS,
31000,2025-03-22 03:51:57,37.1259381239611,140.015768875772,44.619424,,,3125.481172522,50.524936,0.7158208,10.445046266,23.4608275224,26,5,16.44,3125.481172522,44.619424,1.3645334,10.445046266,0.223694,-0.671082,-2.684328,289.3, -5.5, -0.3,0,1,1083,1024,1338,1024,9,0,48,0,225.5,0,0,94,4.082,4.086,4.093,4.097,0,0,7.338,72.86,3125.481172522,44.619424,6,P-GPS,
31200,2025-03-22 03:51:57,37.1259384378908,140.015768022592,45.275592,,,3126.137340522,51.181104,0.7158208,10.7006893188,23.7341543028,26,5,16.44,3126.137340522,45.275592,1.3645334,10.7006893188,0.223694,-0.671082,-2.684328,289.2, -4.9, -0.6,0,1,1083,1024,1340,1024,9,0,48,0,225.5,0,0,94,4.082,4.086,4.093,4.097,0,0,7.338,72.86,3126.137340522,45.275592,6,P-GPS,
31400,2025-03-22 03:51:57,37.1259387210645,140.015767196461,45.603676,,,3126.465424522,52.165356,0.7158208,10.943733946,23.995735676,28,5,16.44,3126.465424522,45.603676,1.3645334,10.943733946,0.223694,-0.671082,-2.908022,289.2, -5.6, -0.5,0,1,1081,1024,1353,1024,9,0,50,0,225.5,0,0,94,4.082,4.086,4.093,4.097,0,0,7.338,72.86,3126.465424522,45.603676,6,P-GPS,
31600,2025-03-22 03:51:57,37.1259389733107,140.015766391949,46.259844,,,3127.121592522,53.149608,0.7158208,11.1752300164,24.247212062,28,5,16.44,3127.121592522,46.259844,1.3645334,11.1752300164,0.223694,-0.671082,-2.684328,289.2, -4.8, -0.5,0,1,1081,1024,1362,1024,9,0,51,0,225.5,0,0,94,4.082,4.086,4.093,4.097,0,0,7.338,72.86,3127.121592522,46.259844,6,P-GPS,
31800,2025-03-22 03:51:58,37.1259391985408,140.015765603438,46.916012,,,3127.777760522,54.13386,0.7158208,11.3973756928,24.4908800488,28,5,16.44,3127.777760522,46.916012,1.3645334,11.3973756928,0.223694,-0.671082,-3.131716,289.2, -4.8, -0.6,0,1,1080,1024,1363,1024,8,0,51,0,225.5,0,0,94,4.082,4.086,4.093,4.097,0,0,7.338,72.86,3127.777760522,46.916012,6,P-GPS,
32000,2025-03-22 03:51:58,37.1259393969731,140.015764871855,47.57218,,,3128.433928522,55.118112,0.7158208,11.6016407912,24.7156832056,28,5,16.373,3128.433928522,47.57218,1.3645334,11.6016407912,0.223694,-0.671082,-3.35541,289, -4.9, -0.1,0,1,1081,1024,1363,1024,9,0,51,0,225.5,0,0,94,4.078,4.082,4.088,4.088,0,0,7.706,72.86,3128.433928522,47.57218,6,P-GPS,
32200,2025-03-22 03:51:58,37.1259395879812,140.015764176676,47.900264,,,3128.762012522,56.430448,0.7158208,11.7970476216,24.9295611652,28,5,16.373,3128.762012522,47.900264,1.3645334,11.7970476216,0.223694,-0.671082,-3.35541,289.2, -5.4, -0.7,0,1,1081,1024,1363,1024,9,0,51,0,225.5,0,0,94,4.078,4.082,4.088,4.088,0,0,7.706,72.86,3128.762012522,47.900264,6,P-GPS,
32400,2025-03-22 03:51:58,37.1259397311757,140.015763509335,48.556432,,,3129.418180522,57.4147,0.7158208,11.9753284672,25.1306110404,28,5,16.373,3129.418180522,48.556432,1.3645334,11.9753284672,0.223694,-0.671082,-3.131716,289.1, -5.8, 0.4,0,1,1080,1024,1363,1024,8,0,51,0,225.5,0,0,94,4.078,4.082,4.088,4.088,0,0,7.706,72.86,3129.418180522,48.556432,6,P-GPS,
32600,2025-03-22 03:51:58,37.1259399054711,140.015762843767,49.2126,,,3130.074348522,58.398952,0.7158208,12.1615161372,25.3343840128,28,5,16.373,3130.074348522,49.2126,1.3645334,12.1615161372,0.223694,-0.671082,-3.131716,289.1, -4.9, -0.8,0,1,1080,1024,1361,1024,8,0,51,0,225.5,0,0,94,4.078,4.082,4.088,4.088,0,0,7.706,72.86,3130.074348522,49.2126,6,P-GPS,
32800,2025-03-22 03:51:59,37.1259400724728,140.015762178282,49.868768,,,3130.730516522,59.383204,0.4921268,12.3464898964,25.5373367752,28,5,16.373,3130.730516522,49.868768,1.3645334,12.3464898964,0.223694,-0.447388,-3.131716,289.2, -5, -0.8,0,1,1078,1024,1361,1024,8,0,51,0,225.5,0,0,94,4.078,4.082,4.088,4.088,0,0,7.706,72.86,3130.730516522,49.868768,6,P-GPS,
33000,2025-03-22 03:51:59,37.1259402298371,140.015761529444,50.85302,,,3131.714768522,60.367456,0.7158208,12.5260502696,25.7346136844,28,5,16.351,3131.714768522,50.85302,1.3645334,12.5260502696,0.223694,-0.671082,-3.131716,289.3, -5.2, -0.6,0,1,1078,1024,1358,1082,8,0,51,9,225.5,0,0,94,4.092,4.092,4.097,4.093,0,0,8.571,73.04,3131.714768522,50.85302,6,P-GPS,
33200,2025-03-22 03:51:59,37.1259404254685,140.01576088115,51.837272,,,3132.699020522,61.023624,0.7158208,12.7151578872,25.9362869192,28,5,16.351,3132.699020522,51.837272,1.3645334,12.7151578872,0.223694,-0.671082,-3.131716,289.1, -4.1, -1,0,1,1078,1024,1360,1125,8,0,51,15,225.5,0,0,94,4.092,4.092,4.097,4.093,0,0,8.571,73.04,3132.699020522,51.837272,6,P-GPS,
33400,2025-03-22 03:51:59,37.1259405940045,140.015760255679,52.49344,,,3133.355188522,62.007876,0.4921268,12.8931762656,26.1283144844,28,5,16.351,3133.355188522,52.49344,1.3645334,12.8931762656,0.223694,-0.447388,-3.131716,289.3, -0.9, -0.7,0,1,1078,1024,1344,1174,8,0,48,23,225.7,0,0,94,4.092,4.092,4.097,4.093,0,0,8.571,73.04,3133.355188522,52.49344,6,P-GPS,
33600,2025-03-22 03:51:59,37.1259407036173,140.015759903068,53.477692,,,3134.339440522,62.992128,0.223694,12.9971460852,26.2384194748,28,5,16.351,3134.339440522,53.477692,1.3645334,12.9971460852,0,-0.223694,-3.131716,289.4, -2.4, -0.7,0,1,1078,1024,1345,1171,8,0,49,22,225.9,0,0,94,4.092,4.092,4.097,4.093,0,0,8.571,73.04,3134.339440522,53.477692,6,P-GPS,
33800,2025-03-22 03:52:00,37.125940792015,140.015759760473,54.461944,,,3135.323692522,63.97638,0,13.0496395252,26.2909785316,28,5,16.351,3135.323692522,54.461944,1.3645334,13.0496395252,0,0,-2.908022,289.6, -3.7, -1.2,0,1,1078,1024,1339,1185,8,0,48,24,226.2,0,0,94,4.092,4.092,4.097,4.093,0,0,8.571,73.04,3135.323692522,54.461944,6,P-GPS,
34000,2025-03-22 03:52:00,37.1259409034009,140.015759693347,55.118112,,,3135.979860522,64.960632,0,13.0908468756,26.3360572732,28,5,16.382,3135.979860522,55.118112,1.3645334,13.0908468756,0,0,-2.908022,290, -4, -1.8,0,1,1078,1024,1344,1164,8,0,48,21,226.6,0,0,94,4.089,4.09,4.091,4.09,0,0,8.209,73.04,3135.979860522,55.118112,6,P-GPS,
34200,2025-03-22 03:52:00,37.125941006189,140.01575964999,56.102364,,,3136.964112522,65.944884,0,13.1248035696,26.3756242036,28,5,16.382,3136.964112522,56.102364,1.3645334,13.1248035696,0,0,-2.908022,291.5, -4, -1,0,1,1078,1024,1343,1168,8,0,48,22,227,0,0,94,4.089,4.09,4.091,4.09,0,0,8.209,73.04,3136.964112522,56.102364,6,P-GPS,
34400,2025-03-22 03:52:00,37.1259411542852,140.015759689332,57.086616,,,3137.948364522,66.601052,0.223694,13.1513455652,26.4308407408,28,5,16.382,3137.948364522,57.086616,1.3645334,13.1513455652,0.223694,0,-2.908022,292.2, -4.9, -1.9,0,1,1078,1024,1341,1168,8,0,48,22,227.3,0,0,94,4.089,4.09,4.091,4.09,0,0,8.209,73.04,3137.948364522,57.086616,6,P-GPS,
34600,2025-03-22 03:52:00,37.1259413654997,140.015759749878,58.070868,,,3138.932616522,67.25722,0.223694,13.1885174824,26.5099089848,28,5,16.382,3138.932616522,58.070868,1.3645334,13.1885174824,0.223694,0,-2.908022,292.5, -4.6, -2.4,0,1,1078,1024,1341,1183,8,0,48,24,227.7,0,0,94,4.089,4.09,4.091,4.09,0,0,8.209,73.04,3138.932616522,58.070868,6,P-GPS,
34800,2025-03-22 03:52:01,37.1259416526446,140.015759848756,59.05512,,,3139.916868522,68.241472,0.223694,13.2360240456,26.6185375972,28,5,16.382,3139.916868522,59.05512,1.3645334,13.2360240456,0.223694,0,-2.908022,292.7, -4.6, -2.5,0,1,1077,1024,1339,1187,8,0,48,25,228.1,0,0,94,4.089,4.09,4.091,4.09,0,0,8.209,73.04,3139.916868522,59.05512,6,P-GPS,
35000,2025-03-22 03:52:01,37.1259419955456,140.015759948337,59.711288,,,3140.573036522,68.89764,0.223694,13.2977038376,26.7469496748,28,5,16.369,3140.573036522,59.711288,1.3645334,13.2977038376,0.223694,0,-2.908022,293.3, -4.4, -3,0,1,1077,1024,1339,1186,8,0,48,25,228.5,0,0,94,4.084,4.082,4.086,4.086,0,0,8.015,73.22,3140.573036522,59.711288,6,P-GPS,
35200,2025-03-22 03:52:01,37.1259423558992,140.015760021189,60.69554,,,3141.557288522,69.553808,0.223694,13.3703744436,26.8801189704,29,5,16.369,3141.557288522,60.69554,1.3645334,13.3703744436,0.223694,0,-2.684328,293.5, -4.5, -2.6,0,1,1077,1024,1335,1186,8,0,47,25,228.9,0,0,94,4.084,4.082,4.086,4.086,0,0,8.015,73.22,3141.557288522,60.69554,6,P-GPS,
