time(millisecond),datetime(utc),latitude,longitude,height_above_takeoff(feet),height_above_ground_at_drone_location(feet),ground_elevation_at_drone_location(feet),altitude_above_seaLevel(feet),height_sonar(feet),speed(mph),distance(feet),mileage(feet),satellites,gpslevel,voltage(v),max_altitude(feet),max_ascent(feet),max_speed(mph),max_distance(feet), xSpeed(mph), ySpeed(mph), zSpeed(mph), compass_heading(degrees), pitch(degrees), roll(degrees),isPhoto,isVideo,rc_elevator,rc_aileron,rc_throttle,rc_rudder,rc_elevator(percent),rc_aileron(percent),rc_throttle(percent),rc_rudder(percent),gimbal_heading(degrees),gimbal_pitch(degrees),gimbal_roll(degrees),battery_percent,voltageCell1,voltageCell2,voltageCell3,voltageCell4,voltageCell5,voltageCell6,current(A),battery_temperature(f),altitude(feet),ascent(feet),flycStateRaw,flycState,message
817200,2025-03-22 04:24:37,37.1258825957326,140.015905343503,0,Available with any HD 360 subscription,Available with any HD 360 subscription,3080.2409840664,0,0,0,0,30,5,0,3080.2409840664,0,0,0,0,0,0,287, 4.5, -2.8,0,0,1024,1024,1024,1024,0,0,0,0,284.8,0,0,65,3.973,3.974,3.973,3.971,0,0,0,94.28,3080.2409840664,0,6,P-GPS,"Setting new Return-To-Home altitude to 100m (328 ft). Data Recorder File Index is 118. Setting new Maximum Flight Altitude to 150m (492 ft). 飛行中 機体が高度区域 (500 m)にいます。慎重に飛行してください。 (Code: 190001). 機体は飛行していません。ビジョンシステムと障害物回避が無効です (Code: 180059)"
817400,2025-03-22 04:24:37,37.125882638895,140.015905321022,0,,,3080.2409840664,0,0,19.198983554,0.0170516081572,30,5,0,3080.2409840664,0,0,19.198983554,0,0,0,287, 4.5, -2.8,0,0,1024,1024,1024,1024,0,0,0,0,284.8,0,0,65,3.973,3.974,3.973,3.971,0,0,0,94.28,3080.2409840664,0,41,Motors_Started,
817600,2025-03-22 04:24:37,37.1258826891949,140.015905319567,0,,,3080.2409840664,0,0,19.1899284356,0.0354084657,30,5,0,3080.2409840664,0,0,19.198983554,0,0,0,287, 4.5, -2.8,0,0,1024,1024,1024,1024,0,0,0,0,284.8,0,0,65,3.973,3.974,3.973,3.971,0,0,0,94.28,3080.2409840664,0,41,Motors_Started,
817800,2025-03-22 04:24:37,37.1258827590737,140.015905317413,0,,,3080.2409840664,0,0,19.1772972016,0.060911419272,30,5,0,3080.2409840664,0,0,19.198983554,0,0,0,287, 4.5, -2.8,0,0,1024,1024,1024,1024,0,0,0,0,284.8,0,0,65,3.973,3.974,3.973,3.971,0,0,0,94.28,3080.2409840664,0,41,Motors_Started,
818000,2025-03-22 04:24:38,37.1258828063434,140.015905302899,0,,,3080.2409840664,0,0,19.1654205608,0.078666997268,30,5,0,3080.2409840664,0,0,19.198983554,0,0,0,287, 4.5, -2.8,0,0,1024,1024,1024,1024,0,0,0,0,284.8,0,0,65,3.973,3.974,3.973,3.971,0,0,0,94.28,3080.2409840664,0,41,Motors_Started,
818200,2025-03-22 04:24:38,37.1258828454843,140.015905293434,0,,,3080.2409840664,0,0,19.1562670172,0.093210632904,30,5,15.891,3080.2409840664,0,0,19.198983554,0,0,0,287, 4.5, -2.9,0,0,1024,1024,1024,1024,0,0,0,0,284.8,0,0,65,3.951,3.954,3.953,3.95,0,0,1.408,94.28,3080.2409840664,0,41,Motors_Started,
818400,2025-03-22 04:24:38,37.1258828886618,140.015905286177,0,,,3080.2409840664,0,0,19.14698224,0.109104662284,30,5,15.891,3080.2409840664,0,0,19.198983554,0,0,0,287, 4.5, -2.9,0,0,1024,1024,1024,1024,0,0,0,0,284.8,0,0,65,3.951,3.954,3.953,3.95,0,0,1.408,94.28,3080.2409840664,0,41,Motors_Started,
818600,2025-03-22 04:24:38,37.1258829184618,140.015905277888,0,,,3080.2409840664,0,0,19.1397315836,0.12024114558,30,5,15.891,3080.2409840664,0,0,19.198983554,0,0,0,287.1, 4.5, -2.8,0,0,1024,1024,1024,1024,0,0,0,0,284.8,0,0,65,3.951,3.954,3.953,3.95,0,0,1.408,94.28,3080.2409840664,0,41,Motors_Started,
818800,2025-03-22 04:24:38,37.1258829555448,140.015905272844,0,,,3080.2409840664,0,0,19.132054418,0.133850397984,30,5,15.891,3080.2409840664,0,0,19.198983554,0,0,0,287, 4.5, -2.9,0,0,1024,1024,1024,1024,0,0,0,0,284.8,0,0,65,3.951,3.954,3.953,3.95,0,0,1.408,94.28,3080.2409840664,0,11,AutoTakeoff,
819000,2025-03-22 04:24:39,37.1258829926299,140.015905283147,0,,,3080.2409840664,0,0,19.1283470688,0.147708666144,30,5,15.891,3080.2409840664,0,0,19.198983554,0,0,0,287.1, 4.4, -2.9,0,0,1024,1024,1024,1024,0,0,0,0,284.8,0,0,65,3.951,3.954,3.953,3.95,0,0,1.408,94.28,3080.2409840664,0,11,AutoTakeoff,
819200,2025-03-22 04:24:39,37.1258830206997,140.015905265228,0,,,3080.2409840664,0,0,19.118931058,0.159200136328,30,5,15.835,3080.2409840664,0,0,19.198983554,0,0,0,288.1, 4.2, -3.1,0,0,1024,1024,1024,1024,0,0,0,0,284.8,0,0,65,3.96,3.962,3.96,3.956,0,0,2.524,94.28,3080.2409840664,0,11,AutoTakeoff,
819400,2025-03-22 04:24:39,37.1258830285501,140.015905246051,0,,,3080.2409840664,0,0,19.1126646536,0.165471133904,30,5,15.835,3080.2409840664,0,0,19.198983554,0,0,0,289.4, 0.8, -3.1,0,0,1024,1024,1024,1024,0,0,0,0,285,0,0,65,3.96,3.962,3.96,3.956,0,0,2.524,94.28,3080.2409840664,0,11,AutoTakeoff,
819600,2025-03-22 04:24:39,37.1258830216055,140.015905086262,0,,,3080.2409840664,0,0.223694,19.072835256,0.21202264458,30,5,15.835,3080.2409840664,0,0.223694,19.198983554,0,-0.223694,-0.447388,291.6, -4.7, -0.8,0,0,1024,1024,1024,1024,0,0,0,0,285.6,0,0,65,3.96,3.962,3.96,3.956,0,0,2.524,94.28,3080.2409840664,0,11,AutoTakeoff,
819800,2025-03-22 04:24:39,37.1258832276059,140.015904494407,0.328084,,,3080.5690680664,0.328084,0.7158208,18.8855321004,0.39988190256,30,5,15.835,3080.5690680664,0.328084,0.7158208,19.198983554,0.223694,-0.671082,-1.342164,291.1, 2.2, -0.8,0,0,1024,1024,1024,1024,0,0,0,0,286.1,0,0,65,3.96,3.962,3.96,3.956,0,0,2.524,94.28,3080.5690680664,0.328084,11,AutoTakeoff,
820000,2025-03-22 04:24:40,37.1258835972559,140.015903892454,0.656168,,,3080.8971520664,0.656168,0.3131716,18.6675858992,0.62090553168,30,5,15.835,3080.8971520664,0.656168,0.7158208,19.198983554,0.223694,-0.223694,-1.342164,290.8, 7.2, -1.2,0,0,1024,1024,1024,1024,0,0,0,0,286.3,0,0,65,3.96,3.962,3.96,3.956,0,0,2.524,94.28,3080.8971520664,0.656168,11,AutoTakeoff,
820200,2025-03-22 04:24:40,37.1258839986567,140.015903681028,1.312336,,,3081.5533200664,1.312336,0.447388,18.5448168664,0.77974740028,30,5,15.85,3081.5533200664,1.312336,0.7158208,19.198983554,0.447388,0,-1.11847,290.8, 5.1, -3.6,0,0,1024,1024,1024,1024,0,0,0,0,286.6,0,0,65,3.933,3.938,3.937,3.934,0,0,4.324,94.28,3081.5533200664,1.312336,11,AutoTakeoff,
820400,2025-03-22 04:24:40,37.1258843739878,140.01590373874,1.64042,,,3081.8814040664,1.64042,0.223694,18.4964900932,0.91771328396,30,5,15.85,3081.8814040664,1.64042,0.7158208,19.198983554,0.223694,0,-0.894776,290.7, 4.1, -4.7,0,0,1024,1024,1024,1024,0,0,0,0,286.8,0,0,65,3.933,3.938,3.937,3.934,0,0,4.324,94.28,3081.8814040664,1.64042,11,AutoTakeoff,
820600,2025-03-22 04:24:40,37.1258846925734,140.01590390056,1.968504,,,3082.2094880664,1.968504,0.223694,18.4854664708,1.04311683128,30,5,15.85,3082.2094880664,1.968504,0.7158208,19.198983554,0.223694,0,-0.894776,290.6, 3.5, -6.2,0,0,1024,1024,1024,1024,0,0,0,0,287,0,0,65,3.933,3.938,3.937,3.934,0,0,4.324,94.28,3082.2094880664,1.968504,11,AutoTakeoff,
820800,2025-03-22 04:24:40,37.1258849054028,140.015904074079,1.968504,,,3082.2094880664,2.296588,0,18.495571458,1.13573166364,29,5,15.85,3082.2094880664,1.968504,0.7158208,19.198983554,0,0,-0.894776,290.6, 3.4, -7,0,0,1024,1024,1024,1024,0,0,0,0,287.1,0,0,65,3.933,3.938,3.937,3.934,0,0,4.324,94.28,3082.2094880664,1.968504,11,AutoTakeoff,
821000,2025-03-22 04:24:41,37.1258849262303,140.015904220326,2.296588,,,3082.5375720664,2.624672,0,18.5302171284,1.17895016896,30,5,15.85,3082.5375720664,2.296588,0.7158208,19.198983554,0,0,-0.894776,290.5, 1.8, -5.1,0,0,1024,1024,1024,1024,0,0,0,0,287.2,0,0,65,3.933,3.938,3.937,3.934,0,0,4.324,94.28,3082.5375720664,2.296588,11,AutoTakeoff,
821200,2025-03-22 04:24:41,37.1258848400338,140.015904304843,2.624672,,,3082.8656560664,2.952756,0,18.56627356,1.21886814924,30,5,15.753,3082.8656560664,2.624672,0.7158208,19.198983554,0,0,-1.11847,290.7, 2.1, -4.4,0,0,1024,1024,1024,1024,0,0,0,0,287.2,0,0,65,3.927,3.931,3.93,3.927,0,0,5.282,94.28,3082.8656560664,2.624672,11,AutoTakeoff,
821400,2025-03-22 04:24:41,37.1258847072914,140.015904360198,2.952756,,,3083.1937400664,3.28084,0,18.6023628,1.26990489628,30,5,15.753,3083.1937400664,2.952756,0.7158208,19.198983554,0,0,-1.11847,290.5, 2.2, -3.7,0,0,1024,1024,1024,1024,0,0,0,0,287.3,0,0,65,3.927,3.931,3.93,3.927,0,0,5.282,94.28,3083.1937400664,2.952756,11,AutoTakeoff,
821600,2025-03-22 04:24:41,37.1258846045995,140.015904382624,3.28084,,,3083.5218240664,3.608924,0,18.6250662128,1.30793639356,30,5,15.753,3083.5218240664,3.28084,0.7158208,19.198983554,0,0,-1.11847,291.1, 1.7, -4.1,0,0,1024,1024,1024,1024,0,0,0,0,287.3,0,0,65,3.927,3.931,3.93,3.927,0,0,5.282,94.28,3083.5218240664,3.28084,11,AutoTakeoff,
821800,2025-03-22 04:24:41,37.1258845428303,140.015904337025,3.608924,,,3083.8499080664,3.937008,0,18.6233929844,1.3340879692,29,5,15.753,3083.8499080664,3.608924,0.7158208,19.198983554,0,0,-0.671082,290.5, 1.3, -3.9,0,0,1024,1024,1024,1024,0,0,0,0,287.3,0,0,65,3.927,3.931,3.93,3.927,0,0,5.282,94.28,3083.8499080664,3.608924,6,P-GPS,
822000,2025-03-22 04:24:42,37.125884498535,140.015904255317,3.608924,,,3083.8499080664,3.937008,0,18.6095150312,1.3628281276,29,5,15.753,3083.8499080664,3.608924,0.7158208,19.198983554,0,0,0,289.5, 1.8, -2.7,0,0,1024,1024,1024,1024,0,0,0,0,287.3,0,0,65,3.927,3.931,3.93,3.927,0,0,5.282,94.28,3083.8499080664,3.608924,6,P-GPS,
822200,2025-03-22 04:24:42,37.1258844683088,140.015904249091,3.608924,,,3083.8499080664,3.937008,0,18.6129271048,1.37400594948,28,5,15.734,3083.8499080664,3.608924,0.7158208,19.198983554,0,0,0,289.4, 2, -2.3,0,0,1024,1024,1024,1024,0,0,0,0,287.3,0,0,65,3.934,3.937,3.935,3.93,0,0,7.53,94.28,3083.8499080664,3.608924,6,P-GPS,"ホームポイントを更新 (Code: 3000001)"
822400,2025-03-22 04:24:42,37.125884472566,140.015904320722,3.608924,,,3083.8499080664,3.937008,0,18.6307748744,1.3948983386,28,5,15.734,3083.8499080664,3.608924,0.7158208,19.198983554,0,0,0,289.1, 1.8, -3.3,0,0,1024,1024,1024,1024,0,0,0,0,287.3,0,0,65,3.934,3.937,3.935,3.93,0,0,7.53,94.28,3083.8499080664,3.608924,6,P-GPS,
822600,2025-03-22 04:24:42,37.1258844881084,140.015904451778,3.608924,,,3083.8499080664,3.937008,0,18.6622053216,1.43344492776,28,5,15.734,3083.8499080664,3.608924,0.7158208,19.198983554,0,0,0,289.4, 1, -3.7,0,0,1024,1024,1024,1024,0,0,0,0,287.3,0,0,65,3.934,3.937,3.935,3.93,0,0,7.53,94.28,3083.8499080664,3.608924,6,P-GPS,
822800,2025-03-22 04:24:42,37.1258844831917,140.015904592998,3.608924,,,3083.8499080664,3.937008,0,18.6996725144,1.47456369548,28,5,15.734,3083.8499080664,3.608924,0.7158208,19.198983554,0,0,0,289.4, -0.1, -3.9,0,0,1024,1024,1024,1024,0,0,0,0,287.3,0,0,65,3.934,3.937,3.935,3.93,0,0,7.53,94.28,3083.8499080664,3.608924,6,P-GPS,
823000,2025-03-22 04:24:43,37.1258844501645,140.015904664139,3.937008,,,3084.1779920664,3.937008,0,18.7235570296,1.49851054664,28,5,15.734,3084.1779920664,3.937008,0.7158208,19.198983554,0,0,0,289.6, 0, -2.8,0,0,1024,1024,1024,1024,0,0,0,0,287.3,0,0,65,3.934,3.937,3.935,3.93,0,0,7.53,94.28,3084.1779920664,3.937008,6,P-GPS,
823200,2025-03-22 04:24:43,37.1258844185336,140.0159047451,3.937008,,,3084.1779920664,3.937008,0,18.7498037496,1.5247375816,28,5,15.722,3084.1779920664,3.937008,0.7158208,19.198983554,0,0,0,289.7, -0.3, -3,0,0,1024,1024,1024,1024,0,0,0,0,287.3,0,0,65,3.926,3.93,3.929,3.925,0,0,7.881,94.28,3084.1779920664,3.937008,6,P-GPS,
823400,2025-03-22 04:24:43,37.1258844122014,140.01590486638,3.937008,,,3084.1779920664,3.937008,0,18.782316874,1.56009191344,28,5,15.722,3084.1779920664,3.937008,0.7158208,19.198983554,0,0,0,289.8, -0.9, -3.5,0,0,1024,1024,1024,1024,0,0,0,0,287.3,0,0,65,3.926,3.93,3.929,3.925,0,0,7.881,94.28,3084.1779920664,3.937008,6,P-GPS,
823600,2025-03-22 04:24:43,37.1258844022117,140.015904931699,3.937008,,,3084.1779920664,3.937008,0,18.8009192368,1.57944230776,27,5,15.722,3084.1779920664,3.937008,0.7158208,19.198983554,0,0,0,289.9, -1.9, -3.6,0,0,1024,1024,1024,1024,0,0,0,0,287.3,0,0,65,3.926,3.93,3.929,3.925,0,0,7.881,94.28,3084.1779920664,3.937008,6,P-GPS,
823800,2025-03-22 04:24:43,37.1258844052825,140.015904886674,3.937008,,,3084.1779920664,3.937008,0,18.7887473204,1.5925853528,27,5,15.722,3084.1779920664,3.937008,0.7158208,19.198983554,0,0,0,289.7, 0, -3,0,0,1024,1024,1024,1024,0,0,0,0,287.3,0,0,65,3.926,3.93,3.929,3.925,0,0,7.881,94.28,3084.1779920664,3.937008,6,P-GPS,
824000,2025-03-22 04:24:44,37.1258844143857,140.015904849841,3.937008,,,3084.1779920664,3.937008,0,18.7776580812,1.60380254476,27,5,15.722,3084.1779920664,3.937008,0.7158208,19.198983554,0,0,0,289.7, -0.9, -3.2,0,0,1024,1024,1024,1024,0,0,0,0,287.3,0,0,65,3.926,3.93,3.929,3.925,0,0,7.881,94.28,3084.1779920664,3.937008,6,P-GPS,
824200,2025-03-22 04:24:44,37.1258844040726,140.015904805235,3.937008,,,3084.1779920664,3.937008,0,18.7677827528,1.61731304388,27,5,15.71,3084.1779920664,3.937008,0.7158208,19.198983554,0,0,0,289.6, -0.2, -3.1,0,0,1024,1024,1024,1024,0,0,0,0,287.3,0,0,64,3.924,3.929,3.927,3.923,0,0,7.347,94.28,3084.1779920664,3.937008,6,P-GPS,
824400,2025-03-22 04:24:44,37.1258843415859,140.015904764889,3.937008,,,3084.1779920664,3.937008,0,18.7676187108,1.64295608932,27,5,15.71,3084.1779920664,3.937008,0.7158208,19.198983554,0,0,0,290, -0.6, -1,0,0,1024,1024,1024,1024,0,0,0,0,287.3,0,0,64,3.924,3.929,3.927,3.923,0,0,7.347,94.28,3084.1779920664,3.937008,6,P-GPS,
824600,2025-03-22 04:24:44,37.1258843537792,140.015904735104,3.937008,,,3084.1779920664,3.937008,0,18.757874616,1.65269690328,27,5,15.71,3084.1779920664,3.937008,0.7158208,19.198983554,0,0,0,290.9, -1.4, -1,0,0,1024,1024,1024,1024,0,0,0,0,287.3,0,0,64,3.924,3.929,3.927,3.923,0,0,7.347,94.28,3084.1779920664,3.937008,6,P-GPS,
824800,2025-03-22 04:24:44,37.1258844980724,140.015904625775,3.937008,,,3084.1779920664,3.937008,0,18.70570926,1.71420281076,27,5,15.71,3084.1779920664,3.937008,0.7158208,19.198983554,0,0,0,290.5, 0.2, -4.1,0,0,1024,1024,1024,1024,0,0,0,0,287.3,0,0,64,3.924,3.929,3.927,3.923,0,0,7.347,94.28,3084.1779920664,3.937008,6,P-GPS,
825000,2025-03-22 04:24:45,37.1258845847165,140.015904452976,3.937008,,,3084.1779920664,3.937008,0,18.6466213316,1.77358273392,27,5,15.71,3084.1779920664,3.937008,0.7158208,19.198983554,0,0,0,289.9, 0.1, -5.1,0,0,1024,1024,1024,1024,0,0,0,0,287.3,0,0,64,3.924,3.929,3.927,3.923,0,0,7.347,94.28,3084.1779920664,3.937008,6,P-GPS,
825200,2025-03-22 04:24:45,37.1258844826842,140.015904212908,3.937008,,,3084.1779920664,3.937008,0.223694,18.6011488892,1.85271987556,27,5,15.707,3084.1779920664,3.937008,0.7158208,19.198983554,0,-0.223694,0,289.7, 1.3, -2,0,0,1024,1024,1024,1024,0,0,0,0,287.3,0,0,64,3.922,3.925,3.923,3.923,0,0,7.643,94.28,3084.1779920664,3.937008,6,P-GPS,
825400,2025-03-22 04:24:45,37.1258842784783,140.015904001595,3.937008,,,3084.1779920664,3.937008,0.223694,18.5804139804,1.949311086,27,5,15.707,3084.1779920664,3.937008,0.7158208,19.198983554,-0.223694,0,0,290, 1.2, -0.8,0,0,1024,1024,1024,1024,0,0,0,0,287.3,0,0,64,3.922,3.925,3.923,3.923,0,0,7.643,94.28,3084.1779920664,3.937008,6,P-GPS,
825600,2025-03-22 04:24:45,37.1258840039588,140.015903767119,4.265092,,,3084.5060760664,3.937008,0.3131716,18.5660767096,2.0704889114,27,5,15.707,3084.5060760664,4.265092,0.7158208,19.198983554,-0.223694,-0.223694,0,290.1, 0.7, 0.9,0,0,1024,1024,1024,1024,0,0,0,0,287.3,0,0,64,3.922,3.925,3.923,3.923,0,0,7.643,94.28,3084.5060760664,4.265092,6,P-GPS,
825800,2025-03-22 04:24:45,37.1258837408981,140.015903524354,4.265092,,,3084.5060760664,3.937008,0.3131716,18.5484257904,2.1896490202,28,5,15.707,3084.5060760664,4.265092,0.7158208,19.198983554,-0.223694,-0.223694,0,290, 1.2, 2.8,0,0,1024,1024,1024,1024,0,0,0,0,287.3,0,0,64,3.922,3.925,3.923,3.923,0,0,7.643,94.28,3084.5060760664,4.265092,6,P-GPS,
826000,2025-03-22 04:24:46,37.1258835706851,140.015903292397,4.265092,,,3084.5060760664,3.937008,0,18.5182420624,2.28135177904,28,5,15.707,3084.5060760664,4.265092,0.7158208,19.198983554,0,0,0,290, 3.2, 4.2,0,0,1024,1024,1024,1024,0,0,0,0,287.3,0,0,64,3.922,3.925,3.923,3.923,0,0,7.643,94.28,3084.5060760664,4.265092,6,P-GPS,
826200,2025-03-22 04:24:46,37.1258835664344,140.015903202944,4.265092,,,3084.5060760664,3.937008,0,18.496063584,2.30742133368,28,5,15.695,3084.5060760664,4.265092,0.7158208,19.198983554,0,0,0,289.8, 4.3, 2.4,0,0,1024,1024,1024,1024,0,0,0,0,287.3,0,0,64,3.924,3.928,3.926,3.923,0,0,8.01,94.28,3084.5060760664,4.265092,6,P-GPS,
826400,2025-03-22 04:24:46,37.1258836606955,140.015903314684,4.265092,,,3084.5060760664,3.937008,0,18.5083995424,2.354740889,28,5,15.695,3084.5060760664,4.265092,0.7158208,19.198983554,0,0,0,289.4, 2.7, 1.4,0,0,1024,1024,1024,1024,0,0,0,0,287.3,0,0,64,3.924,3.928,3.926,3.923,0,0,8.01,94.28,3084.5060760664,4.265092,6,P-GPS,
826600,2025-03-22 04:24:46,37.1258838186338,140.015903550508,4.265092,,,3084.5060760664,3.937008,0.223694,18.5418641104,2.44433406772,28,5,15.695,3084.5060760664,4.265092,0.7158208,19.198983554,0.223694,0,0,289.7, 1.7, 0.1,0,0,1024,1024,1024,1024,0,0,0,0,287.3,0,0,64,3.924,3.928,3.926,3.923,0,0,8.01,94.28,3084.5060760664,4.265092,6,P-GPS,
826800,2025-03-22 04:24:46,37.1258839798721,140.015903775761,4.265092,,,3084.5060760664,3.937008,0.223694,18.5723759224,2.53239181332,28,5,15.695,3084.5060760664,4.265092,0.7158208,19.198983554,0.223694,0,0,289.4, 2, -0.5,0,0,1024,1024,1024,1024,0,0,0,0,287.3,0,0,64,3.924,3.928,3.926,3.923,0,0,8.01,94.28,3084.5060760664,4.265092,6,P-GPS,
827000,2025-03-22 04:24:47,37.1258840976695,140.015903959433,4.265092,,,3084.5060760664,3.937008,0,18.5998693616,2.60096136932,28,5,15.695,3084.5060760664,4.265092,0.7158208,19.198983554,0,0,0,289.4, 1.3, -0.6,0,0,1024,1024,1024,1024,0,0,0,0,287.3,0,0,64,3.924,3.928,3.926,3.923,0,0,8.01,94.28,3084.5060760664,4.265092,6,P-GPS,
827200,2025-03-22 04:24:47,37.1258841710475,140.015904063798,4.265092,,,3084.5060760664,3.937008,0,18.6144690996,2.64144037324,27,5,15.707,3084.5060760664,4.265092,0.7158208,19.198983554,0,0,0,289.3, 1.8, 0.1,0,0,1024,1024,1024,1024,0,0,0,0,287.3,0,0,64,3.918,3.923,3.923,3.919,0,0,7.398,94.28,3084.5060760664,4.265092,6,P-GPS,
827400,2025-03-22 04:24:47,37.1258842588479,140.015904072564,4.265092,,,3084.5060760664,3.937008,0,18.6020675244,2.6735729202,27,5,15.707,3084.5060760664,4.265092,0.7158208,19.198983554,0,0,0,289.6, 3, 0.1,0,0,1024,1024,1024,1024,0,0,0,0,287.3,0,0,64,3.918,3.923,3.923,3.919,0,0,7.398,94.28,3084.5060760664,4.265092,6,P-GPS,
827600,2025-03-22 04:24:47,37.1258844027021,140.015904085273,4.265092,,,3084.5060760664,3.937008,0,18.581365424,2.72619103212,27,5,15.707,3084.5060760664,4.265092,0.7158208,19.198983554,0,0,0,290, 3.7, -0.9,0,0,1024,1024,1024,1024,0,0,0,0,287.3,0,0,64,3.918,3.923,3.923,3.919,0,0,7.398,94.28,3084.5060760664,4.265092,6,P-GPS,
827800,2025-03-22 04:24:47,37.1258845501518,140.015904165176,4.265092,,,3084.5060760664,3.937008,0,18.5776252664,2.7847933962,27,5,15.707,3084.5060760664,4.265092,0.7158208,19.198983554,0,0,0,289.5, 3.5, -2,0,0,1024,1024,1024,1024,0,0,0,0,287.3,0,0,64,3.918,3.923,3.923,3.919,0,0,7.398,94.28,3084.5060760664,4.265092,6,P-GPS,
828000,2025-03-22 04:24:48,37.1258846787976,140.015904306406,4.265092,,,3084.5060760664,3.608924,0,18.5930780228,2.84716872628,27,5,15.707,3084.5060760664,4.265092,0.7158208,19.198983554,0,0,0,289.7, 2.2, -1.8,0,0,1024,1024,1024,1024,0,0,0,0,287.3,0,0,64,3.918,3.923,3.923,3.919,0,0,7.398,94.28,3084.5060760664,4.265092,6,P-GPS,
828200,2025-03-22 04:24:48,37.1258848076234,140.01590441993,4.265092,,,3084.5060760664,3.937008,0,18.6015097816,2.90461295384,26,5,15.686,3084.5060760664,4.265092,0.7158208,19.198983554,0,0,0,290, 1.8, -3.2,0,0,1024,1024,1024,1024,0,0,0,0,287.3,0,0,64,3.917,3.923,3.922,3.917,0,0,7.576,94.46,3084.5060760664,4.265092,6,P-GPS,
828400,2025-03-22 04:24:48,37.1258849047026,140.015904438124,4.593176,,,3084.8341600664,3.937008,0,18.5904205424,2.94042660328,26,5,15.686,3084.8341600664,4.593176,0.7158208,19.198983554,0,0,0,289.4, 4.4, -3.3,0,0,1024,1024,1024,1024,0,0,0,0,287.3,0,0,64,3.917,3.923,3.922,3.917,0,0,7.576,94.46,3084.8341600664,4.593176,6,P-GPS,
828600,2025-03-22 04:24:48,37.1258849713265,140.015904476241,4.593176,,,3084.8341600664,3.937008,0,18.5895347156,2.9671424834,26,5,15.686,3084.8341600664,4.593176,0.7158208,19.198983554,0,0,0,289.6, 3.3, -2.6,0,0,1024,1024,1024,1024,0,0,0,0,287.3,0,0,64,3.917,3.923,3.922,3.917,0,0,7.576,94.46,3084.8341600664,4.593176,6,P-GPS,
828800,2025-03-22 04:24:48,37.1258850392395,140.015904543412,4.593176,,,3084.8341600664,3.937008,0,18.5960307788,2.99869760252,26,5,15.686,3084.8341600664,4.593176,0.7158208,19.198983554,0,0,0,289.5, 2.8, -4.7,0,0,1024,1024,1024,1024,0,0,0,0,287.3,0,0,64,3.917,3.923,3.922,3.917,0,0,7.576,94.46,3084.8341600664,4.593176,6,P-GPS,
829000,2025-03-22 04:24:49,37.1258850623454,140.015904569685,4.593176,,,3084.8341600664,3.937008,0,18.5991803852,3.01007883648,26,5,15.686,3084.8341600664,4.593176,0.7158208,19.198983554,0,0,0,289.3, 4.1, -3.5,0,0,1024,1024,1024,1024,0,0,0,0,287.3,0,0,64,3.917,3.923,3.922,3.917,0,0,7.576,94.46,3084.8341600664,4.593176,6,P-GPS,
829200,2025-03-22 04:24:49,37.1258850695342,140.015904582727,4.92126,,,3085.1622440664,3.937008,0,18.6014113564,3.01469169752,26,5,15.688,3085.1622440664,4.92126,0.7158208,19.198983554,0,0,0,289.3, 4.3, -4.1,0,0,1024,1024,1024,1024,0,0,0,0,287.3,0,0,64,3.922,3.925,3.925,3.922,0,0,7.601,94.46,3085.1622440664,4.92126,6,P-GPS,
829400,2025-03-22 04:24:49,37.1258850911133,140.015904547726,4.92126,,,3085.1622440664,3.937008,0,18.5887801224,3.02756243284,25,5,15.688,3085.1622440664,4.92126,0.7158208,19.198983554,0,0,0,289.4, 5, -4.3,0,0,1024,1024,1024,1024,0,0,0,0,287.3,0,0,64,3.922,3.925,3.925,3.922,0,0,7.601,94.46,3085.1622440664,4.92126,6,P-GPS,
829600,2025-03-22 04:24:49,37.1258851284596,140.015904534238,4.92126,,,3085.1622440664,3.937008,0,18.5792656864,3.04173894248,25,5,15.688,3085.1622440664,4.92126,0.7158208,19.198983554,0,0,0,289.6, 4.4, -4.5,0,0,1024,1024,1024,1024,0,0,0,0,287.3,0,0,64,3.922,3.925,3.925,3.922,0,0,7.601,94.46,3085.1622440664,4.92126,6,P-GPS,
829800,2025-03-22 04:24:49,37.1258851587201,140.015904537847,4.92126,,,3085.1622440664,3.937008,0,18.5753286784,3.05283146252,25,5,15.688,3085.1622440664,4.92126,0.7158208,19.198983554,0,0,0,289.6, 4, -5.1,0,0,1024,1024,1024,1024,0,0,0,0,287.3,0,0,64,3.922,3.925,3.925,3.922,0,0,7.601,94.46,3085.1622440664,4.92126,6,P-GPS,
830000,2025-03-22 04:24:50,37.1258851713951,140.015904516463,4.92126,,,3085.1622440664,3.937008,0,18.5677171296,3.0605808066,25,5,15.688,3085.1622440664,4.92126,0.7158208,19.198983554,0,0,0,289.4, 4.6, -5.8,0,0,1024,1024,1024,1024,0,0,0,0,287.3,0,0,64,3.922,3.925,3.925,3.922,0,0,7.601,94.46,3085.1622440664,4.92126,6,P-GPS,
830200,2025-03-22 04:24:50,37.1258851573667,140.015904463913,5.249344,,,3085.4903280664,3.937008,0,18.5562341896,3.07670285436,25,5,15.688,3085.4903280664,5.249344,0.7158208,19.198983554,0,0,0,289.5, 5.3, -5.6,0,0,1024,1024,1024,1024,0,0,0,0,287.3,0,0,64,3.919,3.922,3.922,3.917,0,0,7.581,94.64,3085.4903280664,5.249344,6,P-GPS,
830400,2025-03-22 04:24:50,37.1258850647588,140.01590446416,5.249344,,,3085.4903280664,3.937008,0,18.5712604368,3.11049222552,26,5,15.688,3085.4903280664,5.249344,0.7158208,19.198983554,0,0,0,290.1, 3.9, -4.9,0,0,1024,1024,1024,1024,0,0,0,0,287.3,0,0,64,3.919,3.922,3.922,3.917,0,0,7.581,94.64,3085.4903280664,5.249344,6,P-GPS,
830600,2025-03-22 04:24:50,37.1258849261061,140.01590450218,5.249344,,,3085.4903280664,3.937008,0,18.6036095192,3.16227372324,26,5,15.688,3085.4903280664,5.249344,0.7158208,19.198983554,0,0,0,289.5, 3.1, -4.8,0,0,1024,1024,1024,1024,0,0,0,0,287.3,0,0,64,3.919,3.922,3.922,3.917,0,0,7.581,94.64,3085.4903280664,5.249344,6,P-GPS,
830800,2025-03-22 04:24:50,37.125884774532,140.015904525804,5.249344,,,3085.4903280664,3.937008,0,18.6344494152,3.21800207148,26,5,15.688,3085.4903280664,5.249344,0.7158208,19.198983554,0,0,0,289.4, 2.6, -4.6,0,0,1024,1024,1024,1024,0,0,0,0,287.3,0,0,64,3.919,3.922,3.922,3.917,0,0,7.581,94.64,3085.4903280664,5.249344,6,P-GPS,
831000,2025-03-22 04:24:51,37.1258846242835,140.015904492355,5.249344,,,3085.4903280664,3.937008,0,18.6503286808,3.27367464544,26,5,15.688,3085.4903280664,5.249344,0.7158208,19.198983554,0,0,0,289.6, 2.3, -4.2,0,0,1024,1024,1024,1024,0,0,0,0,287.3,0,0,64,3.919,3.922,3.922,3.917,0,0,7.581,94.64,3085.4903280664,5.249344,6,P-GPS,
831200,2025-03-22 04:24:51,37.125884466328,140.01590440194,5.249344,,,3085.4903280664,3.937008,0,18.652887736,3.3370079808,29,5,15.681,3085.4903280664,5.249344,0.7158208,19.198983554,0,0,0,289.2, 3.2, -3.9,0,0,1024,1024,1024,1024,0,0,0,0,287.3,0,0,64,3.917,3.921,3.922,3.918,0,0,7.044,94.64,3085.4903280664,5.249344,6,P-GPS,
831400,2025-03-22 04:24:51,37.125884306805,140.015904305456,5.249344,,,3085.4903280664,3.937008,0,18.6542984972,3.4016405288,29,5,15.681,3085.4903280664,5.249344,0.7158208,19.198983554,0,0,0,289.4, 4, -3.2,0,0,1024,1024,1024,1024,0,0,0,0,287.3,0,0,64,3.917,3.921,3.922,3.918,0,0,7.044,94.64,3085.4903280664,5.249344,6,P-GPS,
831600,2025-03-22 04:24:51,37.125884170662,140.015904268612,5.249344,,,3085.4903280664,3.937008,0,18.667487474,3.4524607404,29,5,15.681,3085.4903280664,5.249344,0.7158208,19.198983554,0,0,0,289.7, 3.3, -3,0,0,1024,1024,1024,1024,0,0,0,0,287.3,0,0,64,3.917,3.921,3.922,3.918,0,0,7.044,94.64,3085.4903280664,5.249344,6,P-GPS,
831800,2025-03-22 04:24:51,37.1258840569397,140.015904272635,5.577428,,,3085.8184120664,3.937008,0,18.6875662148,3.4939633664,29,5,15.681,3085.8184120664,5.577428,0.7158208,19.198983554,0,0,0,289.5, 3.5, -3,0,0,1024,1024,1024,1024,0,0,0,0,287.3,0,0,64,3.917,3.921,3.922,3.918,0,0,7.044,94.64,3085.8184120664,5.577428,6,P-GPS,
832000,2025-03-22 04:24:52,37.1258839668994,140.015904288852,5.577428,,,3085.8184120664,3.937008,0,18.7068903624,3.5271654672,30,5,15.681,3085.8184120664,5.577428,0.7158208,19.198983554,0,0,0,289.5, 3, -3.1,0,0,1024,1024,1024,1024,0,0,0,0,287.3,0,0,64,3.917,3.921,3.922,3.918,0,0,7.044,94.64,3085.8184120664,5.577428,6,P-GPS,
832200,2025-03-22 04:24:52,37.1258838876861,140.015904284877,5.577428,,,3085.8184120664,3.937008,0,18.7192263208,3.5560696676,30,5,15.675,3085.8184120664,5.577428,0.7158208,19.198983554,0,0,0,289.4, 4, -2.9,0,0,1024,1024,1024,1024,0,0,0,0,287.3,0,0,64,3.916,3.921,3.918,3.917,0,0,7.427,94.64,3085.8184120664,5.577428,6,P-GPS,
832400,2025-03-22 04:24:52,37.1258838331719,140.015904292612,5.577428,,,3085.8184120664,3.937008,0,18.7304139852,3.5760827916,30,5,15.675,3085.8184120664,5.577428,0.7158208,19.198983554,0,0,0,289.4, 3.6, -3.1,0,0,1024,1024,1024,1024,0,0,0,0,287.3,0,0,64,3.916,3.921,3.918,3.917,0,0,7.427,94.64,3085.8184120664,5.577428,6,P-GPS,
832600,2025-03-22 04:24:52,37.1258838332554,140.015904287649,5.577428,,,3085.8184120664,3.937008,0,18.7291344576,3.5775263612,30,5,15.675,3085.8184120664,5.577428,0.7158208,19.198983554,0,0,0,289.6, 4.1, -3.6,0,0,1024,1024,1024,1024,0,0,0,0,287.3,0,0,64,3.916,3.921,3.918,3.917,0,0,7.427,94.64,3085.8184120664,5.577428,6,P-GPS,
833000,2025-03-22 04:24:53,37.1258838814074,140.015904250321,5.577428,,,3085.8184120664,3.937008,0,18.7113523048,3.5981956532,30,5,15.675,3085.8184120664,5.577428,0.7158208,19.198983554,0,0,0,289.6, 4.2, -4.3,0,0,1024,1024,1024,1024,0,0,0,0,287.3,0,0,64,3.916,3.921,3.918,3.917,0,0,7.427,94.64,3085.8184120664,5.577428,6,P-GPS,
833200,2025-03-22 04:24:53,37.125883856295,140.01590425327,5.577428,,,3085.8184120664,3.937008,0,18.71637199,3.6073820052,30,5,15.675,3085.8184120664,5.577428,0.7158208,19.198983554,0,0,0,289.5, 4.6, -3.9,0,0,1024,1024,1024,1024,0,0,0,0,287.3,0,0,64,3.916,3.921,3.919,3.914,0,0,7.47,94.64,3085.8184120664,5.577428,6,P-GPS,
833600,2025-03-22 04:24:53,37.1258837547745,140.015904459508,5.577428,,,3085.8184120664,3.937008,0,18.7866803912,3.6778872568,30,5,15.675,3085.8184120664,5.577428,0.7158208,19.198983554,0,0,0,289.4, 3.6, -4.1,0,0,1024,1024,1024,1024,0,0,0,0,287.3,0,0,64,3.916,3.921,3.919,3.914,0,0,7.47,94.64,3085.8184120664,5.577428,6,P-GPS,
833800,2025-03-22 04:24:53,37.1258837270645,140.015904564539,5.905512,,,3086.1464960664,3.937008,0,18.8184389224,3.7100722972,30,5,15.675,3086.1464960664,5.905512,0.7158208,19.198983554,0,0,0,289.7, 3.1, -4.6,0,0,1024,1024,1024,1024,0,0,0,0,287.3,0,0,64,3.916,3.921,3.919,3.914,0,0,7.47,94.64,3086.1464960664,5.905512,6,P-GPS,
834000,2025-03-22 04:24:54,37.1258837013889,140.015904623492,5.905512,,,3086.1464960664,3.937008,0,18.8379927288,3.7296261036,30,5,15.675,3086.1464960664,5.905512,0.7158208,19.198983554,0,0,0,289.3, 3.7, -4.8,0,0,1024,1024,1024,1024,0,0,0,0,287.3,0,0,64,3.916,3.921,3.919,3.914,0,0,7.47,94.64,3086.1464960664,5.905512,6,P-GPS,
834200,2025-03-22 04:24:54,37.1258836483502,140.015904672734,5.905512,,,3086.1464960664,3.937008,0,18.8596462728,3.7537074692,30,5,15.673,3086.1464960664,5.905512,0.7158208,19.198983554,0,0,0,289.4, 3.3, -4.4,0,0,1024,1024,1024,1024,0,0,0,0,287.3,0,0,64,3.913,3.918,3.915,3.912,0,0,7.419,94.64,3086.1464960664,5.905512,6,P-GPS,
834400,2025-03-22 04:24:54,37.1258835749187,140.015904745116,5.905512,,,3086.1464960664,3.937008,0,18.890748636,3.7877625884,30,5,15.673,3086.1464960664,5.905512,0.7158208,19.198983554,0,0,0,289.4, 3.2, -3.8,0,0,1024,1024,1024,1024,0,0,0,0,287.3,0,0,64,3.913,3.918,3.915,3.912,0,0,7.419,94.64,3086.1464960664,5.905512,6,P-GPS,
834600,2025-03-22 04:24:54,37.1258835088837,140.015904834247,5.905512,,,3086.1464960664,3.937008,0,18.9249021804,3.823162852,30,5,15.673,3086.1464960664,5.905512,0.7158208,19.198983554,0,0,0,289.7, 1.5, -4.8,0,0,1024,1024,1024,1024,0,0,0,0,287.3,0,0,64,3.913,3.918,3.915,3.912,0,0,7.419,94.64,3086.1464960664,5.905512,6,P-GPS,
834800,2025-03-22 04:24:54,37.1258833707064,140.015904811332,5.905512,,,3086.1464960664,3.937008,0,18.9424874828,3.874015872,30,5,15.673,3086.1464960664,5.905512,0.7158208,19.198983554,0,0,0,289.5, 1.9, -3.9,0,0,1024,1024,1024,1024,0,0,0,0,287.3,0,0,64,3.913,3.918,3.915,3.912,0,0,7.419,94.64,3086.1464960664,5.905512,6,P-GPS,
835000,2025-03-22 04:24:55,37.1258831540074,140.015904675952,5.905512,,,3086.1464960664,3.937008,0.223694,18.9447840708,3.9623360848,30,5,15.673,3086.1464960664,5.905512,0.7158208,19.198983554,-0.223694,0,0,289.5, 2.2, -1.3,0,0,1024,1024,1024,1024,0,0,0,0,287.3,0,0,64,3.913,3.918,3.915,3.912,0,0,7.419,94.64,3086.1464960664,5.905512,6,P-GPS,
835200,2025-03-22 04:24:55,37.1258829783959,140.015904508878,5.905512,,,3086.1464960664,3.937008,0,18.932251262,4.0427822816,30,5,15.665,3086.1464960664,5.905512,0.7158208,19.198983554,0,0,0,289.8, 3.2, -0.2,0,0,1024,1024,1024,1024,0,0,0,0,287.3,0,0,64,3.913,3.918,3.917,3.913,0,0,7.555,94.64,3086.1464960664,5.905512,6,P-GPS,
835400,2025-03-22 04:24:55,37.1258829581873,140.015904395221,5.905512,,,3086.1464960664,3.937008,0,18.90666071,4.0766405504,30,5,15.665,3086.1464960664,5.905512,0.7158208,19.198983554,0,0,0,289.6, 3.8, -1.4,0,0,1024,1024,1024,1024,0,0,0,0,287.3,0,0,64,3.913,3.918,3.917,3.913,0,0,7.555,94.64,3086.1464960664,5.905512,6,P-GPS,
835600,2025-03-22 04:24:55,37.1258830571959,140.015904380121,5.905512,,,3086.1464960664,3.937008,0.223694,18.885663334,4.113025066,30,5,15.665,3086.1464960664,5.905512,0.7158208,19.198983554,0.223694,0,0,289.6, 4.1, -3.2,0,0,1024,1024,1024,1024,0,0,0,0,287.3,0,0,64,3.913,3.918,3.917,3.913,0,0,7.555,94.64,3086.1464960664,5.905512,6,P-GPS,
835800,2025-03-22 04:24:55,37.1258832169074,140.015904411566,5.905512,,,3086.1464960664,3.937008,0.223694,18.866142336,4.1720145692,30,5,15.665,3086.1464960664,5.905512,0.7158208,19.198983554,0.223694,0,0,289.3, 4.6, -4.7,0,0,1024,1024,1024,1024,0,0,0,0,287.3,0,0,64,3.913,3.918,3.917,3.913,0,0,7.555,94.64,3086.1464960664,5.905512,6,P-GPS,
836000,2025-03-22 04:24:56,37.125883357997,140.015904457956,5.905512,,,3086.1464960664,3.937008,0,18.8538063776,4.225229794,30,5,15.665,3086.1464960664,5.905512,0.7158208,19.198983554,0,0,0,289.6, 4.9, -5.1,0,0,1024,1024,1024,1024,0,0,0,0,287.3,0,0,64,3.913,3.918,3.917,3.913,0,0,7.555,94.64,3086.1464960664,5.905512,6,P-GPS,
836200,2025-03-22 04:24:56,37.1258834091834,140.015904589383,5.905512,,,3086.1464960664,3.937008,0,18.8788391868,4.2677822888,30,5,15.661,3086.1464960664,5.905512,0.7158208,19.198983554,0,0,0,289.4, 4.1, -5.2,0,0,1024,1024,1024,1024,0,0,0,0,287.3,0,0,64,3.912,3.915,3.913,3.911,0,0,7.629,94.82,3086.1464960664,5.905512,6,P-GPS,
836400,2025-03-22 04:24:56,37.1258834457717,140.015904872939,5.905512,,,3086.1464960664,3.937008,0.223694,18.9455714724,4.3513452836,30,5,15.661,3086.1464960664,5.905512,0.7158208,19.198983554,0,0.223694,0,289.6, 1.9, -6.5,0,0,1024,1024,1024,1024,0,0,0,0,287.3,0,0,64,3.912,3.915,3.913,3.911,0,0,7.629,94.82,3086.1464960664,5.905512,6,P-GPS,
836600,2025-03-22 04:24:56,37.125883440733,140.015905172857,5.905512,,,3086.1464960664,3.937008,0,19.0236882728,4.4386156276,30,5,15.661,3086.1464960664,5.905512,0.7158208,19.198983554,0,0,0,289.7, 0.4, -6.7,0,0,1024,1024,1024,1024,0,0,0,0,287.3,0,0,64,3.912,3.915,3.913,3.911,0,0,7.629,94.82,3086.1464960664,5.905512,6,P-GPS,
836800,2025-03-22 04:24:56,37.1258833856813,140.015905314507,5.905512,,,3086.1464960664,3.937008,0,19.0694887992,4.4844489624,30,5,15.661,3086.1464960664,5.905512,0.7158208,19.198983554,0,0,0,289.5, 0.5, -6.6,0,0,1024,1024,1024,1024,0,0,0,0,287.3,0,0,64,3.912,3.915,3.913,3.911,0,0,7.629,94.82,3086.1464960664,5.905512,6,P-GPS,
837000,2025-03-22 04:24:57,37.1258833060804,140.015905321823,5.905512,,,3086.1464960664,4.265092,0,19.0848759388,4.5135500132,30,5,15.661,3086.1464960664,5.905512,0.7158208,19.198983554,0,0,0,289.9, 0.3, -6.1,0,0,1024,1024,1024,1024,0,0,0,0,287.3,0,0,64,3.912,3.915,3.913,3.911,0,0,7.629,94.82,3086.1464960664,5.905512,6,P-GPS,
837200,2025-03-22 04:24:57,37.1258831564465,140.015905234019,5.905512,,,3086.1464960664,4.265092,0,19.0876974612,4.5738518524,30,5,15.66,3086.1464960664,5.905512,0.7158208,19.198983554,0,0,0,288.9, 2.5, -4.4,0,0,1024,1024,1024,1024,0,0,0,0,287.3,0,0,64,3.916,3.919,3.919,3.912,0,0,7.501,94.64,3086.1464960664,5.905512,6,P-GPS,
837400,2025-03-22 04:24:57,37.12588300426,140.015905155604,5.905512,,,3086.1464960664,3.937008,0,19.0936029732,4.633858416,30,5,15.66,3086.1464960664,5.905512,0.7158208,19.198983554,0,0,0,289.4, 1.5, -4.3,0,0,1024,1024,1024,1024,0,0,0,0,287.3,0,0,64,3.916,3.919,3.919,3.912,0,0,7.501,94.64,3086.1464960664,5.905512,6,P-GPS,
837600,2025-03-22 04:24:57,37.1258828945422,140.015905071501,5.905512,,,3086.1464960664,3.937008,0,19.090879876,4.680774428,30,5,15.66,3086.1464960664,5.905512,0.7158208,19.198983554,0,0,0,289.4, 1.9, -4.1,0,0,1024,1024,1024,1024,0,0,0,0,287.3,0,0,64,3.916,3.919,3.919,3.912,0,0,7.501,94.64,3086.1464960664,5.905512,6,P-GPS,
837800,2025-03-22 04:24:57,37.1258828235648,140.015905035065,5.905512,,,3086.1464960664,3.937008,0,19.0937998236,4.7087599932,30,5,15.66,3086.1464960664,5.905512,0.7158208,19.198983554,0,0,0,289.7, 1.3, -4.5,0,0,1024,1024,1024,1024,0,0,0,0,287.3,0,0,64,3.916,3.919,3.919,3.912,0,0,7.501,94.64,3086.1464960664,5.905512,6,P-GPS,
838000,2025-03-22 04:24:58,37.1258827758389,140.015904992167,5.905512,,,3086.1464960664,3.937008,0,19.0910767264,4.7301838784,30,5,15.66,3086.1464960664,5.905512,0.7158208,19.198983554,0,0,0,289.1, 2.5, -4.4,0,0,1024,1024,1024,1024,0,0,0,0,287.3,0,0,64,3.916,3.919,3.919,3.912,0,0,7.501,94.64,3086.1464960664,5.905512,6,P-GPS,
838200,2025-03-22 04:24:58,37.1258827118554,140.015904965777,5.905512,,,3086.1464960664,3.937008,0,19.0954074352,4.75475737,30,5,15.648,3086.1464960664,5.905512,0.7158208,19.198983554,0,0,0,289.3, 1.9, -4.2,0,0,1024,1024,1024,1024,0,0,0,0,287.3,0,0,64,3.909,3.914,3.913,3.908,0,0,7.739,94.82,3086.1464960664,5.905512,6,P-GPS,
838400,2025-03-22 04:24:58,37.1258826609902,140.015904968479,5.905512,,,3086.1464960664,3.937008,0,19.1049546796,4.7733269244,30,5,15.648,3086.1464960664,5.905512,0.7158208,19.198983554,0,0,0,289.4, 1, -4.5,0,0,1024,1024,1024,1024,0,0,0,0,287.3,0,0,64,3.909,3.914,3.913,3.908,0,0,7.739,94.82,3086.1464960664,5.905512,6,P-GPS,
838600,2025-03-22 04:24:58,37.1258826350705,140.015904976031,5.905512,,,3086.1464960664,4.265092,0,19.111385126,4.7830382108,30,5,15.648,3086.1464960664,5.905512,0.7158208,19.198983554,0,0,0,289.8, 0.9, -5.7,0,0,1024,1024,1024,1024,0,0,0,0,287.3,0,0,64,3.909,3.914,3.913,3.908,0,0,7.739,94.82,3086.1464960664,5.905512,6,P-GPS,
838800,2025-03-22 04:24:58,37.125882507172,140.015904882533,5.905512,,,3086.1464960664,4.265092,0,19.1098103228,4.8370408372,30,5,15.648,3086.1464960664,5.905512,0.7158208,19.198983554,0,0,0,289.4, 1.6, -4.1,0,0,1024,1024,1024,1024,0,0,0,0,287.3,0,0,64,3.909,3.914,3.913,3.908,0,0,7.739,94.82,3086.1464960664,5.905512,6,P-GPS,
839000,2025-03-22 04:24:59,37.1258823082575,140.015904728454,5.905512,,,3086.1464960664,4.265092,0,19.1054468056,4.9223426772,30,5,15.648,3086.1464960664,5.905512,0.7158208,19.198983554,0,0,0,289.4, 2.9, -2.2,0,0,1024,1024,1024,1024,0,0,0,0,287.3,0,0,64,3.909,3.914,3.913,3.908,0,0,7.739,94.82,3086.1464960664,5.905512,6,P-GPS,
839200,2025-03-22 04:24:59,37.1258821448735,140.015904659052,5.905512,,,3086.1464960664,4.265092,0,19.1167000868,4.9853019968,30,5,15.65,3086.1464960664,5.905512,0.7158208,19.198983554,0,0,0,289.5, 2.1, -1.5,0,0,1024,1024,1024,1024,0,0,0,0,287.3,0,0,64,3.911,3.915,3.913,3.91,0,0,7.534,94.82,3086.1464960664,5.905512,6,P-GPS,
839400,2025-03-22 04:24:59,37.125882051257,140.015904714305,5.905512,,,3086.1464960664,4.265092,0,19.1473759408,5.0230316568,30,5,15.65,3086.1464960664,5.905512,0.7158208,19.198983554,0,0,0,289.6, 2.1, -1.8,0,0,1024,1024,1024,1024,0,0,0,0,287.3,0,0,64,3.911,3.915,3.913,3.91,0,0,7.534,94.82,3086.1464960664,5.905512,6,P-GPS,
839600,2025-03-22 04:24:59,37.125882033616,140.015904883,5.905512,,,3086.1464960664,4.265092,0,19.1933733176,5.0725395324,30,5,15.65,3086.1464960664,5.905512,0.7158208,19.198983554,0,0,0,289.7, 0.6, -3.1,0,0,1024,1024,1024,1024,0,0,0,0,287.3,0,0,64,3.911,3.915,3.913,3.91,0,0,7.534,94.82,3086.1464960664,5.905512,6,P-GPS,
839800,2025-03-22 04:24:59,37.1258820470405,140.015905013767,5.905512,,,3086.1464960664,4.265092,0,19.224246022,5.110892552,30,5,15.65,3086.1464960664,5.905512,0.7158208,19.224246022,0,0,0,289.7, 0.4, -3.4,0,0,1024,1024,1024,1024,0,0,0,0,287.3,0,0,64,3.911,3.915,3.913,3.91,0,0,7.534,94.82,3086.1464960664,5.905512,6,P-GPS,
840000,2025-03-22 04:25:00,37.1258820648486,140.015905085032,5.905512,,,3086.1464960664,4.265092,0,19.2392066524,5.1326117128,30,5,15.65,3086.1464960664,5.905512,0.7158208,19.2392066524,0,0,0,289.5, 0.9, -3.5,0,0,1024,1024,1024,1024,0,0,0,0,287.3,0,0,64,3.911,3.915,3.913,3.91,0,0,7.534,94.82,3086.1464960664,5.905512,6,P-GPS,
840200,2025-03-22 04:25:00,37.1258820722665,140.015905150447,5.905512,,,3086.1464960664,4.265092,0,19.2545609836,5.1518374352,30,5,15.65,3086.1464960664,5.905512,0.7158208,19.2545609836,0,0,0,289.6, 0.1, -3,0,0,1024,1024,1024,1024,0,0,0,0,287.3,0,0,64,3.91,3.914,3.911,3.907,0,0,7.596,94.82,3086.1464960664,5.905512,6,P-GPS,
840400,2025-03-22 04:25:00,37.1258820719753,140.015905193855,5.577428,,,3085.8184120664,4.265092,0,19.2656502228,5.1644686692,30,5,15.65,3086.1464960664,5.905512,0.7158208,19.2656502228,0,0,0,289.6, 0.1, -2.8,0,0,1024,1024,1024,1024,0,0,0,0,287.3,0,0,64,3.91,3.914,3.911,3.907,0,0,7.596,94.82,3085.8184120664,5.577428,6,P-GPS,
840600,2025-03-22 04:25:00,37.1258820867896,140.015905167147,5.577428,,,3085.8184120664,4.265092,0,19.256234212,5.1739174884,30,5,15.65,3086.1464960664,5.905512,0.7158208,19.2656502228,0,0,0,289.5, -0.1, -2.8,0,0,1024,1024,1024,1024,0,0,0,0,287.3,0,0,64,3.91,3.914,3.911,3.907,0,0,7.596,94.82,3085.8184120664,5.577428,6,P-GPS,
840800,2025-03-22 04:25:00,37.1258821063815,140.015905057814,5.577428,,,3085.8184120664,3.937008,0,19.2249349984,5.206529038,30,5,15.65,3086.1464960664,5.905512,0.7158208,19.2656502228,0,0,0,290.3, 0.8, -3.6,0,0,1024,1024,1024,1024,0,0,0,0,287.3,0,0,64,3.91,3.914,3.911,3.907,0,0,7.596,94.82,3085.8184120664,5.577428,6,P-GPS,
841000,2025-03-22 04:25:01,37.125882090642,140.015904898637,5.577428,,,3085.8184120664,3.937008,0,19.1872381468,5.2531825828,30,5,15.65,3086.1464960664,5.905512,0.7158208,19.2656502228,0,0,0,289.7, 2.1, -2,0,0,1024,1024,1024,1024,0,0,0,0,287.3,0,0,64,3.91,3.914,3.911,3.907,0,0,7.596,94.82,3085.8184120664,5.577428,6,P-GPS,
841200,2025-03-22 04:25:01,37.1258820937235,140.015904803355,5.577428,,,3085.8184120664,3.937008,0,19.1624678048,5.2809056808,30,5,15.646,3086.1464960664,5.905512,0.7158208,19.2656502228,0,0,0,289.6, 1.3, -2.1,0,0,1024,1024,1024,1024,0,0,0,0,287.3,0,0,64,3.909,3.915,3.911,3.907,0,0,7.628,94.82,3085.8184120664,5.577428,6,P-GPS,
841400,2025-03-22 04:25:01,37.1258821612125,140.015904818466,5.577428,,,3085.8184120664,3.937008,0,19.1543313216,5.30593849,30,5,15.646,3086.1464960664,5.905512,0.7158208,19.2656502228,0,0,0,289.5, 2.5, -3.4,0,0,1024,1024,1024,1024,0,0,0,0,287.3,0,0,64,3.909,3.915,3.911,3.907,0,0,7.628,94.82,3085.8184120664,5.577428,6,P-GPS,
841600,2025-03-22 04:25:01,37.1258822454753,140.015904946122,5.577428,,,3085.8184120664,3.937008,0,19.1719822408,5.3541340296,30,5,15.646,3086.1464960664,5.905512,0.7158208,19.2656502228,0,0,0,289.5, 0.4, -4.7,0,0,1024,1024,1024,1024,0,0,0,0,287.3,0,0,64,3.909,3.915,3.911,3.907,0,0,7.628,94.82,3085.8184120664,5.577428,6,P-GPS,
841800,2025-03-22 04:25:01,37.12588231523,140.015905030402,5.577428,,,3085.8184120664,3.937008,0,19.1811685928,5.3894686764,30,5,15.646,3086.1464960664,5.905512,0.7158208,19.2656502228,0,0,0,289.5, 0.5, -4.9,0,0,1024,1024,1024,1024,0,0,0,0,287.3,0,0,64,3.909,3.915,3.911,3.907,0,0,7.628,94.82,3085.8184120664,5.577428,6,P-GPS,
842000,2025-03-22 04:25:02,37.1258823372973,140.015905071012,5.577428,,,3085.8184120664,3.937008,0,19.187664656,5.4037731388,30,5,15.646,3086.1464960664,5.905512,0.7158208,19.2656502228,0,0,0,289.2, 0.5, -4.9,0,0,1024,1024,1024,1024,0,0,0,0,287.3,0,0,64,3.909,3.915,3.911,3.907,0,0,7.628,94.82,3085.8184120664,5.577428,6,P-GPS,
842200,2025-03-22 04:25:02,37.1258822986554,140.015905061853,5.577428,,,3085.8184120664,3.937008,0,19.1921265984,5.4181104096,30,5,15.641,3086.1464960664,5.905512,0.7158208,19.2656502228,0,0,0,289.3, 0.7, -4.1,0,0,1024,1024,1024,1024,0,0,0,0,287.3,0,0,64,3.909,3.912,3.911,3.906,0,0,7.701,94.82,3085.8184120664,5.577428,6,P-GPS,
842400,2025-03-22 04:25:02,37.1258822230332,140.015905028232,5.577428,,,3085.8184120664,3.937008,0,19.196851008,5.4474083108,30,5,15.641,3086.1464960664,5.905512,0.7158208,19.2656502228,0,0,0,289.6, 0.9, -3.8,0,0,1024,1024,1024,1024,0,0,0,0,287.3,0,0,64,3.909,3.912,3.911,3.906,0,0,7.701,94.82,3085.8184120664,5.577428,6,P-GPS,
842600,2025-03-22 04:25:02,37.1258821099191,140.01590499856,5.577428,,,3085.8184120664,3.937008,0,19.2092525832,5.4895671048,30,5,15.641,3086.1464960664,5.905512,0.7158208,19.2656502228,0,0,0,289.4, 0.1, -3.6,0,0,1024,1024,1024,1024,0,0,0,0,287.3,0,0,64,3.909,3.912,3.911,3.906,0,0,7.701,94.82,3085.8184120664,5.577428,6,P-GPS,
842800,2025-03-22 04:25:02,37.1258819853676,140.015904967662,5.577428,,,3085.8184120664,3.937008,0,19.223425812,5.5358925656,30,5,15.641,3086.1464960664,5.905512,0.7158208,19.2656502228,0,0,0,289.5, 0.2, -2.6,0,0,1024,1024,1024,1024,0,0,0,0,287.3,0,0,64,3.909,3.912,3.911,3.906,0,0,7.701,94.82,3085.8184120664,5.577428,6,P-GPS,
843000,2025-03-22 04:25:03,37.1258819026274,140.015904970171,5.577428,,,3085.8184120664,3.937008,0,19.2387801432,5.5660762936,30,5,15.641,3086.1464960664,5.905512,0.7158208,19.2656502228,0,0,0,289.7, 0.1, -3.3,0,0,1024,1024,1024,1024,0,0,0,0,287.3,0,0,64,3.909,3.912,3.911,3.906,0,0,7.701,94.82,3085.8184120664,5.577428,6,P-GPS,
843200,2025-03-22 04:25:03,37.1258818123836,140.015905016667,5.577428,,,3085.8184120664,3.937008,0,19.2666672832,5.6016734076,30,5,15.641,3086.1464960664,5.905512,0.7158208,19.2666672832,0,0,0,289.7, -0.3, -3.3,0,0,1024,1024,1024,1024,0,0,0,0,287.3,0,0,64,3.907,3.913,3.909,3.906,0,0,7.69,94.82,3085.8184120664,5.577428,6,P-GPS,
843400,2025-03-22 04:25:03,37.1258817277161,140.015905092708,5.577428,,,3085.8184120664,3.937008,0,19.3010504864,5.6396655348,30,5,15.641,3086.1464960664,5.905512,0.7158208,19.3010504864,0,0,0,289.9, -1, -3,0,0,1024,1024,1024,1024,0,0,0,0,287.3,0,0,64,3.907,3.913,3.909,3.906,0,0,7.69,94.82,3085.8184120664,5.577428,6,P-GPS,
843600,2025-03-22 04:25:03,37.1258816958946,140.015905149679,5.577428,,,3085.8184120664,3.937008,0,19.321194844,5.6599083176,30,5,15.641,3086.1464960664,5.905512,0.7158208,19.321194844,0,0,0,290.1, -1.3, -3.4,0,0,1024,1024,1024,1024,0,0,0,0,287.3,0,0,64,3.907,3.913,3.909,3.906,0,0,7.69,94.82,3085.8184120664,5.577428,6,P-GPS,
843800,2025-03-22 04:25:04,37.125881707,140.015905104547,5.577428,,,3085.8184120664,3.937008,0,19.3077762084,5.6736550372,30,5,15.641,3086.1464960664,5.905512,0.7158208,19.321194844,0,0,0,290, -1.9, -4.4,0,0,1024,1024,1024,1024,0,0,0,0,287.3,0,0,64,3.907,3.913,3.909,3.906,0,0,7.69,94.82,3085.8184120664,5.577428,6,P-GPS,
844000,2025-03-22 04:25:04,37.1258816972287,140.015904863431,5.577428,,,3085.8184120664,3.937008,0.223694,19.2483930044,5.7438650132,30,5,15.641,3086.1464960664,5.905512,0.7158208,19.321194844,0,-0.223694,0,289.7, 1.5, -3.7,0,0,1024,1024,1024,1024,0,0,0,0,287.3,0,0,64,3.907,3.913,3.909,3.906,0,0,7.69,94.82,3085.8184120664,5.577428,6,P-GPS,
844200,2025-03-22 04:25:04,37.1258816633172,140.015904628273,5.577428,,,3085.8184120664,3.937008,0,19.1949481208,5.8133860128,30,5,15.625,3086.1464960664,5.905512,0.7158208,19.321194844,0,0,0,289.6, 1.7, -2.9,0,0,1024,1024,1024,1024,0,0,0,0,287.3,0,0,64,3.907,3.911,3.91,3.906,0,0,7.834,95,3085.8184120664,5.577428,6,P-GPS,
844400,2025-03-22 04:25:04,37.1258816306862,140.015904467855,5.577428,,,3085.8184120664,3.937008,0,19.1602368336,5.861548744,30,5,15.625,3086.1464960664,5.905512,0.7158208,19.321194844,0,0,0,289.5, 1.9, -2.5,0,0,1024,1024,1024,1024,0,0,0,0,287.3,0,0,64,3.907,3.911,3.91,3.906,0,0,7.834,95,3085.8184120664,5.577428,6,P-GPS,
844600,2025-03-22 04:25:04,37.125881627594,140.015904417899,5.249344,,,3085.4903280664,3.937008,0,19.1481633424,5.8761156736,30,5,15.625,3086.1464960664,5.905512,0.7158208,19.321194844,0,0,0,289.3, 2.2, -3,0,0,1024,1024,1024,1024,0,0,0,0,287.3,0,0,64,3.907,3.911,3.91,3.906,0,0,7.834,95,3085.4903280664,5.249344,6,P-GPS,
844800,2025-03-22 04:25:04,37.1258816453592,140.015904484916,5.249344,,,3085.4903280664,3.937008,0,19.161910062,5.8966865404,30,5,15.625,3086.1464960664,5.905512,0.7158208,19.321194844,0,0,0,289.5, 1.4, -4.1,0,0,1024,1024,1024,1024,0,0,0,0,287.3,0,0,64,3.907,3.911,3.91,3.906,0,0,7.834,95,3085.4903280664,5.249344,6,P-GPS,
845000,2025-03-22 04:25:05,37.1258816341896,140.015904607657,5.249344,,,3085.4903280664,3.937008,0,19.1949481208,5.9326117384,30,5,15.625,3086.1464960664,5.905512,0.7158208,19.321194844,0,0,0,289.5, 1.2, -4.2,0,0,1024,1024,1024,1024,0,0,0,0,287.3,0,0,64,3.907,3.911,3.91,3.906,0,0,7.834,95,3085.4903280664,5.249344,6,P-GPS,
845200,2025-03-22 04:25:05,37.1258815695508,140.015904739755,5.249344,,,3085.4903280664,3.937008,0,19.2400268624,5.97769048,30,5,15.625,3086.1464960664,5.905512,0.7158208,19.321194844,0,0,0,289.6, -0.1, -3.7,0,0,1024,1024,1024,1024,0,0,0,0,287.3,0,0,64,3.905,3.909,3.908,3.904,0,0,7.834,95,3085.4903280664,5.249344,6,P-GPS,
845400,2025-03-22 04:25:05,37.1258815103469,140.015904807717,5.249344,,,3085.4903280664,3.937008,0,19.267881194,6.0069883812,30,5,15.625,3086.1464960664,5.905512,0.7158208,19.321194844,0,0,0,289.4, -0.1, -3.4,0,0,1024,1024,1024,1024,0,0,0,0,287.3,0,0,64,3.905,3.909,3.908,3.904,0,0,7.834,95,3085.4903280664,5.249344,6,P-GPS,
845600,2025-03-22 04:25:05,37.125881481305,140.015904852097,5.249344,,,3085.4903280664,3.937008,0,19.2843510108,6.0236878568,30,5,15.625,3086.1464960664,5.905512,0.7158208,19.321194844,0,0,0,289.7, 0.2, -3.4,0,0,1024,1024,1024,1024,0,0,0,0,287.3,0,0,64,3.905,3.909,3.908,3.904,0,0,7.834,95,3085.4903280664,5.249344,6,P-GPS,
845800,2025-03-22 04:25:05,37.1258814898878,140.015904915531,5.249344,,,3085.4903280664,3.937008,0,19.2988523236,6.0423886448,30,5,15.625,3086.1464960664,5.905512,0.7158208,19.321194844,0,0,0,289.7, 0.9, -4.2,0,0,1024,1024,1024,1024,0,0,0,0,287.3,0,0,64,3.905,3.909,3.908,3.904,0,0,7.834,95,3085.4903280664,5.249344,6,P-GPS,
846000,2025-03-22 04:25:06,37.1258814721226,140.015904937989,5.249344,,,3085.4903280664,3.937008,0,19.3077105916,6.0516078052,30,5,15.625,3086.1464960664,5.905512,0.7158208,19.321194844,0,0,0,289.5, 0.7, -4.6,0,0,1024,1024,1024,1024,0,0,0,0,287.3,0,0,64,3.905,3.909,3.908,3.904,0,0,7.834,95,3085.4903280664,5.249344,6,P-GPS,
846200,2025-03-22 04:25:06,37.1258813867741,140.015904888646,5.249344,,,3085.4903280664,3.937008,0,19.3106633476,6.0858925832,30,5,15.627,3086.1464960664,5.905512,0.7158208,19.321194844,0,0,0,289.4, 1.6, -3.4,0,0,1024,1024,1024,1024,0,0,0,0,287.3,0,0,63,3.904,3.909,3.907,3.906,0,0,7.693,95,3085.4903280664,5.249344,6,P-GPS,
846600,2025-03-22 04:25:06,37.1258811496545,140.015904759663,5.249344,,,3085.4903280664,3.937008,0,19.3211620356,6.1801839248,30,5,15.627,3086.1464960664,5.905512,0.7158208,19.321194844,0,0,0,289.4, 1.4, -1.4,0,0,1024,1024,1024,1024,0,0,0,0,287.3,0,0,63,3.904,3.909,3.907,3.906,0,0,7.693,95,3085.4903280664,5.249344,6,P-GPS,
846800,2025-03-22 04:25:06,37.1258810731737,140.015904726482,5.249344,,,3085.4903280664,3.937008,0,19.326772272,6.2097114848,30,5,15.627,3086.1464960664,5.905512,0.7158208,19.326772272,0,0,0,289.4, 2.2, -0.5,0,0,1024,1024,1024,1024,0,0,0,0,287.3,0,0,63,3.904,3.909,3.907,3.906,0,0,7.693,95,3085.4903280664,5.249344,6,P-GPS,
847000,2025-03-22 04:25:07,37.1258810781182,140.015904826378,5.249344,,,3085.4903280664,3.937008,0,19.3510176796,6.238845344,30,5,15.627,3086.1464960664,5.905512,0.7158208,19.3510176796,0,0,0,289.7, 1.4, -2.1,0,0,1024,1024,1024,1024,0,0,0,0,287.3,0,0,63,3.904,3.909,3.907,3.906,0,0,7.693,95,3085.4903280664,5.249344,6,P-GPS,
847200,2025-03-22 04:25:07,37.1258810849515,140.015904965223,5.249344,,,3085.4903280664,3.937008,0,19.3847775232,6.2792981012,30,5,15.629,3086.1464960664,5.905512,0.7158208,19.3847775232,0,0,0,290, 0.1, -2.8,0,0,1024,1024,1024,1024,0,0,0,0,287.3,0,0,63,3.905,3.909,3.908,3.905,0,0,7.752,95,3085.4903280664,5.249344,6,P-GPS,
847400,2025-03-22 04:25:07,37.1258810582159,140.015905051894,5.249344,,,3085.4903280664,3.937008,0,19.4114835608,6.3063322228,30,5,15.629,3086.1464960664,5.905512,0.7158208,19.4114835608,0,0,0,289.9, 0.7, -2.1,0,0,1024,1024,1024,1024,0,0,0,0,287.3,0,0,63,3.905,3.909,3.908,3.905,0,0,7.752,95,3085.4903280664,5.249344,6,P-GPS,
847600,2025-03-22 04:25:07,37.1258810173319,140.015905118679,5.249344,,,3085.4903280664,3.937008,0,19.4357617768,6.3308072892,30,5,15.629,3086.1464960664,5.905512,0.7158208,19.4357617768,0,0,0,289.6, 0.1, -1.5,0,0,1024,1024,1024,1024,0,0,0,0,287.3,0,0,63,3.905,3.909,3.908,3.905,0,0,7.752,95,3085.4903280664,5.249344,6,P-GPS,
847800,2025-03-22 04:25:07,37.1258810146187,140.015905147675,5.249344,,,3085.4903280664,3.937008,0,19.443570176,6.3393046648,30,5,15.629,3086.1464960664,5.905512,0.7158208,19.443570176,0,0,0,289.8, 0.7, -1.9,0,0,1024,1024,1024,1024,0,0,0,0,287.3,0,0,63,3.905,3.909,3.908,3.905,0,0,7.752,95,3085.4903280664,5.249344,6,P-GPS,
848000,2025-03-22 04:25:08,37.125881020666,140.015905170859,5.249344,,,3085.4903280664,3.937008,0,19.4482945856,6.3464240876,30,5,15.629,3086.1464960664,5.905512,0.7158208,19.4482945856,0,0,0,289.9, 0.3, -2.1,0,0,1024,1024,1024,1024,0,0,0,0,287.3,0,0,63,3.905,3.909,3.908,3.905,0,0,7.752,95,3085.4903280664,5.249344,6,P-GPS,
848200,2025-03-22 04:25:08,37.1258810169742,140.015905150307,5.249344,,,3085.4903280664,3.937008,0,19.4437998348,6.35252645,30,5,15.626,3086.1464960664,5.905512,0.7158208,19.4482945856,0,0,0,289.5, 0.8, -1.3,0,0,1024,1024,1024,1024,0,0,0,0,287.3,0,0,63,3.907,3.91,3.908,3.904,0,0,7.724,95,3085.4903280664,5.249344,6,P-GPS,
848400,2025-03-22 04:25:08,37.1258810220473,140.015905136545,5.249344,,,3085.4903280664,3.937008,0,19.4394035092,6.356955584,30,5,15.626,3086.1464960664,5.905512,0.7158208,19.4482945856,0,0,0,289.7, 0.9, -1,0,0,1024,1024,1024,1024,0,0,0,0,287.3,0,0,63,3.907,3.91,3.908,3.904,0,0,7.724,95,3085.4903280664,5.249344,6,P-GPS,
848600,2025-03-22 04:25:08,37.1258810436392,140.015905169409,4.92126,,,3085.1622440664,3.937008,0,19.4437670264,6.3693243508,30,5,15.626,3086.1464960664,5.905512,0.7158208,19.4482945856,0,0,0,289.9, 0.4, -1.4,0,0,1024,1024,1024,1024,0,0,0,0,287.3,0,0,63,3.907,3.91,3.908,3.904,0,0,7.724,95,3085.1622440664,4.92126,6,P-GPS,
848800,2025-03-22 04:25:08,37.1258810770711,140.015905236199,4.92126,,,3085.1622440664,3.937008,0,19.4545281816,6.3922902308,30,5,15.626,3086.1464960664,5.905512,0.7158208,19.4545281816,0,0,0,290.1, 0.1, -1.6,0,0,1024,1024,1024,1024,0,0,0,0,287.3,0,0,63,3.907,3.91,3.908,3.904,0,0,7.724,95,3085.1622440664,4.92126,6,P-GPS,
849000,2025-03-22 04:25:09,37.1258811316409,140.015905294906,4.92126,,,3085.1622440664,3.937008,0,19.4594494416,6.4185041424,30,5,15.626,3086.1464960664,5.905512,0.7158208,19.4594494416,0,0,0,290.1, 0.2, -2.3,0,0,1024,1024,1024,1024,0,0,0,0,287.3,0,0,63,3.907,3.91,3.908,3.904,0,0,7.724,95,3085.1622440664,4.92126,6,P-GPS,
849200,2025-03-22 04:25:09,37.1258811625223,140.015905302141,4.92126,,,3085.1622440664,3.937008,0,19.4556764756,6.4299870824,30,5,15.629,3086.1464960664,5.905512,0.7158208,19.4594494416,0,0,0,289.5, 0, -2.9,0,0,1024,1024,1024,1024,0,0,0,0,287.3,0,0,63,3.904,3.907,3.907,3.903,0,0,7.589,95,3085.1622440664,4.92126,6,P-GPS,
849400,2025-03-22 04:25:09,37.125881129204,140.015905265931,4.92126,,,3085.1622440664,3.937008,0,19.4525596776,6.4460631984,30,5,15.629,3086.1464960664,5.905512,0.7158208,19.4594494416,0,0,0,289.4, 0.9, -1.7,0,0,1024,1024,1024,1024,0,0,0,0,287.3,0,0,63,3.904,3.907,3.907,3.903,0,0,7.589,95,3085.1622440664,4.92126,6,P-GPS,
849600,2025-03-22 04:25:09,37.1258810527788,140.015905254565,4.92126,,,3085.1622440664,3.937008,0,19.4635833,6.4741471888,30,5,15.629,3086.1464960664,5.905512,0.7158208,19.4635833,0,0,0,289.5, -0.4, -0.7,0,0,1024,1024,1024,1024,0,0,0,0,287.3,0,0,63,3.904,3.907,3.907,3.903,0,0,7.589,95,3085.1622440664,4.92126,6,P-GPS,
849800,2025-03-22 04:25:09,37.1258810142953,140.015905277722,4.92126,,,3085.1622440664,3.937008,0,19.4764113844,6.4896983704,29,5,15.629,3086.1464960664,5.905512,0.7158208,19.4764113844,0,0,0,289.8, -1.1, -0.5,0,0,1024,1024,1024,1024,0,0,0,0,287.3,0,0,63,3.904,3.907,3.907,3.903,0,0,7.589,95,3085.1622440664,4.92126,6,P-GPS,
850000,2025-03-22 04:25:10,37.1258810531578,140.015905281901,4.92126,,,3085.1622440664,3.937008,0,19.4704074472,6.503937216,29,5,15.629,3086.1464960664,5.905512,0.7158208,19.4764113844,0,0,0,289.8, -0.4, -1.9,0,0,1024,1024,1024,1024,0,0,0,0,287.3,0,0,63,3.904,3.907,3.907,3.903,0,0,7.589,95,3085.1622440664,4.92126,6,P-GPS,
850200,2025-03-22 04:25:10,37.1258811002991,140.015905273392,4.92126,,,3085.1622440664,3.937008,0,19.4597119088,6.521325668,29,5,15.642,3086.1464960664,5.905512,0.7158208,19.4764113844,0,0,0,290, 0, -2.5,0,0,1024,1024,1024,1024,0,0,0,0,287.3,0,0,63,3.904,3.907,3.905,3.902,0,0,7.622,95.18,3085.1622440664,4.92126,6,P-GPS,
850400,2025-03-22 04:25:10,37.1258811388682,140.015905279634,4.92126,,,3085.1622440664,3.937008,0,19.4542985228,6.5354988968,29,5,15.642,3086.1464960664,5.905512,0.7158208,19.4764113844,0,0,0,290, -0.3, -2.4,0,0,1024,1024,1024,1024,0,0,0,0,287.3,0,0,63,3.904,3.907,3.905,3.902,0,0,7.622,95.18,3085.1622440664,4.92126,6,P-GPS,
850600,2025-03-22 04:25:10,37.1258811825125,140.015905266227,4.92126,,,3085.1622440664,3.937008,0,19.4429796248,6.5519030968,29,5,15.642,3086.1464960664,5.905512,0.7158208,19.4764113844,0,0,0,289.8, -0.7, -1.5,0,0,1024,1024,1024,1024,0,0,0,0,287.3,0,0,63,3.904,3.907,3.905,3.902,0,0,7.622,95.18,3085.1622440664,4.92126,6,P-GPS,
850800,2025-03-22 04:25:10,37.1258812836218,140.015905244665,4.92126,,,3085.1622440664,3.937008,0,19.4192591516,6.5893046728,29,5,15.642,3086.1464960664,5.905512,0.7158208,19.4764113844,0,0,0,289.7, -0.1, -2.9,0,0,1024,1024,1024,1024,0,0,0,0,287.3,0,0,63,3.904,3.907,3.905,3.902,0,0,7.622,95.18,3085.1622440664,4.92126,6,P-GPS,
851000,2025-03-22 04:25:11,37.1258813965647,140.015905239734,4.92126,,,3085.1622440664,3.937008,0,19.3976712244,6.6305448316,29,5,15.642,3086.1464960664,5.905512,0.7158208,19.4764113844,0,0,0,289.9, -0.4, -3.5,0,0,1024,1024,1024,1024,0,0,0,0,287.3,0,0,63,3.904,3.907,3.905,3.902,0,0,7.622,95.18,3085.1622440664,4.92126,6,P-GPS,
851200,2025-03-22 04:25:11,37.1258815019161,140.01590522826,4.92126,,,3085.1622440664,3.937008,0,19.37582083,6.66912751,29,5,15.616,3086.1464960664,5.905512,0.7158208,19.4764113844,0,0,0,289.8, -0.4, -3.9,0,0,1024,1024,1024,1024,0,0,0,0,287.3,0,0,63,3.902,3.906,3.905,3.901,0,0,7.794,95.18,3085.1622440664,4.92126,6,P-GPS,
851400,2025-03-22 04:25:11,37.1258815813778,140.015905188575,4.92126,,,3085.1622440664,3.937008,0,19.351542614,6.7003282984,28,5,15.616,3086.1464960664,5.905512,0.7158208,19.4764113844,0,0,0,289.6, -0.4, -3.6,0,0,1024,1024,1024,1024,0,0,0,0,287.3,0,0,63,3.902,3.906,3.905,3.901,0,0,7.794,95.18,3085.1622440664,4.92126,6,P-GPS,
851600,2025-03-22 04:25:11,37.1258816259473,140.015905158284,4.92126,,,3085.1622440664,3.937008,0,19.3358930072,6.718832236,28,5,15.616,3086.1464960664,5.905512,0.7158208,19.4764113844,0,0,0,289.8, -0.2, -4.2,0,0,1024,1024,1024,1024,0,0,0,0,287.3,0,0,63,3.902,3.906,3.905,3.901,0,0,7.794,95.18,3085.1622440664,4.92126,6,P-GPS,
851800,2025-03-22 04:25:11,37.1258816407873,140.015905138415,4.92126,,,3085.1622440664,3.937008,0,19.3281830332,6.7267390604,28,5,15.616,3086.1464960664,5.905512,0.7158208,19.4764113844,0,0,0,289.7, -0.2, -3.7,0,0,1024,1024,1024,1024,0,0,0,0,287.3,0,0,63,3.902,3.906,3.905,3.901,0,0,7.794,95.18,3085.1622440664,4.92126,6,P-GPS,
852000,2025-03-22 04:25:12,37.1258816415347,140.015905089152,4.92126,,,3085.1622440664,3.937008,0,19.3155517992,6.7410763312,28,5,15.616,3086.1464960664,5.905512,0.7158208,19.4764113844,0,0,0,290, 0.5, -3.8,0,0,1024,1024,1024,1024,0,0,0,0,287.3,0,0,63,3.902,3.906,3.905,3.901,0,0,7.794,95.18,3085.1622440664,4.92126,6,P-GPS,
852200,2025-03-22 04:25:12,37.1258816315042,140.015905039045,4.92126,,,3085.1622440664,3.937008,0,19.3046594104,6.7561025784,28,5,15.618,3086.1464960664,5.905512,0.7158208,19.4764113844,0,0,0,289.6, 0.3, -3.6,0,0,1024,1024,1024,1024,0,0,0,0,287.3,0,0,63,3.902,3.905,3.905,3.9,0,0,7.674,95.18,3085.1622440664,4.92126,6,P-GPS,
852400,2025-03-22 04:25:12,37.1258816277289,140.015905047248,4.92126,,,3085.1622440664,3.937008,0,19.307415316,6.758858484,28,5,15.618,3086.1464960664,5.905512,0.7158208,19.4764113844,0,0,0,289.7, 0, -3.6,0,0,1024,1024,1024,1024,0,0,0,0,287.3,0,0,63,3.902,3.905,3.905,3.9,0,0,7.674,95.18,3085.1622440664,4.92126,6,P-GPS,
852600,2025-03-22 04:25:12,37.1258816303307,140.015905092428,4.92126,,,3085.1622440664,3.937008,0,19.31840613,6.7720474608,28,5,15.618,3086.1464960664,5.905512,0.7158208,19.4764113844,0,0,0,289.7, -0.6, -3.9,0,0,1024,1024,1024,1024,0,0,0,0,287.3,0,0,63,3.902,3.905,3.905,3.9,0,0,7.674,95.18,3085.1622440664,4.92126,6,P-GPS,
852800,2025-03-22 04:25:12,37.1258816290716,140.015905114511,4.92126,,,3085.1622440664,3.937008,0,19.3242132168,6.7784779072,28,5,15.618,3086.1464960664,5.905512,0.7158208,19.4764113844,0,0,0,289.8, -0.6, -3.8,0,0,1024,1024,1024,1024,0,0,0,0,287.3,0,0,63,3.902,3.905,3.905,3.9,0,0,7.674,95.18,3085.1622440664,4.92126,6,P-GPS,
853000,2025-03-22 04:25:13,37.1258816301337,140.015905102919,4.92126,,,3085.1622440664,3.937008,0,19.3210964188,6.7818899808,28,5,15.618,3086.1464960664,5.905512,0.7158208,19.4764113844,0,0,0,289.6, -0.1, -3.9,0,0,1024,1024,1024,1024,0,0,0,0,287.3,0,0,63,3.902,3.905,3.905,3.9,0,0,7.674,95.18,3085.1622440664,4.92126,6,P-GPS,
853200,2025-03-22 04:25:13,37.1258816021325,140.015905081621,4.92126,,,3085.1622440664,3.937008,0,19.320702718,6.7938322384,29,5,15.617,3086.1464960664,5.905512,0.7158208,19.4764113844,0,0,0,289.7, -0.2, -3.2,0,0,1024,1024,1024,1024,0,0,0,0,287.3,0,0,63,3.905,3.907,3.905,3.899,0,0,7.796,95.18,3085.1622440664,4.92126,6,P-GPS,
853400,2025-03-22 04:25:13,37.1258815824379,140.015905081916,4.593176,,,3084.8341600664,3.937008,0,19.324311642,6.801017278,29,5,15.617,3086.1464960664,5.905512,0.7158208,19.4764113844,0,0,0,289.9, -0.9, -3.2,0,0,1024,1024,1024,1024,0,0,0,0,287.3,0,0,63,3.905,3.907,3.905,3.899,0,0,7.796,95.18,3084.8341600664,4.593176,6,P-GPS,
853600,2025-03-22 04:25:13,37.1258815765554,140.015905058098,4.593176,,,3084.8341600664,3.937008,0,19.3193575736,6.8082679344,29,5,15.617,3086.1464960664,5.905512,0.7158208,19.4764113844,0,0,0,290, -0.3, -3.3,0,0,1024,1024,1024,1024,0,0,0,0,287.3,0,0,63,3.905,3.907,3.905,3.899,0,0,7.796,95.18,3084.8341600664,4.593176,6,P-GPS,
