time(millisecond),datetime(utc),latitude,longitude,height_above_takeoff(feet),height_above_ground_at_drone_location(feet),ground_elevation_at_drone_location(feet),altitude_above_seaLevel(feet),height_sonar(feet),speed(mph),distance(feet),mileage(feet),satellites,gpslevel,voltage(v),max_altitude(feet),max_ascent(feet),max_speed(mph),max_distance(feet), xSpeed(mph), ySpeed(mph), zSpeed(mph), compass_heading(degrees), pitch(degrees), roll(degrees),isPhoto,isVideo,rc_elevator,rc_aileron,rc_throttle,rc_rudder,rc_elevator(percent),rc_aileron(percent),rc_throttle(percent),rc_rudder(percent),gimbal_heading(degrees),gimbal_pitch(degrees),gimbal_roll(degrees),battery_percent,voltageCell1,voltageCell2,voltageCell3,voltageCell4,voltageCell5,voltageCell6,current(A),battery_temperature(f),altitude(feet),ascent(feet),flycStateRaw,flycState,message
0,2025-01-13 04:37:43,0,0,0,Available with any HD 360 subscription,Available with any HD 360 subscription,1050.4242839417,0.328084,0,0,0,10,2,0,1050.4242839417,0,0,0,0,0,0,54.9, 4.1, 0.7,0,0,1024,1024,1024,1024,0,0,0,0,55.2,0,0,96,4.233,4.232,4.221,4.222,0,0,0,57.92,1050.4242839417,0,41,Motors_Started,"IMU初期化中。IMUデータを復旧します (Code: 1610001A). 送信機が紐付けされていない／紐付けステータスを確認中 (Code: 16100089). 機体は飛行していません。ビジョンシステムと障害物回避が無効です (Code: 180059). GNSS信号が微弱です。ホバリングが不安定です。慎重に飛行してください (Code: 30008). IMU初期化中。IMUデータを復旧します (Code: 1610001A). 送信機が紐付けされていない／紐付けステータスを確認中 ("
200,2025-01-13 04:37:43,0,0,0,,,1050.4242839417,0.328084,0,0,0,10,2,0,1050.4242839417,0,0,0,0,0,0,54.9, 4.1, 0.7,0,0,1024,1024,1024,1024,0,0,0,0,55.2,0,0,96,4.233,4.232,4.221,4.222,0,0,0,57.92,1050.4242839417,0,41,Motors_Started,
400,2025-01-13 04:37:43,0,0,0,,,1050.4242839417,0.328084,0,0,0,10,2,0,1050.4242839417,0,0,0,0,0,0,54.9, 4.1, 0.7,0,0,1024,1024,1024,1024,0,0,0,0,55.2,0,0,96,4.233,4.232,4.221,4.222,0,0,0,57.92,1050.4242839417,0,41,Motors_Started,"機体が高度区域 (500 m)にいます。慎重に飛行してください。 (Code: 190001)"
600,2025-01-13 04:37:44,0,0,0,,,1050.4242839417,0,0,0,0,10,2,0,1050.4242839417,0,0,0,0,0,0,54.9, 4.1, 0.8,0,0,1024,1024,1024,1024,0,0,0,0,55.2,0,0,96,4.233,4.232,4.221,4.222,0,0,0,57.92,1050.4242839417,0,41,Motors_Started,
800,2025-01-13 04:37:44,0,0,0,,,1050.4242839417,0,0,0,0,10,2,0,1050.4242839417,0,0,0,0,0,0,54.9, 4.1, 0.8,0,0,1024,1024,1024,1024,0,0,0,0,55.2,0,0,96,4.233,4.232,4.221,4.222,0,0,0,57.92,1050.4242839417,0,41,Motors_Started,"Setting new Return-To-Home altitude to 100m (328 ft). Data Recorder File Index is 87. Setting new Maximum Flight Altitude to 30m (98 ft)"
1000,2025-01-13 04:37:44,0,0,0,,,1050.4242839417,0,0,0,0,10,2,17.041,1050.4242839417,0,0,0,0,0,0,54.9, 4.1, 0.8,0,0,1024,1024,1024,1024,0,0,0,0,55.2,0,0,96,4.233,4.232,4.221,4.222,0,0,1.862,57.92,1050.4242839417,0,41,Motors_Started,
1200,2025-01-13 04:37:44,0,0,0,,,1050.4242839417,0,0,0,0,10,2,17.041,1050.4242839417,0,0,0,0,0,0,54.8, 4.1, 0.8,0,0,1024,1024,1024,1024,0,0,0,0,55.1,0,0,96,4.233,4.232,4.221,4.222,0,0,1.862,57.92,1050.4242839417,0,41,Motors_Started,
1400,2025-01-13 04:37:44,0,0,0,,,1050.4242839417,0,0,0,0,11,2,17.041,1050.4242839417,0,0,0,0,0,0,54.8, 4.1, 0.9,0,0,1024,1024,1024,1024,0,0,0,0,55.1,0,0,96,4.233,4.232,4.221,4.222,0,0,1.862,57.92,1050.4242839417,0,41,Motors_Started,
1600,2025-01-13 04:37:45,0,0,0,,,1050.4242839417,0,0,0,0,11,2,17.041,1050.4242839417,0,0,0,0,0,0,54.8, 4.1, 0.9,0,0,1024,1024,1024,1024,0,0,0,0,55.1,0,0,96,4.233,4.232,4.221,4.222,0,0,1.862,57.92,1050.4242839417,0,11,AutoTakeoff,
1800,2025-01-13 04:37:45,0,0,0,,,1050.4242839417,0,0,0,0,11,2,17.041,1050.4242839417,0,0,0,0,0,0,54.8, 4.1, 0.9,0,0,1024,1024,1024,1024,0,0,0,0,55.1,0,0,96,4.233,4.232,4.221,4.222,0,0,1.862,57.92,1050.4242839417,0,11,AutoTakeoff,"機体は飛行していません。ビジョンシステムと障害物回避が無効です (Code: 180059)"
2000,2025-01-13 04:37:45,0,0,0,,,1050.4242839417,0,0,0,0,11,2,16.833,1050.4242839417,0,0,0,0,0,0,54.7, 3.7, 0.9,0,0,1024,1024,1024,1024,0,0,0,0,55.1,0,0,96,4.245,4.246,4.245,4.25,0,0,4.464,57.92,1050.4242839417,0,11,AutoTakeoff,
2200,2025-01-13 04:37:45,0,0,0,,,1050.4242839417,0,0,0,0,11,2,16.833,1050.4242839417,0,0,0,0,0,-0.223694,54.5, -3.5, 0.8,0,0,1024,1024,1024,1024,0,0,0,0,55.1,0,0,96,4.245,4.246,4.245,4.25,0,0,4.464,57.92,1050.4242839417,0,11,AutoTakeoff,
2400,2025-01-13 04:37:45,0,0,0.328084,,,1050.7523679417,0.328084,0.223694,0,0,11,2,16.833,1050.7523679417,0.328084,0.223694,0,0,0.223694,-0.894776,54.6, -0.2, 0.7,0,0,1024,1024,1024,1024,0,0,0,0,55.1,0,0,96,4.245,4.246,4.245,4.25,0,0,4.464,57.92,1050.7523679417,0.328084,11,AutoTakeoff,
2600,2025-01-13 04:37:46,0,0,0.656168,,,1051.0804519417,0.328084,0,0,0,11,2,16.833,1051.0804519417,0.656168,0.223694,0,0,0,-0.894776,54.5, 3.2, -0.3,0,0,1024,1024,1024,1024,0,0,0,0,55.1,0,0,96,4.245,4.246,4.245,4.25,0,0,4.464,57.92,1051.0804519417,0.656168,11,AutoTakeoff,
2800,2025-01-13 04:37:46,0,0,0.656168,,,1051.0804519417,0.984252,0.223694,0,0,10,2,16.833,1051.0804519417,0.656168,0.223694,0,0.223694,0,-0.894776,54.5, 2.3, 0.4,0,0,1024,1024,1024,1024,0,0,0,0,55.1,0,0,96,4.245,4.246,4.245,4.25,0,0,4.464,57.92,1051.0804519417,0.656168,11,AutoTakeoff,
3000,2025-01-13 04:37:46,0,0,0.984252,,,1051.4085359417,0.984252,0.3131716,0,0,10,2,16.7,1051.4085359417,0.984252,0.3131716,0,0.223694,-0.223694,-0.894776,54.6, 1.9, 3.7,0,0,1024,1024,1024,1024,0,0,0,0,55,0,0,96,4.145,4.141,4.139,4.145,0,0,4.705,57.92,1051.4085359417,0.984252,11,AutoTakeoff,
3200,2025-01-13 04:37:46,0,0,1.312336,,,1051.7366199417,1.312336,0.223694,0,0,12,2,16.7,1051.7366199417,1.312336,0.3131716,0,0,-0.223694,-0.894776,54.1, 0, 4.4,0,0,1024,1024,1052,1024,0,0,4,0,55,0,0,96,4.145,4.141,4.139,4.145,0,0,4.705,57.92,1051.7366199417,1.312336,11,AutoTakeoff,飛行中
3400,2025-01-13 04:37:46,0,0,1.64042,,,1052.0647039417,1.64042,0.223694,0,0,10,2,16.7,1052.0647039417,1.64042,0.3131716,0,0,-0.223694,-1.11847,54.5, -1.4, 5.9,0,0,1024,1024,1034,1024,0,0,2,0,55,0,0,96,4.145,4.141,4.139,4.145,0,0,4.705,57.92,1052.0647039417,1.64042,11,AutoTakeoff,
3600,2025-01-13 04:37:47,0,0,1.968504,,,1052.3927879417,1.968504,0,0,0,11,2,16.7,1052.3927879417,1.968504,0.3131716,0,0,0,-1.11847,54.5, -2.6, 6.6,0,0,1024,1024,1024,1024,0,0,0,0,55,0,0,96,4.145,4.141,4.139,4.145,0,0,4.705,57.92,1052.3927879417,1.968504,11,AutoTakeoff,
3800,2025-01-13 04:37:47,0,0,2.296588,,,1052.7208719417,2.296588,0.223694,0,0,11,2,16.7,1052.7208719417,2.296588,0.3131716,0,-0.223694,0,-0.894776,54.5, -2, 4,0,0,1024,1024,1024,1024,0,0,0,0,55,0,0,96,4.145,4.141,4.139,4.145,0,0,4.705,57.92,1052.7208719417,2.296588,11,AutoTakeoff,
4000,2025-01-13 04:37:47,0,0,2.624672,,,1053.0489559417,2.624672,0.3131716,0,0,11,2,16.54,1053.0489559417,2.624672,0.3131716,0,-0.223694,0.223694,-0.894776,54.6, -1.7, 0.6,0,0,1055,1024,1024,1024,5,0,0,0,55,0,0,96,4.137,4.14,4.137,4.142,0,0,8.357,58.1,1053.0489559417,2.624672,11,AutoTakeoff,
4200,2025-01-13 04:37:47,0,0,2.952756,,,1053.3770399417,2.952756,0.3131716,0,0,11,2,16.54,1053.3770399417,2.952756,0.3131716,0,-0.223694,0.223694,-0.894776,54.4, -1.2, -1.2,0,0,1190,1024,1024,1024,25,0,0,0,55,0,0,96,4.137,4.14,4.137,4.142,0,0,8.357,58.1,1053.3770399417,2.952756,11,AutoTakeoff,
4400,2025-01-13 04:37:47,0,0,3.28084,,,1053.7051239417,3.28084,0.3131716,0,0,11,2,16.54,1053.7051239417,3.28084,0.3131716,0,-0.223694,0.223694,-0.894776,54.2, -1.4, -1.9,0,0,1223,1024,1024,1024,30,0,0,0,54.9,0,0,96,4.137,4.14,4.137,4.142,0,0,8.357,58.1,1053.7051239417,3.28084,11,AutoTakeoff,
4600,2025-01-13 04:37:48,0,0,3.608924,,,1054.0332079417,3.608924,0.223694,0,0,12,2,16.54,1054.0332079417,3.608924,0.3131716,0,0,0.223694,-0.894776,54.4, -0.5, -2.2,0,0,1244,1024,1024,1024,33,0,0,0,54.9,0,0,96,4.137,4.14,4.137,4.142,0,0,8.357,58.1,1054.0332079417,3.608924,6,P-GPS,
4800,2025-01-13 04:37:48,0,0,3.937008,,,1054.3612919417,3.937008,0,0,0,12,2,16.54,1054.3612919417,3.937008,0.3131716,0,0,0,-0.447388,54.4, -3, 0,0,0,1313,1024,1024,1024,44,0,0,0,54.9,0,0,96,4.137,4.14,4.137,4.142,0,0,8.357,58.1,1054.3612919417,3.937008,6,P-GPS,
5000,2025-01-13 04:37:48,0,0,3.937008,,,1054.3612919417,3.937008,0.3131716,0,0,11,2,16.526,1054.3612919417,3.937008,0.3131716,0,0.223694,0.223694,0,54.8, -4.1, 0.7,0,0,1323,1024,1024,1024,45,0,0,0,54.9,0,0,96,4.127,4.124,4.125,4.126,0,0,8.213,58.1,1054.3612919417,3.937008,6,P-GPS,
5200,2025-01-13 04:37:48,0,0,3.937008,,,1054.3612919417,3.937008,0.6263432,0,0,10,2,16.526,1054.3612919417,3.937008,0.6263432,0,0.447388,0.447388,0,56.9, -7.4, 2,0,0,1259,1024,1024,1024,36,0,0,0,54.9,0,0,96,4.127,4.124,4.125,4.126,0,0,8.213,58.1,1054.3612919417,3.937008,6,P-GPS,
5400,2025-01-13 04:37:48,0,0,3.937008,,,1054.3612919417,3.937008,1.11847,0,0,11,2,16.526,1054.3612919417,3.937008,1.11847,0,0.671082,0.894776,0,58.1, -7.5, 2.4,0,0,1140,1024,1024,1094,18,0,0,11,54.9,0,0,96,4.127,4.124,4.125,4.126,0,0,8.213,58.1,1054.3612919417,3.937008,6,P-GPS,
5600,2025-01-13 04:37:49,0,0,3.937008,,,1054.3612919417,3.937008,1.6105968,0,0,11,2,16.526,1054.3612919417,3.937008,1.6105968,0,0.894776,1.342164,0,58.9, -5.8, 2.3,0,0,1024,1024,1024,1342,0,0,0,48,55.3,0,0,96,4.127,4.124,4.125,4.126,0,0,8.213,58.1,1054.3612919417,3.937008,6,P-GPS,
5800,2025-01-13 04:37:49,0,0,3.937008,,,1054.3612919417,3.937008,1.6105968,0,0,11,2,16.526,1054.3612919417,3.937008,1.6105968,0,0.894776,1.342164,0,58.9, 3.5, 0.6,0,0,1024,1024,1024,1345,0,0,0,49,57.2,0,0,96,4.127,4.124,4.125,4.126,0,0,8.213,58.1,1054.3612919417,3.937008,6,P-GPS,
6000,2025-01-13 04:37:49,0,0,3.937008,,,1054.3612919417,3.608924,1.11847,0,0,11,2,16.527,1054.3612919417,3.937008,1.6105968,0,0.671082,0.894776,0,61.1, 7.9, 2.9,0,0,1024,1024,1024,1433,0,0,0,62,59.6,0,0,96,4.132,4.133,4.131,4.137,0,0,7.862,58.1,1054.3612919417,3.937008,6,P-GPS,
6200,2025-01-13 04:37:49,0,0,3.937008,,,1054.3612919417,3.608924,0.4921268,0,0,11,2,16.527,1054.3612919417,3.937008,1.6105968,0,0.447388,0.223694,0,63.1, 5.9, 3.7,0,0,1024,1024,1024,1610,0,0,0,89,63.2,0,0,96,4.132,4.133,4.131,4.137,0,0,7.862,58.1,1054.3612919417,3.937008,6,P-GPS,
6400,2025-01-13 04:37:50,0,0,3.937008,,,1054.3612919417,3.608924,0.223694,0,0,11,2,16.527,1054.3612919417,3.937008,1.6105968,0,0.223694,0,0,67.2, 1.4, 4.6,0,0,1024,1024,1024,1684,0,0,0,100,71,0,0,96,4.132,4.133,4.131,4.137,0,0,7.862,58.1,1054.3612919417,3.937008,6,P-GPS,
6600,2025-01-13 04:37:50,0,0,3.937008,,,1054.3612919417,3.608924,0,0,0,11,2,16.527,1054.3612919417,3.937008,1.6105968,0,0,0,0,74.4, 0, 6,0,0,1024,1024,1024,1684,0,0,0,100,81.9,0,0,96,4.132,4.133,4.131,4.137,0,0,7.862,58.1,1054.3612919417,3.937008,6,P-GPS,
6800,2025-01-13 04:37:50,0,0,3.937008,,,1054.3612919417,3.608924,0,0,0,11,2,16.527,1054.3612919417,3.937008,1.6105968,0,0,0,0,85.5, -0.3, 4.8,0,0,1024,1024,1024,1684,0,0,0,100,93.9,0,0,96,4.132,4.133,4.131,4.137,0,0,7.862,58.1,1054.3612919417,3.937008,6,P-GPS,
7000,2025-01-13 04:37:50,0,0,3.937008,,,1054.3612919417,3.608924,0,0,0,11,2,16.536,1054.3612919417,3.937008,1.6105968,0,0,0,0,98.1, -1, 4.1,0,0,1035,1024,1024,1024,2,0,0,0,105.4,0,0,96,4.129,4.133,4.13,4.137,0,0,7.946,58.28,1054.3612919417,3.937008,6,P-GPS,
7200,2025-01-13 04:37:50,0,0,3.937008,,,1054.3612919417,3.608924,0,0,0,10,2,16.536,1054.3612919417,3.937008,1.6105968,0,0,0,0,109.5, -0.1, 3.9,0,0,1466,1077,1024,1024,67,8,0,0,108,0,0,96,4.129,4.133,4.13,4.137,0,0,7.946,58.28,1054.3612919417,3.937008,6,P-GPS,
7400,2025-01-13 04:37:50,0,0,3.937008,,,1054.3612919417,3.608924,0,0,0,8,2,16.536,1054.3612919417,3.937008,1.6105968,0,0,0,0,112.1, -1.1, 3.3,0,0,1631,1114,1024,1024,92,14,0,0,108,0,0,96,4.129,4.133,4.13,4.137,0,0,7.946,58.28,1054.3612919417,3.937008,6,P-GPS,
7600,2025-01-13 04:37:51,0,0,3.937008,,,1054.3612919417,3.608924,0.223694,0,0,9,2,16.536,1054.3612919417,3.937008,1.6105968,0,-0.223694,0,0,111.6, -9, 2.2,0,0,1660,1143,1024,1024,96,18,0,0,108,0,0,96,4.129,4.133,4.13,4.137,0,0,7.946,58.28,1054.3612919417,3.937008,6,P-GPS,
7800,2025-01-13 04:37:51,0,0,3.937008,,,1054.3612919417,3.608924,0.9395148,0,0,10,2,16.536,1054.3612919417,3.937008,1.6105968,0,-0.671082,0.671082,0,111.5, -15.6, 1.5,0,0,1659,1136,1024,1024,96,17,0,0,108,0,0,96,4.129,4.133,4.13,4.137,0,0,7.946,58.28,1054.3612919417,3.937008,6,P-GPS,
8000,2025-01-13 04:37:51,0,0,3.937008,,,1054.3612919417,3.608924,2.1922012,0,0,12,2,16.503,1054.3612919417,3.937008,2.1922012,0,-0.894776,2.013246,0,111.9, -15.4, 2,0,0,1650,1119,1024,1024,95,14,0,0,108,0,0,96,4.129,4.129,4.129,4.13,0,0,8.121,58.28,1054.3612919417,3.937008,6,P-GPS,
8200,2025-01-13 04:37:51,0,0,3.937008,,,1054.3612919417,3.608924,3.1093466,0,0,11,2,16.503,1054.3612919417,3.937008,3.1093466,0,-1.565858,2.684328,0,111.8, -15.1, 2.6,0,0,1637,1082,1024,1024,93,9,0,0,108,0,0,96,4.129,4.129,4.129,4.13,0,0,8.121,58.28,1054.3612919417,3.937008,6,P-GPS,
8400,2025-01-13 04:37:51,0,0,3.937008,,,1054.3612919417,3.608924,4.2278166,0,0,12,2,16.503,1054.3612919417,3.937008,4.2278166,0,-2.23694,3.579104,0,111.8, -13.9, -2.6,0,0,1619,1041,1024,1024,90,3,0,0,108,0,0,96,4.129,4.129,4.129,4.13,0,0,8.121,58.28,1054.3612919417,3.937008,6,P-GPS,
8600,2025-01-13 04:37:52,0,0,3.937008,,,1054.3612919417,3.937008,5.0107456,0,0,13,2,16.503,1054.3612919417,3.937008,5.0107456,0,-2.23694,4.47388,0,111.6, -15.1, -2.7,0,0,1589,1024,1024,1024,86,0,0,0,108,0,0,96,4.129,4.129,4.129,4.13,0,0,8.121,58.28,1054.3612919417,3.937008,6,P-GPS,
8800,2025-01-13 04:37:52,0,0,3.937008,,,1054.3612919417,4.593176,5.816044,0,0,12,2,16.503,1054.3612919417,3.937008,5.816044,0,-2.23694,5.368656,0,111.9, -10.7, -1,0,0,1469,1024,1024,1024,67,0,0,0,108,0,0,96,4.129,4.129,4.129,4.13,0,0,8.121,58.28,1054.3612919417,3.937008,6,P-GPS,
9000,2025-01-13 04:37:52,0,0,3.937008,,,1054.3612919417,4.92126,6.1068462,0,0,11,2,16.457,1054.3612919417,3.937008,6.1068462,0,-2.460634,5.59235,-0.223694,111.9, -5.4, -0.6,0,0,1024,1024,1024,1577,0,0,0,84,108.2,0,0,96,4.121,4.119,4.122,4.126,0,0,8.565,58.46,1054.3612919417,3.937008,6,P-GPS,
9200,2025-01-13 04:37:52,0,0,3.937008,,,1054.3612919417,5.249344,6.3081708,0,0,11,2,16.457,1054.3612919417,3.937008,6.3081708,0,-2.460634,5.816044,-0.447388,111.2, 3.5, 1.5,0,0,1024,1024,1024,1684,0,0,0,100,114.3,0,0,96,4.121,4.119,4.122,4.126,0,0,8.565,58.46,1054.3612919417,3.937008,6,P-GPS,
9400,2025-01-13 04:37:52,0,0,4.265092,,,1054.6893759417,5.249344,4.8988986,0,0,10,2,16.457,1054.6893759417,4.265092,6.3081708,0,-2.013246,4.47388,0,117, 27, 2,0,0,1024,1024,1024,1123,0,0,0,15,125,0,0,96,4.121,4.119,4.122,4.126,0,0,8.565,58.46,1054.6893759417,4.265092,6,P-GPS,
9600,2025-01-13 04:37:53,0,0,4.265092,,,1054.6893759417,4.92126,2.908022,0,0,9,2,16.457,1054.6893759417,4.265092,6.3081708,0,-1.565858,2.460634,0,130.7, 23.5, 9.1,0,0,1024,1024,1024,1024,0,0,0,0,127.2,0,0,96,4.121,4.119,4.122,4.126,0,0,8.565,58.46,1054.6893759417,4.265092,6,P-GPS,
9800,2025-01-13 04:37:53,0,0,4.265092,,,1054.6893759417,4.92126,1.2974252,0,0,10,2,16.457,1054.6893759417,4.265092,6.3081708,0,-1.11847,0.671082,0,130.2, 12.7, 1.9,0,0,1024,1024,1024,1024,0,0,0,0,127.3,0,0,96,4.121,4.119,4.122,4.126,0,0,8.565,58.46,1054.6893759417,4.265092,6,P-GPS,
10000,2025-01-13 04:37:53,0,0,4.265092,,,1054.6893759417,4.92126,0.671082,0,0,9,2,16.541,1054.6893759417,4.265092,6.3081708,0,-0.671082,0,0,131.3, 6.5, -3.8,0,0,1189,1024,1024,1024,25,0,0,0,127.3,0,0,96,4.135,4.136,4.122,4.122,0,0,8.169,58.64,1054.6893759417,4.265092,6,P-GPS,
10200,2025-01-13 04:37:53,0,0,4.265092,,,1054.6893759417,4.92126,0.223694,0,0,7,2,16.541,1054.6893759417,4.265092,6.3081708,0,-0.223694,0,0,131.3, 1.1, -3.9,0,0,1415,1083,1024,1024,59,9,0,0,127.3,0,0,96,4.135,4.136,4.122,4.122,0,0,8.169,58.64,1054.6893759417,4.265092,6,P-GPS,
10400,2025-01-13 04:37:53,0,0,4.265092,,,1054.6893759417,4.92126,0,0,0,8,2,16.541,1054.6893759417,4.265092,6.3081708,0,0,0,0,130.9, -2.5, -4.7,0,0,1401,1062,1024,1024,57,6,0,0,127.3,0,0,96,4.135,4.136,4.122,4.122,0,0,8.169,58.64,1054.6893759417,4.265092,6,P-GPS,
10600,2025-01-13 04:37:54,0,0,4.265092,,,1054.6893759417,4.92126,0.223694,0,0,9,2,16.541,1054.6893759417,4.265092,6.3081708,0,-0.223694,0,0,131.3, -11.2, -2.1,0,0,1024,1024,1024,1024,0,0,0,0,127.3,0,0,96,4.135,4.136,4.122,4.122,0,0,8.169,58.64,1054.6893759417,4.265092,6,P-GPS,
10800,2025-01-13 04:37:54,0,0,4.265092,,,1054.6893759417,4.92126,1.11847,0,0,8,2,16.541,1054.6893759417,4.265092,6.3081708,0,-0.894776,0.671082,0,130.9, -11, -2.2,0,0,1024,1024,1024,1024,0,0,0,0,127.3,0,0,96,4.135,4.136,4.122,4.122,0,0,8.169,58.64,1054.6893759417,4.265092,6,P-GPS,
11000,2025-01-13 04:37:54,0,0,4.265092,,,1054.6893759417,5.249344,1.4316416,0,0,10,2,16.45,1054.6893759417,4.265092,6.3081708,0,-0.894776,1.11847,0,130.6, 6, -2.1,0,0,1024,1024,1024,1024,0,0,0,0,127.3,0,0,96,4.123,4.121,4.123,4.127,0,0,9.099,58.64,1054.6893759417,4.265092,6,P-GPS,
11200,2025-01-13 04:37:54,0,0,4.265092,,,1054.6893759417,4.92126,0.8052984,0,0,10,2,16.45,1054.6893759417,4.265092,6.3081708,0,-0.447388,0.671082,0,131.2, 6.4, -1.1,0,0,1024,1024,1024,1165,0,0,0,21,127.3,0,0,96,4.123,4.121,4.123,4.127,0,0,9.099,58.64,1054.6893759417,4.265092,6,P-GPS,
11400,2025-01-13 04:37:55,0,0,4.265092,,,1054.6893759417,4.92126,0.3131716,0,0,11,2,16.45,1054.6893759417,4.265092,6.3081708,0,-0.223694,0.223694,0,131.2, 4, -0.9,0,0,1024,1024,1024,1408,0,0,0,58,127.9,0,0,96,4.123,4.121,4.123,4.127,0,0,9.099,58.64,1054.6893759417,4.265092,6,P-GPS,
11600,2025-01-13 04:37:55,0,0,4.265092,,,1054.6893759417,4.92126,0,0,0,11,2,16.45,1054.6893759417,4.265092,6.3081708,0,0,0,0,131.4, 2.1, -1.5,0,0,1024,1024,1004,1684,0,0,-3,100,131.5,0,0,96,4.123,4.121,4.123,4.127,0,0,9.099,58.64,1054.6893759417,4.265092,6,P-GPS,
11800,2025-01-13 04:37:55,0,0,4.265092,,,1054.6893759417,4.92126,0,0,0,11,2,16.45,1054.6893759417,4.265092,6.3081708,0,0,0,0,134.7, 0.1, -1.6,0,0,1024,1024,1024,1221,0,0,0,30,141.7,0,0,96,4.123,4.121,4.123,4.127,0,0,9.099,58.64,1054.6893759417,4.265092,6,P-GPS,
12000,2025-01-13 04:37:55,0,0,4.265092,,,1054.6893759417,4.92126,0,0,0,11,2,16.478,1054.6893759417,4.265092,6.3081708,0,0,0,0,144.8, -0.9, -2.1,0,0,1024,1024,1024,1024,0,0,0,0,149.3,0,0,96,4.114,4.12,4.118,4.122,0,0,8.032,58.82,1054.6893759417,4.265092,6,P-GPS,
12200,2025-01-13 04:37:55,0,0,4.265092,,,1054.6893759417,5.249344,0,0,0,10,2,16.478,1054.6893759417,4.265092,6.3081708,0,0,0,0,154.6, 0.4, -2.1,0,0,1024,1024,1089,632,0,0,10,-59,149.6,0,0,96,4.114,4.12,4.118,4.122,0,0,8.032,58.82,1054.6893759417,4.265092,6,P-GPS,
12400,2025-01-13 04:37:55,0,0,4.265092,,,1054.6893759417,4.92126,0,0,0,8,2,16.478,1054.6893759417,4.265092,6.3081708,0,0,0,0,153.5, 2.1, -3.1,0,0,1024,1024,1024,389,0,0,0,-96,145.3,0,0,96,4.114,4.12,4.118,4.122,0,0,8.032,58.82,1054.6893759417,4.265092,6,P-GPS,
12600,2025-01-13 04:37:56,0,0,4.265092,,,1054.6893759417,4.92126,0,0,0,8,2,16.478,1054.6893759417,4.265092,6.3081708,0,0,0,0,150.1, 3.3, -2.7,0,0,1024,1024,1024,950,0,0,0,-11,134.5,0,0,96,4.114,4.12,4.118,4.122,0,0,8.032,58.82,1054.6893759417,4.265092,6,P-GPS,
12800,2025-01-13 04:37:56,0,0,4.265092,,,1054.6893759417,4.92126,0,0,0,10,2,16.478,1054.6893759417,4.265092,6.3081708,0,0,0,0,138.6, 2.2, -4.1,0,0,1024,1455,1024,1024,0,65,0,0,129.1,0,0,96,4.114,4.12,4.118,4.122,0,0,8.032,58.82,1054.6893759417,4.265092,6,P-GPS,
13000,2025-01-13 04:37:56,0,0,4.265092,,,1054.6893759417,4.92126,0,0,0,9,2,16.46,1054.6893759417,4.265092,6.3081708,0,0,0,0,131.3, 2.7, -3.3,0,0,1024,1684,1024,1024,0,100,0,0,129,0,0,96,4.109,4.112,4.104,4.11,0,0,8.173,58.82,1054.6893759417,4.265092,6,P-GPS,
13200,2025-01-13 04:37:56,0,0,4.265092,,,1054.6893759417,4.92126,0.223694,0,0,9,2,16.46,1054.6893759417,4.265092,6.3081708,0,0,-0.223694,0,132.3, 1, 6,0,0,1024,1675,1024,1024,0,99,0,0,129,0,0,96,4.109,4.112,4.104,4.11,0,0,8.173,58.82,1054.6893759417,4.265092,6,P-GPS,
13400,2025-01-13 04:37:56,0,0,4.265092,,,1054.6893759417,4.92126,1.11847,0,0,9,2,16.46,1054.6893759417,4.265092,6.3081708,0,-0.671082,-0.894776,0,133, 0.5, 21.3,0,0,1024,1448,1024,1024,0,64,0,0,129,0,0,96,4.109,4.112,4.104,4.11,0,0,8.173,58.82,1054.6893759417,4.265092,6,P-GPS,
13600,2025-01-13 04:37:57,0,0,4.265092,,,1054.6893759417,4.92126,3.3330406,0,0,9,2,16.46,1054.6893759417,4.265092,6.3081708,0,-2.23694,-2.460634,0,131.5, 0, 23.5,0,0,1024,1451,1024,1024,0,65,0,0,129,0,0,96,4.109,4.112,4.104,4.11,0,0,8.173,58.82,1054.6893759417,4.265092,6,P-GPS,
13800,2025-01-13 04:37:57,0,0,4.265092,,,1054.6893759417,4.92126,4.7423128,0,0,9,2,16.46,1054.6893759417,4.265092,6.3081708,0,-3.35541,-3.35541,0,132.5, -0.1, 9.5,0,0,1024,1349,1024,1024,0,49,0,0,129,0,0,96,4.109,4.112,4.104,4.11,0,0,8.173,58.82,1054.6893759417,4.265092,6,P-GPS,
14000,2025-01-13 04:37:57,0,0,4.265092,,,1054.6893759417,4.92126,5.0554844,0,0,9,2,16.436,1054.6893759417,4.265092,6.3081708,0,-3.579104,-3.579104,0,133.4, -0.2, 2.6,0,0,1024,1024,1024,1024,0,0,0,0,129,0,0,96,4.103,4.098,4.092,4.095,0,0,8.458,58.82,1054.6893759417,4.265092,6,P-GPS,
14200,2025-01-13 04:37:57,0,0,4.265092,,,1054.6893759417,4.92126,5.368656,0,0,10,2,16.436,1054.6893759417,4.265092,6.3081708,0,-3.802798,-3.802798,0,132.8, 0, 2.3,0,0,1024,1024,1024,1024,0,0,0,0,129,0,0,96,4.103,4.098,4.092,4.095,0,0,8.458,58.82,1054.6893759417,4.265092,6,P-GPS,
14400,2025-01-13 04:37:57,0,0,4.265092,,,1054.6893759417,4.92126,5.0554844,0,0,10,2,16.436,1054.6893759417,4.265092,6.3081708,0,-3.579104,-3.579104,0,133.2, 0, -19,0,0,1024,1024,1024,1024,0,0,0,0,129,0,0,96,4.103,4.098,4.092,4.095,0,0,8.458,58.82,1054.6893759417,4.265092,6,P-GPS,
14600,2025-01-13 04:37:58,0,0,4.265092,,,1054.6893759417,4.92126,3.019869,0,0,10,2,16.436,1054.6893759417,4.265092,6.3081708,0,-2.013246,-2.23694,0,134, -0.3, -26.9,0,0,1024,1024,1177,1024,0,0,23,0,129,0,0,96,4.103,4.098,4.092,4.095,0,0,8.458,58.82,1054.6893759417,4.265092,6,P-GPS,
14800,2025-01-13 04:37:58,0,0,4.265092,,,1054.6893759417,4.92126,1.11847,0,0,13,2,16.436,1054.6893759417,4.265092,6.3081708,0,-0.671082,-0.894776,0,133.8, -0.7, -15.5,0,0,1024,1024,1244,1024,0,0,33,0,129,0,0,96,4.103,4.098,4.092,4.095,0,0,8.458,58.82,1054.6893759417,4.265092,6,P-GPS,
15000,2025-01-13 04:37:58,0,0,4.265092,,,1054.6893759417,4.92126,0.223694,0,0,11,2,16.456,1054.6893759417,4.265092,6.3081708,0,0,-0.223694,-0.223694,132.4, -1.5, -7.1,0,0,1024,1024,1369,1024,0,0,52,0,129,0,0,96,4.108,4.109,4.102,4.102,0,0,8.697,59,1054.6893759417,4.265092,6,P-GPS,
15200,2025-01-13 04:37:58,0,0,4.593176,,,1055.0174599417,5.249344,0,0,0,10,2,16.456,1055.0174599417,4.593176,6.3081708,0,0,0,-1.342164,132.6, -1.4, -3.5,0,0,1024,1024,1396,1024,0,0,56,0,129,0,0,96,4.108,4.109,4.102,4.102,0,0,8.697,59,1055.0174599417,4.593176,6,P-GPS,
15400,2025-01-13 04:37:58,0,0,5.249344,,,1055.6736279417,5.905512,0,0,0,10,2,16.456,1055.6736279417,5.249344,6.3081708,0,0,0,-2.908022,133, -1.3, -2.1,0,0,1024,1024,1395,1024,0,0,56,0,129,0,0,96,4.108,4.109,4.102,4.102,0,0,8.697,59,1055.6736279417,5.249344,6,P-GPS,
15600,2025-01-13 04:37:59,0,0,6.233596,,,1056.6578799417,6.889764,0,0,0,11,2,16.456,1056.6578799417,6.233596,6.3081708,0,0,0,-3.802798,132.8, -0.3, -2.5,0,0,1024,1024,1374,1024,0,0,53,0,129,0,0,96,4.108,4.109,4.102,4.102,0,0,8.697,59,1056.6578799417,6.233596,6,P-GPS,
15800,2025-01-13 04:37:59,0,0,7.545932,,,1057.9702159417,8.2021,0,0,0,11,2,16.456,1057.9702159417,7.545932,6.3081708,0,0,0,-4.026492,132.9, 0.3, -2.2,0,0,1024,1024,1365,1024,0,0,52,0,129,0,0,96,4.108,4.109,4.102,4.102,0,0,8.697,59,1057.9702159417,7.545932,6,P-GPS,
16000,2025-01-13 04:37:59,0,0,8.530184,,,1058.9544679417,9.186352,0,0,0,11,2,16.396,1058.9544679417,8.530184,6.3081708,0,0,0,-3.579104,132.8, -0.1, -1.3,0,0,1024,1024,1359,1024,0,0,51,0,129,0,0,96,4.045,4.047,4.053,4.066,0,0,10.078,59,1058.9544679417,8.530184,6,P-GPS,
16200,2025-01-13 04:37:59,0,0,9.514436,,,1059.9387199417,10.170604,0,0,0,11,2,16.396,1059.9387199417,9.514436,6.3081708,0,0,0,-3.35541,132.9, -0.7, -1,0,0,1024,1024,1355,1024,0,0,50,0,129,0,0,96,4.045,4.047,4.053,4.066,0,0,10.078,59,1059.9387199417,9.514436,6,P-GPS,
16400,2025-01-13 04:37:59,0,0,10.498688,,,1060.9229719417,11.154856,0,0,0,11,2,16.396,1060.9229719417,10.498688,6.3081708,0,0,0,-3.131716,133.1, -0.5, -1.3,0,0,1024,1024,1354,1024,0,0,50,0,129,0,0,96,4.045,4.047,4.053,4.066,0,0,10.078,59,1060.9229719417,10.498688,6,P-GPS,
16600,2025-01-13 04:38:00,0,0,11.48294,,,1061.9072239417,12.139108,0,0,0,12,2,16.396,1061.9072239417,11.48294,6.3081708,0,0,0,-3.131716,133.2, -0.7, -1.3,0,0,1024,1024,1348,1024,0,0,49,0,129,0,0,96,4.045,4.047,4.053,4.066,0,0,10.078,59,1061.9072239417,11.48294,6,P-GPS,
16800,2025-01-13 04:38:00,0,0,12.467192,,,1062.8914759417,12.795276,0,0,0,13,2,16.396,1062.8914759417,12.467192,6.3081708,0,0,0,-2.908022,133.3, 0, -0.6,0,0,1024,1024,1300,1024,0,0,42,0,129,0,0,96,4.045,4.047,4.053,4.066,0,0,10.078,59,1062.8914759417,12.467192,6,P-GPS,
17000,2025-01-13 04:38:00,0,0,13.12336,,,1063.5476439417,13.779528,0,0,0,12,2,16.44,1063.5476439417,13.12336,6.3081708,0,0,0,-2.908022,133.3, 0.1, 0.7,0,0,1024,1024,1283,1024,0,0,39,0,129,0,0,95,4.114,4.112,4.109,4.113,0,0,9.764,59,1063.5476439417,13.12336,6,P-GPS,
17200,2025-01-13 04:38:00,0,0,13.451444,,,1063.8757279417,14.76378,0,0,0,12,2,16.44,1063.8757279417,13.451444,6.3081708,0,0,0,-2.23694,133.2, 0.1, 0.3,0,0,1024,1024,1299,1024,0,0,42,0,129,0,0,95,4.114,4.112,4.109,4.113,0,0,9.764,59,1063.8757279417,13.451444,6,P-GPS,
17400,2025-01-13 04:38:00,0,0,14.435696,,,1064.8599799417,15.419948,0,0,0,11,2,16.44,1064.8599799417,14.435696,6.3081708,0,0,0,-2.013246,133.2, 0, -0.8,0,0,1024,1024,1332,1024,0,0,47,0,129,0,0,95,4.114,4.112,4.109,4.113,0,0,9.764,59,1064.8599799417,14.435696,6,P-GPS,
17600,2025-01-13 04:38:01,0,0,15.091864,,,1065.5161479417,15.748032,0,0,0,12,2,16.44,1065.5161479417,15.091864,6.3081708,0,0,0,-2.013246,133.3, -0.2, -1.5,0,0,1024,1024,1336,1024,0,0,47,0,129,0,0,95,4.114,4.112,4.109,4.113,0,0,9.764,59,1065.5161479417,15.091864,6,P-GPS,
17800,2025-01-13 04:38:01,0,0,15.748032,,,1066.1723159417,16.732284,0,0,0,12,2,16.44,1066.1723159417,15.748032,6.3081708,0,0,0,-2.460634,133.1, -1.2, -1.3,0,0,1024,1024,1241,1024,0,0,33,0,129,0,0,95,4.114,4.112,4.109,4.113,0,0,9.764,59,1066.1723159417,15.748032,6,P-GPS,
18000,2025-01-13 04:38:01,0,0,16.4042,,,1066.8284839417,17.388452,0,0,0,12,2,16.458,1066.8284839417,16.4042,6.3081708,0,0,0,-2.684328,132.2, -0.8, -0.2,0,0,1209,1024,1024,1024,28,0,0,0,129,0,0,95,4.115,4.111,4.107,4.112,0,0,7.703,59.36,1066.8284839417,16.4042,6,P-GPS,
18200,2025-01-13 04:38:01,0,0,17.060368,,,1067.4846519417,18.04462,0,0,0,12,2,16.458,1067.4846519417,17.060368,6.3081708,0,0,0,-1.11847,132.4, -1.4, 1.4,0,0,1379,1024,1024,1024,54,0,0,0,129,0,0,95,4.115,4.111,4.107,4.112,0,0,7.703,59.36,1067.4846519417,17.060368,6,P-GPS,
18400,2025-01-13 04:38:01,0,0,17.060368,,,1067.4846519417,18.04462,0,0,0,12,2,16.458,1067.4846519417,17.060368,6.3081708,0,0,0,-0.223694,132.2, -5.1, 2.1,0,0,1369,1024,1024,1024,52,0,0,0,129,0,0,95,4.115,4.111,4.107,4.112,0,0,7.703,59.36,1067.4846519417,17.060368,6,P-GPS,
18600,2025-01-13 04:38:02,0,0,17.060368,,,1067.4846519417,18.04462,0.4921268,0,0,11,2,16.458,1067.4846519417,17.060368,6.3081708,0,-0.223694,0.447388,0,132.5, -9.7, 1.3,0,0,1355,1024,1024,1024,50,0,0,0,129,0,0,95,4.115,4.111,4.107,4.112,0,0,7.703,59.36,1067.4846519417,17.060368,6,P-GPS,
18800,2025-01-13 04:38:02,0,0,17.060368,,,1067.4846519417,18.04462,1.11847,0,0,10,2,16.458,1067.4846519417,17.060368,6.3081708,0,-0.671082,0.894776,0,132.8, -10.6, 1.7,0,0,1352,1024,1024,1024,50,0,0,0,129,0,0,95,4.115,4.111,4.107,4.112,0,0,7.703,59.36,1067.4846519417,17.060368,6,P-GPS,
19000,2025-01-13 04:38:02,0,0,17.060368,,,1067.4846519417,18.04462,1.901399,0,0,12,2,16.374,1067.4846519417,17.060368,6.3081708,0,-1.342164,1.342164,0,132.8, -8.9, 2.6,0,0,1350,1024,1024,1024,49,0,0,0,129,0,0,95,4.131,4.125,4.117,4.119,0,0,7.904,59.36,1067.4846519417,17.060368,6,P-GPS,
19200,2025-01-13 04:38:02,0,0,16.732284,,,1067.1565679417,18.372704,2.3711564,0,0,12,2,16.374,1067.4846519417,17.060368,6.3081708,0,-1.789552,1.565858,0,132.8, -7.8, 0.1,0,0,1334,1024,1024,1024,47,0,0,0,129,0,0,95,4.131,4.125,4.117,4.119,0,0,7.904,59.36,1067.1565679417,16.732284,6,P-GPS,
19400,2025-01-13 04:38:02,0,0,16.732284,,,1067.1565679417,18.372704,2.8409138,0,0,12,2,16.374,1067.4846519417,17.060368,6.3081708,0,-2.013246,2.013246,0,132.6, -6.5, -1,0,0,1199,1024,1024,1024,27,0,0,0,129,0,0,95,4.131,4.125,4.117,4.119,0,0,7.904,59.36,1067.1565679417,16.732284,6,P-GPS,
19600,2025-01-13 04:38:03,0,0,16.732284,,,1067.1565679417,18.372704,3.3330406,0,0,12,2,16.374,1067.4846519417,17.060368,6.3081708,0,-2.23694,2.460634,0,132.6, -6.2, 0.1,0,0,1024,1024,1024,1024,0,0,0,0,129,0,0,95,4.131,4.125,4.117,4.119,0,0,7.904,59.36,1067.1565679417,16.732284,6,P-GPS,
19800,2025-01-13 04:38:03,0,0,16.732284,,,1067.1565679417,18.372704,3.6462122,0,0,12,2,16.374,1067.4846519417,17.060368,6.3081708,0,-2.460634,2.684328,0,132.7, 5.1, 0.4,0,0,1024,1024,1024,1024,0,0,0,0,129,0,0,95,4.131,4.125,4.117,4.119,0,0,7.904,59.36,1067.1565679417,16.732284,6,P-GPS,
20000,2025-01-13 04:38:03,0,0,16.732284,,,1067.1565679417,18.04462,2.3711564,0,0,11,2,16.408,1067.4846519417,17.060368,6.3081708,0,-1.565858,1.789552,0,133.1, 19.2, 0.5,0,0,1031,1024,1024,1024,1,0,0,0,129,0,0,95,4.101,4.1,4.099,4.105,0,0,7.72,59.36,1067.1565679417,16.732284,6,P-GPS,
20400,2025-01-13 04:38:03,0,0,16.4042,,,1066.8284839417,18.04462,0.4921268,0,0,12,2,16.408,1067.4846519417,17.060368,6.3081708,0,-0.447388,0.223694,0,132.2, 6.4, 1.7,0,0,1305,1024,1024,1024,43,0,0,0,129,0,0,95,4.101,4.1,4.099,4.105,0,0,7.72,59.36,1066.8284839417,16.4042,6,P-GPS,
20600,2025-01-13 04:38:04,0,0,16.4042,,,1066.8284839417,18.04462,0.3131716,0,0,11,2,16.408,1067.4846519417,17.060368,6.3081708,0,-0.223694,0.223694,0,127.4, 1.9, -0.8,0,0,1316,1024,1024,1024,44,0,0,0,129,0,0,95,4.101,4.1,4.099,4.105,0,0,7.72,59.36,1066.8284839417,16.4042,6,P-GPS,
20800,2025-01-13 04:38:04,0,0,16.4042,,,1066.8284839417,18.04462,0.3131716,0,0,9,2,16.408,1067.4846519417,17.060368,6.3081708,0,-0.223694,0.223694,0,123.2, -2.7, -0.9,0,0,1069,1041,1024,1024,7,3,0,0,129,0,0,95,4.101,4.1,4.099,4.105,0,0,7.72,59.36,1066.8284839417,16.4042,6,P-GPS,
21000,2025-01-13 04:38:04,0,0,16.4042,,,1066.8284839417,18.04462,0.8052984,0,0,10,2,16.35,1067.4846519417,17.060368,6.3081708,0,-0.447388,0.671082,0,123.2, -3.7, -0.1,0,0,1077,1373,1024,1024,8,53,0,0,129,0,0,95,4.086,4.088,4.088,4.092,0,0,8.713,59.54,1066.8284839417,16.4042,6,P-GPS,
21200,2025-01-13 04:38:04,0,0,16.4042,,,1066.8284839417,18.04462,1.11847,0,0,10,2,16.35,1067.4846519417,17.060368,6.3081708,0,-0.671082,0.894776,0,123.1, 2.3, -0.2,0,0,1078,1374,1024,1024,8,53,0,0,129,0,0,95,4.086,4.088,4.088,4.092,0,0,8.713,59.54,1066.8284839417,16.4042,6,P-GPS,
21400,2025-01-13 04:38:04,0,0,16.4042,,,1066.8284839417,18.04462,1.11847,0,0,12,2,16.35,1067.4846519417,17.060368,6.3081708,0,-0.671082,0.894776,0,123.3, 4.4, 2.4,0,0,1075,1367,1024,1024,8,52,0,0,129,0,0,95,4.086,4.088,4.088,4.092,0,0,8.713,59.54,1066.8284839417,16.4042,6,P-GPS,
21600,2025-01-13 04:38:05,0,0,16.732284,,,1067.1565679417,18.372704,1.11847,0,0,12,2,16.35,1067.4846519417,17.060368,6.3081708,0,-0.894776,0.671082,0,123.1, 4.3, 5.3,0,0,1066,1368,1024,1024,6,52,0,0,129,0,0,95,4.086,4.088,4.088,4.092,0,0,8.713,59.54,1067.1565679417,16.732284,6,P-GPS,
21800,2025-01-13 04:38:05,0,0,16.732284,,,1067.1565679417,18.372704,1.2079476,0,0,13,2,16.35,1067.4846519417,17.060368,6.3081708,0,-1.11847,0.447388,0,122.9, 4.9, 7.2,0,0,1078,1424,1024,1024,8,61,0,0,129,0,0,95,4.086,4.088,4.088,4.092,0,0,8.713,59.54,1067.1565679417,16.732284,6,P-GPS,
22000,2025-01-13 04:38:05,0,0,16.732284,,,1067.1565679417,18.372704,1.342164,0,0,12,2,16.361,1067.4846519417,17.060368,6.3081708,0,-1.342164,0,0,123.2, 4.5, 6.4,0,0,1072,1392,1024,1024,7,56,0,0,129,0,0,95,4.085,4.086,4.084,4.087,0,0,9.014,59.72,1067.1565679417,16.732284,6,P-GPS,
22200,2025-01-13 04:38:05,0,0,16.732284,,,1067.1565679417,18.372704,1.8119214,0,0,12,2,16.361,1067.4846519417,17.060368,6.3081708,0,-1.789552,-0.223694,0,123.3, 3.6, 7.1,0,0,1057,1367,1024,1024,5,52,0,0,129,0,0,95,4.085,4.086,4.084,4.087,0,0,9.014,59.72,1067.1565679417,16.732284,6,P-GPS,
22400,2025-01-13 04:38:06,0,0,16.732284,,,1067.1565679417,18.372704,2.2816788,0,0,13,2,16.361,1067.4846519417,17.060368,6.3081708,0,-2.23694,-0.447388,0,122.8, 3.1, 9.6,0,0,1051,1346,1024,1024,4,49,0,0,129,0,0,95,4.085,4.086,4.084,4.087,0,0,9.014,59.72,1067.1565679417,16.732284,6,P-GPS,
22600,2025-01-13 04:38:06,0,0,17.060368,,,1067.4846519417,18.372704,2.7738056,0,0,13,2,16.361,1067.4846519417,17.060368,6.3081708,0,-2.684328,-0.671082,0,122.7, 4.5, 8.5,0,0,1042,1336,1024,1024,3,47,0,0,129,0,0,95,4.085,4.086,4.084,4.087,0,0,9.014,59.72,1067.4846519417,17.060368,6,P-GPS,
22800,2025-01-13 04:38:06,0,0,17.388452,,,1067.8127359417,18.372704,3.0422384,0,0,13,2,16.361,1067.8127359417,17.388452,6.3081708,0,-2.908022,-0.894776,0,123.6, 5.6, 4.3,0,0,1034,1315,1024,1024,2,44,0,0,129,0,0,95,4.085,4.086,4.084,4.087,0,0,9.014,59.72,1067.8127359417,17.388452,6,P-GPS,
23000,2025-01-13 04:38:06,0,0,17.388452,,,1067.8127359417,18.372704,2.9751302,0,0,13,2,16.334,1067.8127359417,17.388452,6.3081708,0,-2.908022,-0.671082,0,116.2, 3.8, 8.1,0,0,1024,1253,1024,1024,0,35,0,0,129,0,0,95,4.088,4.087,4.082,4.081,0,0,9.105,59.72,1067.8127359417,17.388452,6,P-GPS,
23200,2025-01-13 04:38:06,0,0,17.388452,,,1067.8127359417,18.372704,3.4225182,0,0,11,2,16.334,1067.8127359417,17.388452,6.3081708,0,-3.35541,-0.671082,0,113, 4.4, 9,0,0,1024,1163,1024,1024,0,21,0,0,129,0,0,95,4.088,4.087,4.082,4.081,0,0,9.105,59.72,1067.8127359417,17.388452,6,P-GPS,
23400,2025-01-13 04:38:06,0,0,17.716536,,,1068.1408199417,18.372704,3.7580592,0,0,12,2,16.334,1068.1408199417,17.716536,6.3081708,0,-3.579104,-1.11847,0,114.6, 4.7, 6.4,0,0,1024,1088,1024,1024,0,10,0,0,129,0,0,95,4.088,4.087,4.082,4.081,0,0,9.105,59.72,1068.1408199417,17.716536,6,P-GPS,
23600,2025-01-13 04:38:07,0,0,17.716536,,,1068.1408199417,18.372704,3.8251674,0,0,12,2,16.334,1068.1408199417,17.716536,6.3081708,0,-3.579104,-1.342164,0,114.4, 2.1, 4.2,0,0,1024,1024,1024,1024,0,0,0,0,129,0,0,95,4.088,4.087,4.082,4.081,0,0,9.105,59.72,1068.1408199417,17.716536,6,P-GPS,
23800,2025-01-13 04:38:07,0,0,17.716536,,,1068.1408199417,18.372704,3.5343652,0,0,12,2,16.334,1068.1408199417,17.716536,6.3081708,0,-3.35541,-1.11847,0,114, 1.9, -0.2,0,0,1024,1024,1024,1024,0,0,0,0,129,0,0,95,4.088,4.087,4.082,4.081,0,0,9.105,59.72,1068.1408199417,17.716536,6,P-GPS,
24000,2025-01-13 04:38:07,0,0,17.716536,,,1068.1408199417,18.372704,2.6172198,0,0,11,2,16.334,1068.1408199417,17.716536,6.3081708,0,-2.460634,-0.894776,0,113.8, 3.2, -15,0,0,1024,1024,1145,1024,0,0,18,0,129,0,0,95,4.088,4.087,4.082,4.081,0,0,9.105,59.72,1068.1408199417,17.716536,6,P-GPS,
24200,2025-01-13 04:38:07,0,0,17.716536,,,1068.1408199417,18.04462,1.3645334,0,0,10,2,16.385,1068.1408199417,17.716536,6.3081708,0,-1.342164,-0.223694,0,114.4, 5.1, -10.1,0,0,1024,1024,1237,1024,0,0,32,0,129,0,0,95,4.101,4.097,4.099,4.103,0,0,8.939,59.72,1068.1408199417,17.716536,6,P-GPS,
24400,2025-01-13 04:38:07,0,0,17.716536,,,1068.1408199417,14.107612,0.4921268,0,0,10,2,16.385,1068.1408199417,17.716536,6.3081708,0,-0.447388,-0.223694,-0.223694,114.5, 4, -3.3,0,0,1024,1024,1242,1024,0,0,33,0,129,0,0,95,4.101,4.097,4.099,4.103,0,0,8.939,59.72,1068.1408199417,17.716536,6,P-GPS,
24600,2025-01-13 04:38:08,0,0,17.716536,,,1068.1408199417,14.76378,0.223694,0,0,11,2,16.385,1068.1408199417,17.716536,6.3081708,0,-0.223694,0,-0.894776,112.2, 3.1, -0.4,0,0,1024,1024,1243,1024,0,0,33,0,129,0,0,95,4.101,4.097,4.099,4.103,0,0,8.939,59.72,1068.1408199417,17.716536,6,P-GPS,
24800,2025-01-13 04:38:08,0,0,18.04462,,,1068.4689039417,18.04462,0.223694,0,0,9,2,16.385,1068.4689039417,18.04462,6.3081708,0,-0.223694,0,-1.11847,111, 2.8, -0.4,0,0,1024,1024,1243,1024,0,0,33,0,129,0,0,95,4.101,4.097,4.099,4.103,0,0,8.939,59.72,1068.4689039417,18.04462,6,P-GPS,
25000,2025-01-13 04:38:08,0,0,18.700788,,,1069.1250719417,18.700788,0.223694,0,0,11,2,16.385,1069.1250719417,18.700788,6.3081708,0,-0.223694,0,-1.342164,110.7, 4.2, -1.1,0,0,1024,1024,1239,1024,0,0,33,0,129,0,0,95,4.101,4.097,4.099,4.103,0,0,8.939,59.72,1069.1250719417,18.700788,6,P-GPS,
25200,2025-01-13 04:38:08,0,0,19.028872,,,1069.4531559417,19.028872,0,0,0,12,2,16.385,1069.4531559417,19.028872,6.3081708,0,0,0,-1.342164,110.7, 4.5, -1.2,0,0,1024,1024,1232,1024,0,0,32,0,129,0,0,95,4.101,4.097,4.099,4.103,0,0,8.939,59.72,1069.4531559417,19.028872,6,P-GPS,
25400,2025-01-13 04:38:08,0,0,19.356956,,,1069.7812399417,19.68504,0,0,0,12,2,16.385,1069.7812399417,19.356956,6.3081708,0,0,0,-1.342164,110.7, 5, 0.5,0,0,1024,1024,1024,1024,0,0,0,0,129,0,0,95,4.101,4.097,4.099,4.103,0,0,8.939,59.72,1069.7812399417,19.356956,6,P-GPS,
25600,2025-01-13 04:38:09,0,0,20.013124,,,1070.4374079417,20.013124,0,0,0,11,2,16.385,1070.4374079417,20.013124,6.3081708,0,0,0,-1.11847,111.2, 4.5, 2,0,0,1024,1024,1024,1024,0,0,0,0,129,0,0,95,4.101,4.097,4.099,4.103,0,0,8.939,59.72,1070.4374079417,20.013124,6,P-GPS,
25800,2025-01-13 04:38:09,0,0,20.013124,,,1070.4374079417,20.341208,0.223694,0,0,11,2,16.345,1070.4374079417,20.013124,6.3081708,0,0.223694,0,-0.447388,111.1, 3.3, 3.2,0,0,1024,1024,1024,1056,0,0,0,5,129,0,0,95,4.09,4.091,4.091,4.097,0,0,9.429,59.9,1070.4374079417,20.013124,6,P-GPS,
26000,2025-01-13 04:38:09,0,0,20.341208,,,1070.7654919417,20.669292,0.223694,0,0,8,2,16.345,1070.7654919417,20.341208,6.3081708,0,0.223694,0,0,110.9, 1.8, 4.3,0,0,1024,1024,1024,1024,0,0,0,0,129,0,0,95,4.09,4.091,4.091,4.097,0,0,9.429,59.9,1070.7654919417,20.341208,6,P-GPS,
26200,2025-01-13 04:38:09,0,0,20.341208,,,1070.7654919417,20.669292,0,0,0,9,2,16.345,1070.7654919417,20.341208,6.3081708,0,0,0,0,111, 2.9, 4.1,0,0,1024,1024,1024,1297,0,0,0,41,129.1,0,0,95,4.09,4.091,4.091,4.097,0,0,9.429,59.9,1070.7654919417,20.341208,6,P-GPS,
26400,2025-01-13 04:38:10,0,0,20.341208,,,1070.7654919417,20.669292,0,0,0,10,2,16.345,1070.7654919417,20.341208,6.3081708,0,0,0,0,111.3, 4.4, 3.2,0,0,1024,1024,1024,1684,0,0,0,100,130.9,0,0,95,4.09,4.091,4.091,4.097,0,0,9.429,59.9,1070.7654919417,20.341208,6,P-GPS,
26600,2025-01-13 04:38:10,0,0,20.341208,,,1070.7654919417,20.669292,0,0,0,10,2,16.345,1070.7654919417,20.341208,6.3081708,0,0,0,0,112.3, 4.2, 3,0,0,1024,1024,1024,1684,0,0,0,100,140.9,0,0,95,4.09,4.091,4.091,4.097,0,0,9.429,59.9,1070.7654919417,20.341208,6,P-GPS,
26800,2025-01-13 04:38:10,0,0,20.341208,,,1070.7654919417,20.669292,0,0,0,10,2,16.386,1070.7654919417,20.341208,6.3081708,0,0,0,0,122.1, 3.7, 2.9,0,0,1024,1024,1024,1684,0,0,0,100,152.9,0,0,95,4.092,4.091,4.088,4.093,0,0,7.765,60.08,1070.7654919417,20.341208,6,P-GPS,
27000,2025-01-13 04:38:10,0,0,20.341208,,,1070.7654919417,20.997376,0,0,0,11,2,16.386,1070.7654919417,20.341208,6.3081708,0,0,0,0,134.6, 2.2, 2.4,0,0,1024,1024,1024,1684,0,0,0,100,164.9,0,0,95,4.092,4.091,4.088,4.093,0,0,7.765,60.08,1070.7654919417,20.341208,6,P-GPS,
27200,2025-01-13 04:38:10,0,0,20.341208,,,1070.7654919417,20.997376,0,0,0,11,2,16.386,1070.7654919417,20.341208,6.3081708,0,0,0,0,146, 0.7, 2.4,0,0,1024,1024,1024,1684,0,0,0,100,176.9,0,0,95,4.092,4.091,4.088,4.093,0,0,7.765,60.08,1070.7654919417,20.341208,6,P-GPS,
27400,2025-01-13 04:38:11,0,0,20.341208,,,1070.7654919417,20.669292,0,0,0,12,2,16.386,1070.7654919417,20.341208,6.3081708,0,0,0,0,158, 0.2, 3.1,0,0,1024,1024,1024,1684,0,0,0,100,188.9,0,0,95,4.092,4.091,4.088,4.093,0,0,7.765,60.08,1070.7654919417,20.341208,6,P-GPS,
27600,2025-01-13 04:38:11,0,0,20.669292,,,1071.0935759417,20.997376,0.223694,0,0,12,2,16.386,1071.0935759417,20.669292,6.3081708,0,0.223694,0,0,169.9, -0.5, 4.1,0,0,1024,1024,1024,1684,0,0,0,100,200.9,0,0,95,4.092,4.091,4.088,4.093,0,0,7.765,60.08,1071.0935759417,20.669292,6,P-GPS,
27800,2025-01-13 04:38:11,0,0,20.669292,,,1071.0935759417,20.997376,0,0,0,11,2,16.374,1071.0935759417,20.669292,6.3081708,0,0,0,0,182, -1.9, 4.1,0,0,1024,1024,1024,1684,0,0,0,100,212.9,0,0,95,4.093,4.093,4.092,4.097,0,0,8.404,60.08,1071.0935759417,20.669292,6,P-GPS,
28000,2025-01-13 04:38:11,0,0,20.669292,,,1071.0935759417,20.669292,0.223694,0,0,11,2,16.374,1071.0935759417,20.669292,6.3081708,0,0,0.223694,0,194.1, -2.6, 4.3,0,0,1024,1024,1024,1684,0,0,0,100,224.9,0,0,95,4.093,4.093,4.092,4.097,0,0,8.404,60.08,1071.0935759417,20.669292,6,P-GPS,
28200,2025-01-13 04:38:11,0,0,20.669292,,,1071.0935759417,20.669292,0,0,0,8,2,16.374,1071.0935759417,20.669292,6.3081708,0,0,0,0,206, -4, 3.9,0,0,1024,1024,1024,1684,0,0,0,100,236.9,0,0,95,4.093,4.093,4.092,4.097,0,0,8.404,60.08,1071.0935759417,20.669292,6,P-GPS,
28400,2025-01-13 04:38:11,0,0,20.669292,,,1071.0935759417,20.669292,0,0,0,11,2,16.374,1071.0935759417,20.669292,6.3081708,0,0,0,0,218, -4, 1.7,0,0,1024,1024,1024,1684,0,0,0,100,248.9,0,0,95,4.093,4.093,4.092,4.097,0,0,8.404,60.08,1071.0935759417,20.669292,6,P-GPS,
28600,2025-01-13 04:38:12,0,0,20.669292,,,1071.0935759417,20.997376,0,0,0,12,2,16.374,1071.0935759417,20.669292,6.3081708,0,0,0,0,230.1, -2.6, -0.1,0,0,1024,1024,1024,1684,0,0,0,100,260.9,0,0,95,4.093,4.093,4.092,4.097,0,0,8.404,60.08,1071.0935759417,20.669292,6,P-GPS,
28800,2025-01-13 04:38:12,0,0,20.669292,,,1071.0935759417,20.669292,0,0,0,11,2,16.38,1071.0935759417,20.669292,6.3081708,0,0,0,0,242.4, -1.5, 0.3,0,0,1024,1024,1024,1684,0,0,0,100,272.9,0,0,95,4.099,4.1,4.096,4.104,0,0,8.244,60.26,1071.0935759417,20.669292,6,P-GPS,
29000,2025-01-13 04:38:12,0,0,20.669292,,,1071.0935759417,20.997376,0,0,0,11,2,16.38,1071.0935759417,20.669292,6.3081708,0,0,0,0,254.2, -1, 0.4,0,0,1024,1024,1024,1684,0,0,0,100,284.9,0,0,95,4.099,4.1,4.096,4.104,0,0,8.244,60.26,1071.0935759417,20.669292,6,P-GPS,
29200,2025-01-13 04:38:12,0,0,20.669292,,,1071.0935759417,20.997376,0,0,0,11,2,16.38,1071.0935759417,20.669292,6.3081708,0,0,0,0,265.9, -0.7, -0.7,0,0,1024,1024,1024,1109,0,0,0,13,296.6,0,0,95,4.099,4.1,4.096,4.104,0,0,8.244,60.26,1071.0935759417,20.669292,6,P-GPS,
29400,2025-01-13 04:38:12,0,0,20.669292,,,1071.0935759417,20.997376,0.223694,0,0,12,2,16.38,1071.0935759417,20.669292,6.3081708,0,-0.223694,0,0,278, -1.3, -0.4,0,0,1024,1024,1024,1024,0,0,0,0,300,0,0,95,4.099,4.1,4.096,4.104,0,0,8.244,60.26,1071.0935759417,20.669292,6,P-GPS,
29600,2025-01-13 04:38:13,0,0,20.669292,,,1071.0935759417,20.997376,0.223694,0,0,13,2,16.38,1071.0935759417,20.669292,6.3081708,0,-0.223694,0,0,282.5, -4, 1,0,0,1024,1024,1024,1420,0,0,0,60,300,0,0,95,4.099,4.1,4.096,4.104,0,0,8.244,60.26,1071.0935759417,20.669292,6,P-GPS,
29800,2025-01-13 04:38:13,0,0,20.669292,,,1071.0935759417,20.997376,0,0,0,14,2,16.401,1071.0935759417,20.669292,6.3081708,0,0,0,0,281.9, -3.8, -1.1,0,0,1024,1024,1024,1357,0,0,0,50,302.9,0,0,95,4.099,4.097,4.092,4.1,0,0,7.876,60.26,1071.0935759417,20.669292,6,P-GPS,
30000,2025-01-13 04:38:13,0,0,20.669292,,,1071.0935759417,20.997376,0,0,0,13,2,16.401,1071.0935759417,20.669292,6.3081708,0,0,0,0,283.8, -4, -1.8,0,0,1024,1024,1024,1024,0,0,0,0,307.9,0,0,95,4.099,4.097,4.092,4.1,0,0,7.876,60.26,1071.0935759417,20.669292,6,P-GPS,
30200,2025-01-13 04:38:13,0,0,20.669292,,,1071.0935759417,20.997376,0.223694,0,0,14,2,16.401,1071.0935759417,20.669292,6.3081708,0,-0.223694,0,0,290.5, -3.8, -0.9,0,0,1024,1024,1024,1024,0,0,0,0,308.1,0,0,95,4.099,4.097,4.092,4.1,0,0,7.876,60.26,1071.0935759417,20.669292,6,P-GPS,
30400,2025-01-13 04:38:13,0,0,20.669292,,,1071.0935759417,20.997376,0,0,0,13,2,16.401,1071.0935759417,20.669292,6.3081708,0,0,0,0,289.9, -3.4, -0.7,0,0,1024,1024,1024,1024,0,0,0,0,308.1,0,0,95,4.099,4.097,4.092,4.1,0,0,7.876,60.26,1071.0935759417,20.669292,6,P-GPS,
30600,2025-01-13 04:38:14,0,0,20.669292,,,1071.0935759417,20.997376,0,0,0,13,2,16.401,1071.0935759417,20.669292,6.3081708,0,0,0,0,289.9, -3.6, -1.2,0,0,1024,926,1024,1024,0,-15,0,0,308.1,0,0,95,4.099,4.097,4.092,4.1,0,0,7.876,60.26,1071.0935759417,20.669292,6,P-GPS,
30800,2025-01-13 04:38:14,0,0,20.341208,,,1070.7654919417,20.997376,0,0,0,14,2,16.402,1071.0935759417,20.669292,6.3081708,0,0,0,0,289.9, -3.1, -2,0,0,1024,772,1024,1024,0,-38,0,0,308.1,0,0,95,4.104,4.103,4.1,4.104,0,0,8.107,60.44,1070.7654919417,20.341208,6,P-GPS,
31000,2025-01-13 04:38:14,0,0,20.341208,,,1070.7654919417,20.997376,0,0,0,14,2,16.402,1071.0935759417,20.669292,6.3081708,0,0,0,0,289.9, -3.2, -3.2,0,0,1024,771,1024,1024,0,-38,0,0,308.1,0,0,95,4.104,4.103,4.1,4.104,0,0,8.107,60.44,1070.7654919417,20.341208,6,P-GPS,
31200,2025-01-13 04:38:14,0,0,20.341208,,,1070.7654919417,20.997376,0.223694,0,0,14,2,16.402,1071.0935759417,20.669292,6.3081708,0,-0.223694,0,0,290.2, -3.3, -6.1,0,0,1024,791,1024,1024,0,-35,0,0,308.1,0,0,95,4.104,4.103,4.1,4.104,0,0,8.107,60.44,1070.7654919417,20.341208,6,P-GPS,
31400,2025-01-13 04:38:14,0,0,20.341208,,,1070.7654919417,20.997376,0.4921268,0,0,14,2,16.402,1071.0935759417,20.669292,6.3081708,0,-0.447388,-0.223694,0,290, -3.3, -7.4,0,0,1024,806,1024,1024,0,-33,0,0,308.1,0,0,95,4.104,4.103,4.1,4.104,0,0,8.107,60.44,1070.7654919417,20.341208,6,P-GPS,
31600,2025-01-13 04:38:15,0,0,20.341208,,,1070.7654919417,20.997376,1.006623,0,0,14,2,16.402,1071.0935759417,20.669292,6.3081708,0,-0.894776,-0.447388,0,289.7, -3, -7.1,0,0,1024,807,1024,1024,0,-33,0,0,308.1,0,0,95,4.104,4.103,4.1,4.104,0,0,8.107,60.44,1070.7654919417,20.341208,6,P-GPS,
31800,2025-01-13 04:38:15,0,0,20.341208,,,1070.7654919417,20.669292,1.4092722,0,0,13,2,16.411,1071.0935759417,20.669292,6.3081708,0,-1.342164,-0.447388,0,289.9, -2.4, -5.5,0,0,1024,829,1024,1024,0,-30,0,0,308.1,0,0,95,4.102,4.1,4.099,4.102,0,0,7.715,60.44,1070.7654919417,20.341208,6,P-GPS,
32000,2025-01-13 04:38:15,0,0,20.341208,,,1070.7654919417,20.669292,1.7000744,0,0,13,2,16.411,1071.0935759417,20.669292,6.3081708,0,-1.565858,-0.671082,0,290.2, -3, -2.8,0,0,1024,1022,1024,1024,0,-0,0,0,308.1,0,0,95,4.102,4.1,4.099,4.102,0,0,7.715,60.44,1070.7654919417,20.341208,6,P-GPS,
32200,2025-01-13 04:38:15,0,0,20.341208,,,1070.7654919417,20.997376,1.901399,0,0,12,2,16.411,1071.0935759417,20.669292,6.3081708,0,-1.789552,-0.671082,0,290.2, -3.1, -2.1,0,0,1024,1024,1024,1024,0,0,0,0,308.1,0,0,95,4.102,4.1,4.099,4.102,0,0,7.715,60.44,1070.7654919417,20.341208,6,P-GPS,
32400,2025-01-13 04:38:16,0,0,20.341208,,,1070.7654919417,20.669292,1.7000744,0,0,12,2,16.411,1071.0935759417,20.669292,6.3081708,0,-1.565858,-0.671082,0,291.8, -2.9, 7.1,0,0,1024,1024,1024,1024,0,0,0,0,308.1,0,0,95,4.102,4.1,4.099,4.102,0,0,7.715,60.44,1070.7654919417,20.341208,6,P-GPS,
32600,2025-01-13 04:38:16,0,0,20.013124,,,1070.4374079417,20.669292,1.006623,0,0,13,2,16.411,1071.0935759417,20.669292,6.3081708,0,-0.894776,-0.447388,0,294.1, -3, 9,0,0,1024,1024,1024,1024,0,0,0,0,308.1,0,0,95,4.102,4.1,4.099,4.102,0,0,7.715,60.44,1070.4374079417,20.013124,6,P-GPS,
32800,2025-01-13 04:38:16,0,0,20.013124,,,1070.4374079417,13.451444,0.4921268,0,0,12,2,16.378,1071.0935759417,20.669292,6.3081708,0,-0.447388,-0.223694,0,293.9, -3.6, 5.5,0,0,1024,1024,1095,1024,0,0,11,0,308.1,0,0,95,4.095,4.097,4.097,4.104,0,0,8.064,60.44,1070.4374079417,20.013124,6,P-GPS,
33000,2025-01-13 04:38:16,0,0,20.013124,,,1070.4374079417,13.451444,0.3131716,0,0,12,2,16.378,1071.0935759417,20.669292,6.3081708,0,-0.223694,-0.223694,0,293.8, -2.9, 2.7,0,0,1024,1024,1208,1024,0,0,28,0,308.1,0,0,95,4.095,4.097,4.097,4.104,0,0,8.064,60.44,1070.4374079417,20.013124,6,P-GPS,
33200,2025-01-13 04:38:16,0,0,20.013124,,,1070.4374079417,13.779528,0.223694,0,0,12,2,16.378,1071.0935759417,20.669292,6.3081708,0,-0.223694,0,0,295, -2.6, 3.1,0,0,1024,1024,1168,1024,0,0,22,0,308.1,0,0,95,4.095,4.097,4.097,4.104,0,0,8.064,60.44,1070.4374079417,20.013124,6,P-GPS,
33400,2025-01-13 04:38:16,0,0,20.341208,,,1070.7654919417,14.435696,0,0,0,14,2,16.378,1071.0935759417,20.669292,6.3081708,0,0,0,-0.447388,294.6, -2.4, 2.6,0,0,1024,1024,1024,1024,0,0,0,0,308.1,0,0,95,4.095,4.097,4.097,4.104,0,0,8.064,60.44,1070.7654919417,20.341208,6,P-GPS,
33600,2025-01-13 04:38:17,0,0,20.341208,,,1070.7654919417,14.76378,0,0,0,12,2,16.378,1071.0935759417,20.669292,6.3081708,0,0,0,-0.447388,293.7, -1.7, 2.5,0,0,1024,1024,1024,1024,0,0,0,0,308.1,0,0,95,4.095,4.097,4.097,4.104,0,0,8.064,60.44,1070.7654919417,20.341208,6,P-GPS,
33800,2025-01-13 04:38:17,0,0,20.669292,,,1071.0935759417,15.091864,0,0,0,12,2,16.212,1071.0935759417,20.669292,6.3081708,0,0,0,-0.223694,294, -2.4, 3.1,0,0,1024,1024,1024,1024,0,0,0,0,308.1,0,0,95,4.069,4.07,4.076,4.092,0,0,9.116,60.62,1071.0935759417,20.669292,6,P-GPS,
34000,2025-01-13 04:38:17,0,0,20.669292,,,1071.0935759417,15.419948,0,0,0,14,2,16.212,1071.0935759417,20.669292,6.3081708,0,0,0,0,294, -2.9, 2.1,0,0,1024,1024,1024,1024,0,0,0,0,308.1,0,0,95,4.069,4.07,4.076,4.092,0,0,9.116,60.62,1071.0935759417,20.669292,6,P-GPS,
34200,2025-01-13 04:38:17,0,0,20.669292,,,1071.0935759417,15.419948,0,0,0,13,2,16.212,1071.0935759417,20.669292,6.3081708,0,0,0,0,293.8, -3.7, 0,0,0,1024,1024,1024,1024,0,0,0,0,308.1,0,0,95,4.069,4.07,4.076,4.092,0,0,9.116,60.62,1071.0935759417,20.669292,6,P-GPS,
34400,2025-01-13 04:38:17,0,0,20.669292,,,1071.0935759417,15.748032,0,0,0,12,2,16.212,1071.0935759417,20.669292,6.3081708,0,0,0,0,293.6, -3, 0.8,0,0,1024,1024,1024,1024,0,0,0,0,308.1,0,0,95,4.069,4.07,4.076,4.092,0,0,9.116,60.62,1071.0935759417,20.669292,6,P-GPS,
34600,2025-01-13 04:38:18,0,0,20.669292,,,1071.0935759417,16.076116,0,0,0,13,2,16.212,1071.0935759417,20.669292,6.3081708,0,0,0,0,293.5, -2.7, 2.2,0,0,1024,1024,1024,1024,0,0,0,0,308.1,0,0,95,4.069,4.07,4.076,4.092,0,0,9.116,60.62,1071.0935759417,20.669292,6,P-GPS,
34800,2025-01-13 04:38:18,0,0,20.669292,,,1071.0935759417,16.076116,0,0,0,12,2,16.341,1071.0935759417,20.669292,6.3081708,0,0,0,0,293.6, -2.8, 1.4,0,0,1024,1024,1024,1024,0,0,0,0,308.1,0,0,95,4.082,4.079,4.079,4.085,0,0,8.188,60.62,1071.0935759417,20.669292,6,P-GPS,
35000,2025-01-13 04:38:18,0,0,20.669292,,,1071.0935759417,16.076116,0,0,0,13,2,16.341,1071.0935759417,20.669292,6.3081708,0,0,0,0,293.8, -2.4, 1.7,0,0,1024,1024,1024,1024,0,0,0,0,308.1,0,0,95,4.082,4.079,4.079,4.085,0,0,8.188,60.62,1071.0935759417,20.669292,6,P-GPS,
35200,2025-01-13 04:38:18,0,0,20.669292,,,1071.0935759417,16.076116,0,0,0,13,2,16.341,1071.0935759417,20.669292,6.3081708,0,0,0,0,294.2, -2, 1.9,0,0,1024,1024,1024,1024,0,0,0,0,308.1,0,0,95,4.082,4.079,4.079,4.085,0,0,8.188,60.62,1071.0935759417,20.669292,6,P-GPS,
35400,2025-01-13 04:38:18,0,0,20.669292,,,1071.0935759417,16.076116,0.223694,0,0,11,2,16.341,1071.0935759417,20.669292,6.3081708,0,0.223694,0,0,294, -2, 0,0,0,1024,1024,1024,1024,0,0,0,0,308.1,0,0,95,4.082,4.079,4.079,4.085,0,0,8.188,60.62,1071.0935759417,20.669292,6,P-GPS,
35600,2025-01-13 04:38:19,0,0,20.669292,,,1071.0935759417,16.4042,0,0,0,11,2,16.341,1071.0935759417,20.669292,6.3081708,0,0,0,0,293.8, -2, -2.3,0,0,1024,1024,1024,1024,0,0,0,0,308.1,0,0,95,4.082,4.079,4.079,4.085,0,0,8.188,60.62,1071.0935759417,20.669292,6,P-GPS,
35800,2025-01-13 04:38:19,0,0,20.669292,,,1071.0935759417,16.732284,0,0,0,11,2,16.292,1071.0935759417,20.669292,6.3081708,0,0,0,0,293.7, -3, -2.1,0,0,1024,1024,1024,1024,0,0,0,0,308.1,0,0,95,4.072,4.074,4.071,4.074,0,0,9.18,60.8,1071.0935759417,20.669292,6,P-GPS,
36000,2025-01-13 04:38:19,0,0,20.669292,,,1071.0935759417,18.372704,0,0,0,11,2,16.292,1071.0935759417,20.669292,6.3081708,0,0,0,0,293.5, -3.6, -2.4,0,0,1024,1024,1024,1024,0,0,0,0,308.1,0,0,95,4.072,4.074,4.071,4.074,0,0,9.18,60.8,1071.0935759417,20.669292,6,P-GPS,
36200,2025-01-13 04:38:19,0,0,20.669292,,,1071.0935759417,18.700788,0.223694,0,0,11,2,16.292,1071.0935759417,20.669292,6.3081708,0,-0.223694,0,0,293.6, -3.9, -0.2,0,0,1024,1024,1024,1024,0,0,0,0,308.1,0,0,95,4.072,4.074,4.071,4.074,0,0,9.18,60.8,1071.0935759417,20.669292,6,P-GPS,
36400,2025-01-13 04:38:19,0,0,20.341208,,,1070.7654919417,18.700788,0,0,0,11,2,16.292,1071.0935759417,20.669292,6.3081708,0,0,0,0,293.7, -4.3, 1,0,0,1024,1024,1024,1024,0,0,0,0,308.1,0,0,95,4.072,4.074,4.071,4.074,0,0,9.18,60.8,1070.7654919417,20.341208,6,P-GPS,
36600,2025-01-13 04:38:20,0,0,20.341208,,,1070.7654919417,18.04462,0,0,0,11,2,16.292,1071.0935759417,20.669292,6.3081708,0,0,0,0,293.6, -3.9, 1.1,0,0,1024,1024,1024,1024,0,0,0,0,308.1,0,0,95,4.072,4.074,4.071,4.074,0,0,9.18,60.8,1070.7654919417,20.341208,6,P-GPS,
36800,2025-01-13 04:38:20,0,0,20.341208,,,1070.7654919417,17.716536,0,0,0,11,2,16.387,1071.0935759417,20.669292,6.3081708,0,0,0,0,293.7, -3.5, 1.5,0,0,1024,1024,1024,1024,0,0,0,0,308.1,0,0,94,4.096,4.097,4.093,4.1,0,0,8.536,60.8,1070.7654919417,20.341208,6,P-GPS,
37000,2025-01-13 04:38:20,0,0,20.341208,,,1070.7654919417,17.060368,0,0,0,11,2,16.387,1071.0935759417,20.669292,6.3081708,0,0,0,0,293.5, -3.5, 1,0,0,1024,1024,1024,1024,0,0,0,0,308.1,0,0,94,4.096,4.097,4.093,4.1,0,0,8.536,60.8,1070.7654919417,20.341208,6,P-GPS,
37200,2025-01-13 04:38:20,0,0,20.341208,,,1070.7654919417,16.732284,0,0,0,13,2,16.387,1071.0935759417,20.669292,6.3081708,0,0,0,0,293.7, -3.1, 1,0,0,1024,1024,1024,1024,0,0,0,0,308.1,0,0,94,4.096,4.097,4.093,4.1,0,0,8.536,60.8,1070.7654919417,20.341208,6,P-GPS,
37400,2025-01-13 04:38:20,0,0,20.013124,,,1070.4374079417,16.4042,0,0,0,14,2,16.387,1071.0935759417,20.669292,6.3081708,0,0,0,0,293.7, -3.1, 1.4,0,0,1024,1024,1024,1024,0,0,0,0,308.1,0,0,94,4.096,4.097,4.093,4.1,0,0,8.536,60.8,1070.4374079417,20.013124,6,P-GPS,
37600,2025-01-13 04:38:21,0,0,20.013124,,,1070.4374079417,16.4042,0,0,0,16,2,16.387,1071.0935759417,20.669292,6.3081708,0,0,0,0,293.8, -2.7, 1.6,0,0,1024,1024,1024,1024,0,0,0,0,308.1,0,0,94,4.096,4.097,4.093,4.1,0,0,8.536,60.8,1070.4374079417,20.013124,6,P-GPS,
37800,2025-01-13 04:38:21,0,0,20.013124,,,1070.4374079417,16.076116,0,0,0,13,2,16.369,1071.0935759417,20.669292,6.3081708,0,0,0,0,293.7, -2.7, 1.1,0,0,1024,1024,1024,1024,0,0,0,0,308.1,0,0,94,4.087,4.088,4.089,4.093,0,0,8.01,60.8,1070.4374079417,20.013124,6,P-GPS,
38000,2025-01-13 04:38:21,0,0,20.013124,,,1070.4374079417,16.076116,0,0,0,16,2,16.369,1071.0935759417,20.669292,6.3081708,0,0,0,0,293.8, -2.5, 1.4,0,0,1024,1024,1024,1024,0,0,0,0,308.1,0,0,94,4.087,4.088,4.089,4.093,0,0,8.01,60.8,1070.4374079417,20.013124,6,P-GPS,
38200,2025-01-13 04:38:21,0,0,20.013124,,,1070.4374079417,15.748032,0,0,0,15,2,16.369,1071.0935759417,20.669292,6.3081708,0,0,0,0,293.9, -2.8, 1.6,0,0,1024,1024,1024,1024,0,0,0,0,308.1,0,0,94,4.087,4.088,4.089,4.093,0,0,8.01,60.8,1070.4374079417,20.013124,6,P-GPS,
38400,2025-01-13 04:38:21,0,0,20.013124,,,1070.4374079417,15.748032,0,0,0,14,2,16.369,1071.0935759417,20.669292,6.3081708,0,0,0,0,293.8, -3.3, 0.7,0,0,1024,1024,1024,1024,0,0,0,0,308.1,0,0,94,4.087,4.088,4.089,4.093,0,0,8.01,60.8,1070.4374079417,20.013124,6,P-GPS,
38600,2025-01-13 04:38:22,0,0,20.013124,,,1070.4374079417,15.748032,0,0,0,14,2,16.369,1071.0935759417,20.669292,6.3081708,0,0,0,0,293.9, -4.3, 0.7,0,0,1024,1024,1024,1024,0,0,0,0,308.1,0,0,94,4.087,4.088,4.089,4.093,0,0,8.01,60.8,1070.4374079417,20.013124,6,P-GPS,
38800,2025-01-13 04:38:22,0,0,20.013124,,,1070.4374079417,16.076116,0,0,0,14,2,16.368,1071.0935759417,20.669292,6.3081708,0,0,0,0,293.9, -3.5, -0.9,0,0,1024,1024,1024,1024,0,0,0,0,308.1,0,0,94,4.087,4.086,4.087,4.088,0,0,8.26,60.98,1070.4374079417,20.013124,6,P-GPS,
39000,2025-01-13 04:38:22,0,0,20.013124,,,1070.4374079417,16.4042,0,0,0,12,2,16.368,1071.0935759417,20.669292,6.3081708,0,0,0,0,294, -3.5, -0.7,0,0,1024,1024,1024,1024,0,0,0,0,308.1,0,0,94,4.087,4.086,4.087,4.088,0,0,8.26,60.98,1070.4374079417,20.013124,6,P-GPS,
39200,2025-01-13 04:38:22,0,0,20.013124,,,1070.4374079417,17.060368,0,0,0,13,2,16.368,1071.0935759417,20.669292,6.3081708,0,0,0,0,293.9, -3.7, -1.3,0,0,1024,1024,1024,1024,0,0,0,0,308.1,0,0,94,4.087,4.086,4.087,4.088,0,0,8.26,60.98,1070.4374079417,20.013124,6,P-GPS,
39400,2025-01-13 04:38:22,0,0,20.013124,,,1070.4374079417,17.388452,0,0,0,12,2,16.368,1071.0935759417,20.669292,6.3081708,0,0,0,0,293.9, -2.7, -1.5,0,0,1024,1024,1024,1024,0,0,0,0,308.1,0,0,94,4.087,4.086,4.087,4.088,0,0,8.26,60.98,1070.4374079417,20.013124,6,P-GPS,
39600,2025-01-13 04:38:23,0,0,20.013124,,,1070.4374079417,17.716536,0,0,0,12,2,16.368,1071.0935759417,20.669292,6.3081708,0,0,0,0,293.8, -2.1, -1.6,0,0,1024,1024,1024,1024,0,0,0,0,308.1,0,0,94,4.087,4.086,4.087,4.088,0,0,8.26,60.98,1070.4374079417,20.013124,6,P-GPS,
39800,2025-01-13 04:38:23,0,0,20.013124,,,1070.4374079417,18.04462,0,0,0,13,2,16.368,1071.0935759417,20.669292,6.3081708,0,0,0,0,294, -1.8, -1.2,0,0,1024,1024,1024,1024,0,0,0,0,308.1,0,0,94,4.092,4.091,4.089,4.094,0,0,8.247,60.98,1070.4374079417,20.013124,6,P-GPS,
40000,2025-01-13 04:38:23,0,0,20.013124,,,1070.4374079417,18.372704,0,0,0,12,2,16.368,1071.0935759417,20.669292,6.3081708,0,0,0,0,293.6, -3, -1.7,0,0,1024,1024,1024,1024,0,0,0,0,308.1,0,0,94,4.092,4.091,4.089,4.094,0,0,8.247,60.98,1070.4374079417,20.013124,6,P-GPS,
40200,2025-01-13 04:38:23,0,0,20.013124,,,1070.4374079417,18.372704,0.223694,0,0,12,2,16.368,1071.0935759417,20.669292,6.3081708,0,-0.223694,0,0,293.5, -3.1, 0.3,0,0,1024,1024,1024,1024,0,0,0,0,308.1,0,0,94,4.092,4.091,4.089,4.094,0,0,8.247,60.98,1070.4374079417,20.013124,6,P-GPS,
40400,2025-01-13 04:38:23,0,0,20.013124,,,1070.4374079417,18.372704,0.223694,0,0,12,2,16.368,1071.0935759417,20.669292,6.3081708,0,-0.223694,0,0,293.5, -3.5, 2.7,0,0,1024,1024,1024,1024,0,0,0,0,308.1,0,0,94,4.092,4.091,4.089,4.094,0,0,8.247,60.98,1070.4374079417,20.013124,6,P-GPS,
40600,2025-01-13 04:38:24,0,0,20.013124,,,1070.4374079417,18.372704,0.223694,0,0,12,2,16.368,1071.0935759417,20.669292,6.3081708,0,-0.223694,0,0,293.4, -3.5, 3,0,0,1024,1024,1024,1024,0,0,0,0,308.1,0,0,94,4.092,4.091,4.089,4.094,0,0,8.247,60.98,1070.4374079417,20.013124,6,P-GPS,
40800,2025-01-13 04:38:24,0,0,20.013124,,,1070.4374079417,15.091864,0.223694,0,0,13,2,16.348,1071.0935759417,20.669292,6.3081708,0,-0.223694,0,0,293.5, -3.6, 3.7,0,0,1024,1024,1024,1024,0,0,0,0,308.1,0,0,94,4.085,4.088,4.087,4.093,0,0,8.274,61.16,1070.4374079417,20.013124,6,P-GPS,
41000,2025-01-13 04:38:24,0,0,20.013124,,,1070.4374079417,14.76378,0,0,0,13,2,16.348,1071.0935759417,20.669292,6.3081708,0,0,0,0,293.5, -3.5, 3.8,0,0,1024,1024,1024,1024,0,0,0,0,308.1,0,0,94,4.085,4.088,4.087,4.093,0,0,8.274,61.16,1070.4374079417,20.013124,6,P-GPS,
41200,2025-01-13 04:38:24,0,0,20.013124,,,1070.4374079417,14.435696,0,0,0,13,2,16.348,1071.0935759417,20.669292,6.3081708,0,0,0,0,293.4, -3.9, 3.6,0,0,1024,1024,1024,1024,0,0,0,0,308.1,0,0,94,4.085,4.088,4.087,4.093,0,0,8.274,61.16,1070.4374079417,20.013124,6,P-GPS,
41400,2025-01-13 04:38:24,0,0,20.013124,,,1070.4374079417,14.435696,0,0,0,13,2,16.348,1071.0935759417,20.669292,6.3081708,0,0,0,0,293.6, -4.4, 2.6,0,0,1024,1024,1024,1024,0,0,0,0,308.1,0,0,94,4.085,4.088,4.087,4.093,0,0,8.274,61.16,1070.4374079417,20.013124,6,P-GPS,
41600,2025-01-13 04:38:25,0,0,20.013124,,,1070.4374079417,14.435696,0,0,0,13,2,16.348,1071.0935759417,20.669292,6.3081708,0,0,0,0,293.6, -3.6, 2.7,0,0,1024,1024,1024,1024,0,0,0,0,308.1,0,0,94,4.085,4.088,4.087,4.093,0,0,8.274,61.16,1070.4374079417,20.013124,6,P-GPS,
41800,2025-01-13 04:38:25,0,0,20.013124,,,1070.4374079417,14.435696,0,0,0,13,2,16.355,1071.0935759417,20.669292,6.3081708,0,0,0,0,293.5, -4.1, 2.7,0,0,1024,1024,1024,1024,0,0,0,0,308.1,0,0,94,4.083,4.084,4.084,4.092,0,0,8.3,61.16,1070.4374079417,20.013124,6,P-GPS,
42000,2025-01-13 04:38:25,0,0,20.013124,,,1070.4374079417,14.76378,0,0,0,13,2,16.355,1071.0935759417,20.669292,6.3081708,0,0,0,0,293.8, -4.3, 1.3,0,0,1024,1024,1024,1024,0,0,0,0,308.1,0,0,94,4.083,4.084,4.084,4.092,0,0,8.3,61.16,1070.4374079417,20.013124,6,P-GPS,
42200,2025-01-13 04:38:25,0,0,20.013124,,,1070.4374079417,14.76378,0.223694,0,0,13,2,16.355,1071.0935759417,20.669292,6.3081708,0,0.223694,0,0,294, -2.5, 1.3,0,0,1024,1024,1024,1024,0,0,0,0,308.1,0,0,94,4.083,4.084,4.084,4.092,0,0,8.3,61.16,1070.4374079417,20.013124,6,P-GPS,
42400,2025-01-13 04:38:26,0,0,20.013124,,,1070.4374079417,15.091864,0.223694,0,0,13,2,16.355,1071.0935759417,20.669292,6.3081708,0,0.223694,0,0,293.9, -2.1, -0.4,0,0,1024,1024,1024,1024,0,0,0,0,308.1,0,0,94,4.083,4.084,4.084,4.092,0,0,8.3,61.16,1070.4374079417,20.013124,6,P-GPS,
42600,2025-01-13 04:38:26,0,0,20.013124,,,1070.4374079417,15.748032,0.223694,0,0,12,2,16.355,1071.0935759417,20.669292,6.3081708,0,0.223694,0,0,293.9, -2.2, -2.4,0,0,1024,1024,1024,1024,0,0,0,0,308.1,0,0,94,4.083,4.084,4.084,4.092,0,0,8.3,61.16,1070.4374079417,20.013124,6,P-GPS,
42800,2025-01-13 04:38:26,0,0,20.013124,,,1070.4374079417,19.028872,0,0,0,12,2,16.355,1071.0935759417,20.669292,6.3081708,0,0,0,0,294, -2.1, -2,0,0,1024,1024,1024,1024,0,0,0,0,308.1,0,0,94,4.089,4.09,4.09,4.096,0,0,8.162,61.16,1070.4374079417,20.013124,6,P-GPS,
