time(millisecond),datetime(utc),latitude,longitude,height_above_takeoff(feet),height_above_ground_at_drone_location(feet),ground_elevation_at_drone_location(feet),altitude_above_seaLevel(feet),height_sonar(feet),speed(mph),distance(feet),mileage(feet),satellites,gpslevel,voltage(v),max_altitude(feet),max_ascent(feet),max_speed(mph),max_distance(feet), xSpeed(mph), ySpeed(mph), zSpeed(mph), compass_heading(degrees), pitch(degrees), roll(degrees),isPhoto,isVideo,rc_elevator,rc_aileron,rc_throttle,rc_rudder,rc_elevator(percent),rc_aileron(percent),rc_throttle(percent),rc_rudder(percent),gimbal_heading(degrees),gimbal_pitch(degrees),gimbal_roll(degrees),battery_percent,voltageCell1,voltageCell2,voltageCell3,voltageCell4,voltageCell5,voltageCell6,current(A),battery_temperature(f),altitude(feet),ascent(feet),flycStateRaw,flycState,message
0,2025-01-13 05:00:01,0,0,0,Available with any HD 360 subscription,Available with any HD 360 subscription,1051.2237685473,0.328084,0,0,0,12,2,0,1051.2237685473,0,0,0,0,0,0,46.5, 4, 0.8,0,0,1024,1024,1024,1024,0,0,0,0,0,0,0,96,4.184,4.184,4.185,4.182,0,0,0,59.72,1051.2237685473,0,41,Motors_Started,"機体が高度区域 (500 m)にいます。慎重に飛行してください。 (Code: 190001). 送信機が紐付けされていない／紐付けステータスを確認中 (Code: 16100089). 機体は飛行していません。ビジョンシステムと障害物回避が無効です (Code: 180059). GNSS信号が微弱です。ホバリングが不安定です。慎重に飛行してください (Code: 30008). 送信機が紐付けされていない／紐付けステータスを確認中 (Code: 16100089). GNSS信号が微弱です。"
200,2025-01-13 05:00:01,0,0,0,,,1051.2237685473,0.328084,0,0,0,12,2,0,1051.2237685473,0,0,0,0,0,0,46.5, 4, 0.8,0,0,1024,1024,1024,1024,0,0,0,0,46.5,0,0,96,4.184,4.184,4.185,4.182,0,0,0,59.72,1051.2237685473,0,41,Motors_Started,"Setting new Return-To-Home altitude to 100m (328 ft). Data Recorder File Index is 88. Setting new Maximum Flight Altitude to 30m (98 ft)"
400,2025-01-13 05:00:01,0,0,0,,,1051.2237685473,0.328084,0,0,0,12,2,0,1051.2237685473,0,0,0,0,0,0,46.5, 4, 0.8,0,0,1024,1024,1024,1024,0,0,0,0,46.5,0,0,96,4.184,4.184,4.185,4.182,0,0,0,59.72,1051.2237685473,0,41,Motors_Started,"GNSS信号が微弱です。ホバリングが不安定です。慎重に飛行してください (Code: 30002). 機体は飛行していません。ビジョンシステムと障害物回避が無効です (Code: 180059)"
600,2025-01-13 05:00:01,0,0,0,,,1051.2237685473,0,0,0,0,12,2,0,1051.2237685473,0,0,0,0,0,0,46.5, 4, 0.8,0,0,1024,1024,1024,1024,0,0,0,0,46.5,0,0,96,4.184,4.184,4.185,4.182,0,0,0,59.72,1051.2237685473,0,41,Motors_Started,
800,2025-01-13 05:00:01,0,0,0,,,1051.2237685473,0,0,0,0,12,2,0,1051.2237685473,0,0,0,0,0,0,46.5, 4, 0.8,0,0,1024,1024,1024,1024,0,0,0,0,46.5,0,0,96,4.184,4.184,4.185,4.182,0,0,0,59.72,1051.2237685473,0,41,Motors_Started,
1000,2025-01-13 05:00:02,0,0,0,,,1051.2237685473,0,0,0,0,12,2,0,1051.2237685473,0,0,0,0,0,0,46.5, 4, 0.8,0,0,1024,1024,1024,1024,0,0,0,0,46.5,0,0,96,4.184,4.184,4.185,4.182,0,0,0,59.72,1051.2237685473,0,41,Motors_Started,
1200,2025-01-13 05:00:02,0,0,0,,,1051.2237685473,0,0,0,0,12,2,16.793,1051.2237685473,0,0,0,0,0,0,46.5, 4, 0.8,0,0,1024,1024,1024,1024,0,0,0,0,46.5,0,0,96,4.184,4.184,4.185,4.182,0,0,2.922,59.72,1051.2237685473,0,41,Motors_Started,
1400,2025-01-13 05:00:02,0,0,0,,,1051.2237685473,0,0,0,0,12,2,16.793,1051.2237685473,0,0,0,0,0,0,46.5, 3.9, 0.8,0,0,1024,1024,1024,1024,0,0,0,0,46.5,0,0,96,4.184,4.184,4.185,4.182,0,0,2.922,59.72,1051.2237685473,0,41,Motors_Started,
1600,2025-01-13 05:00:02,0,0,0,,,1051.2237685473,0,0.223694,0,0,12,2,16.793,1051.2237685473,0,0.223694,0,0.223694,0,0,46.5, 3.9, 0.8,0,0,1024,1024,1024,1024,0,0,0,0,46.5,0,0,96,4.184,4.184,4.185,4.182,0,0,2.922,59.72,1051.2237685473,0,11,AutoTakeoff,
1800,2025-01-13 05:00:02,0,0,0,,,1051.2237685473,0,0,0,0,12,2,16.793,1051.2237685473,0,0.223694,0,0,0,0,46.6, 4, 0.8,0,0,1024,1024,1024,1024,0,0,0,0,46.5,0,0,96,4.184,4.184,4.185,4.182,0,0,2.922,59.72,1051.2237685473,0,11,AutoTakeoff,"機体は飛行していません。ビジョンシステムと障害物回避が無効です (Code: 180059)"
2000,2025-01-13 05:00:03,0,0,0,,,1051.2237685473,0,0,0,0,12,2,16.793,1051.2237685473,0,0.223694,0,0,0,0,46.3, 3.7, 0.7,0,0,1024,1024,1024,1024,0,0,0,0,46.5,0,0,96,4.184,4.184,4.185,4.182,0,0,2.922,59.72,1051.2237685473,0,11,AutoTakeoff,
2200,2025-01-13 05:00:03,0,0,0,,,1051.2237685473,0,0,0,0,12,2,16.931,1051.2237685473,0,0.223694,0,0,0,0,47.4, -1.8, 0.9,0,0,1024,1024,1024,1024,0,0,0,0,46.5,0,0,96,4.193,4.187,4.183,4.175,0,0,3.588,59.72,1051.2237685473,0,11,AutoTakeoff,
2400,2025-01-13 05:00:03,0,0,0,,,1051.2237685473,0.328084,0.223694,0,0,12,2,16.931,1051.2237685473,0,0.223694,0,0.223694,0,-0.894776,47.5, -1.5, 0.3,0,0,1024,1024,1024,1024,0,0,0,0,46.5,0,0,96,4.193,4.187,4.183,4.175,0,0,3.588,59.72,1051.2237685473,0,11,AutoTakeoff,
2600,2025-01-13 05:00:03,0,0,0.328084,,,1051.5518525473,0.328084,0.447388,0,0,11,2,16.931,1051.5518525473,0.328084,0.447388,0,0.447388,0,-1.11847,47.3, 2.9, 0.7,0,0,1024,1024,1024,1024,0,0,0,0,46.6,0,0,96,4.193,4.187,4.183,4.175,0,0,3.588,59.72,1051.5518525473,0.328084,11,AutoTakeoff,
2800,2025-01-13 05:00:03,0,0,0.656168,,,1051.8799365473,0.984252,0.447388,0,0,13,2,16.931,1051.8799365473,0.656168,0.447388,0,0.447388,0,-1.11847,47.4, 3.5, 2.6,0,0,1024,1024,1024,1024,0,0,0,0,46.6,0,0,96,4.193,4.187,4.183,4.175,0,0,3.588,59.72,1051.8799365473,0.656168,11,AutoTakeoff,
3000,2025-01-13 05:00:04,0,0,0.984252,,,1052.2080205473,1.312336,0.223694,0,0,11,2,16.931,1052.2080205473,0.984252,0.447388,0,0.223694,0,-1.11847,47.7, 3.7, 4.9,0,0,1024,1024,1024,1024,0,0,0,0,46.6,0,0,96,4.193,4.187,4.183,4.175,0,0,3.588,59.72,1052.2080205473,0.984252,11,AutoTakeoff,飛行中
3200,2025-01-13 05:00:04,0,0,1.312336,,,1052.5361045473,1.64042,0.223694,0,0,12,2,16.442,1052.5361045473,1.312336,0.447388,0,0.223694,0,-0.894776,47.8, 3.2, 5.9,0,0,1024,1024,1024,1024,0,0,0,0,46.7,0,0,96,4.111,4.111,4.113,4.111,0,0,6.685,59.72,1052.5361045473,1.312336,11,AutoTakeoff,
3400,2025-01-13 05:00:04,0,0,1.968504,,,1053.1922725473,1.968504,0,0,0,12,2,16.442,1053.1922725473,1.968504,0.447388,0,0,0,-0.894776,47.9, 4.1, 4.2,0,0,1024,1024,1071,1024,0,0,7,0,46.7,0,0,96,4.111,4.111,4.113,4.111,0,0,6.685,59.72,1053.1922725473,1.968504,11,AutoTakeoff,
3600,2025-01-13 05:00:04,0,0,2.296588,,,1053.5203565473,2.296588,0,0,0,12,2,16.442,1053.5203565473,2.296588,0.447388,0,0,0,-0.894776,47.7, 3.9, 4.4,0,0,1024,1024,1097,1024,0,0,11,0,46.7,0,0,96,4.111,4.111,4.113,4.111,0,0,6.685,59.72,1053.5203565473,2.296588,11,AutoTakeoff,
3800,2025-01-13 05:00:04,0,0,2.624672,,,1053.8484405473,2.624672,0,0,0,12,2,16.442,1053.8484405473,2.624672,0.447388,0,0,0,-0.894776,47.5, 5.4, 3,0,0,1024,1024,1027,1024,0,0,0,0,46.8,0,0,96,4.111,4.111,4.113,4.111,0,0,6.685,59.72,1053.8484405473,2.624672,11,AutoTakeoff,
4000,2025-01-13 05:00:05,0,0,2.952756,,,1054.1765245473,2.952756,0.223694,0,0,12,2,16.442,1054.1765245473,2.952756,0.447388,0,-0.223694,0,-0.894776,47.4, 3.5, 2.7,0,0,1024,1254,1024,1024,0,35,0,0,46.8,0,0,96,4.111,4.111,4.113,4.111,0,0,6.685,59.72,1054.1765245473,2.952756,11,AutoTakeoff,
4200,2025-01-13 05:00:05,0,0,3.28084,,,1054.5046085473,3.28084,0.223694,0,0,14,2,16.407,1054.5046085473,3.28084,0.447388,0,-0.223694,0,-1.11847,48.2, 3.7, 0.8,0,0,1024,1263,1024,1024,0,36,0,0,46.8,0,0,96,4.085,4.083,4.082,4.079,0,0,8.329,59.72,1054.5046085473,3.28084,11,AutoTakeoff,
4400,2025-01-13 05:00:05,0,0,3.608924,,,1054.8326925473,3.608924,0.223694,0,0,13,2,16.407,1054.8326925473,3.608924,0.447388,0,-0.223694,0,-1.11847,47.4, 2.7, 1.6,0,0,1024,1207,1024,1024,0,28,0,0,46.9,0,0,96,4.085,4.083,4.082,4.079,0,0,8.329,59.72,1054.8326925473,3.608924,11,AutoTakeoff,
4600,2025-01-13 05:00:05,0,0,3.937008,,,1055.1607765473,3.937008,0.223694,0,0,13,2,16.407,1055.1607765473,3.937008,0.447388,0,-0.223694,0,-0.447388,47.5, 2, 5.3,0,0,1024,1024,1024,1031,0,0,0,1,46.9,0,0,96,4.085,4.083,4.082,4.079,0,0,8.329,59.72,1055.1607765473,3.937008,6,P-GPS,
4800,2025-01-13 05:00:05,0,0,3.937008,,,1055.1607765473,3.937008,0.447388,0,0,13,2,16.407,1055.1607765473,3.937008,0.447388,0,-0.447388,0,0,47.8, 1.7, 2.8,0,0,1024,1024,1024,1331,0,0,0,47,46.9,0,0,96,4.085,4.083,4.082,4.079,0,0,8.329,59.72,1055.1607765473,3.937008,6,P-GPS,
5000,2025-01-13 05:00:06,0,0,3.937008,,,1055.1607765473,3.937008,0.223694,0,0,11,2,16.407,1055.1607765473,3.937008,0.447388,0,-0.223694,0,0,47, 1.5, -0.9,0,0,1024,1024,1024,1450,0,0,0,65,47.2,0,0,96,4.085,4.083,4.082,4.079,0,0,8.329,59.72,1055.1607765473,3.937008,6,P-GPS,
5200,2025-01-13 05:00:06,0,0,3.937008,,,1055.1607765473,3.937008,0.223694,0,0,11,2,16.359,1055.1607765473,3.937008,0.447388,0,-0.223694,0,0,47.9, 1.5, -0.3,0,0,1024,1024,1024,1488,0,0,0,70,49.1,0,0,96,4.098,4.098,4.097,4.094,0,0,8.901,59.72,1055.1607765473,3.937008,6,P-GPS,
5400,2025-01-13 05:00:06,0,0,3.937008,,,1055.1607765473,3.937008,0,0,0,10,2,16.359,1055.1607765473,3.937008,0.447388,0,0,0,0,51.5, 1.2, 0.1,0,0,1024,1024,1024,1506,0,0,0,73,49.1,0,0,96,4.098,4.098,4.097,4.094,0,0,8.901,59.72,1055.1607765473,3.937008,6,P-GPS,
5600,2025-01-13 05:00:06,0,0,3.937008,,,1055.1607765473,3.937008,0,0,0,12,2,16.359,1055.1607765473,3.937008,0.447388,0,0,0,0,56.5, 2.4, 2.3,0,0,1024,1024,1024,1578,0,0,0,84,58.4,0,0,96,4.098,4.098,4.097,4.094,0,0,8.901,59.72,1055.1607765473,3.937008,6,P-GPS,
5800,2025-01-13 05:00:06,0,0,3.937008,,,1055.1607765473,3.937008,0,0,0,13,2,16.359,1055.1607765473,3.937008,0.447388,0,0,0,0,62.1, 2.5, 3.3,0,0,1024,1024,1024,1618,0,0,0,90,73.1,0,0,96,4.098,4.098,4.097,4.094,0,0,8.901,59.72,1055.1607765473,3.937008,6,P-GPS,
6000,2025-01-13 05:00:07,0,0,4.265092,,,1055.4888605473,3.937008,0,0,0,13,2,16.359,1055.4888605473,4.265092,0.447388,0,0,0,0,69.9, 3.1, 4.4,0,0,1024,1024,1024,1665,0,0,0,97,73.1,0,0,96,4.098,4.098,4.097,4.094,0,0,8.901,59.72,1055.4888605473,4.265092,6,P-GPS,
6200,2025-01-13 05:00:07,0,0,4.265092,,,1055.4888605473,3.937008,0,0,0,14,2,16.372,1055.4888605473,4.265092,0.447388,0,0,0,0,79.6, 2.7, 3,0,0,1024,1024,1024,1592,0,0,0,86,82.8,0,0,96,4.098,4.098,4.098,4.096,0,0,8.576,59.9,1055.4888605473,4.265092,6,P-GPS,
6400,2025-01-13 05:00:07,0,0,4.265092,,,1055.4888605473,3.937008,0,0,0,13,2,16.372,1055.4888605473,4.265092,0.447388,0,0,0,0,90.2, 2.2, 3.4,0,0,1024,1024,1024,1343,0,0,0,48,82.8,0,0,96,4.098,4.098,4.098,4.096,0,0,8.576,59.9,1055.4888605473,4.265092,6,P-GPS,
6600,2025-01-13 05:00:07,0,0,4.265092,,,1055.4888605473,3.937008,0,0,0,14,2,16.372,1055.4888605473,4.265092,0.447388,0,0,0,0,100.4, 0.7, 4.2,0,0,1024,1024,1024,1024,0,0,0,0,102.5,0,0,96,4.098,4.098,4.098,4.096,0,0,8.576,59.9,1055.4888605473,4.265092,6,P-GPS,
6800,2025-01-13 05:00:08,0,0,4.265092,,,1055.4888605473,3.937008,0,0,0,13,2,16.372,1055.4888605473,4.265092,0.447388,0,0,0,0,105, 0, 3.2,0,0,1040,1024,1024,1024,2,0,0,0,104,0,0,96,4.098,4.098,4.098,4.096,0,0,8.576,59.9,1055.4888605473,4.265092,6,P-GPS,
7000,2025-01-13 05:00:08,0,0,4.265092,,,1055.4888605473,3.937008,0,0,0,12,2,16.372,1055.4888605473,4.265092,0.447388,0,0,0,0,103.8, 0.1, 2.9,0,0,1372,1024,1024,1024,53,0,0,0,104,0,0,96,4.098,4.098,4.098,4.096,0,0,8.576,59.9,1055.4888605473,4.265092,6,P-GPS,
7200,2025-01-13 05:00:08,0,0,4.265092,,,1055.4888605473,3.937008,0,0,0,12,2,16.361,1055.4888605473,4.265092,0.447388,0,0,0,0,103.8, -0.4, 3,0,0,1446,1024,1024,1024,64,0,0,0,104,0,0,96,4.087,4.089,4.091,4.086,0,0,8.472,59.9,1055.4888605473,4.265092,6,P-GPS,
7400,2025-01-13 05:00:08,0,0,4.265092,,,1055.4888605473,3.937008,0.223694,0,0,11,2,16.361,1055.4888605473,4.265092,0.447388,0,0,0.223694,0,104.2, -6.8, 2.4,0,0,1427,1024,1024,1024,61,0,0,0,104,0,0,96,4.087,4.089,4.091,4.086,0,0,8.472,59.9,1055.4888605473,4.265092,6,P-GPS,
7800,2025-01-13 05:00:08,0,0,4.265092,,,1055.4888605473,3.937008,1.8342908,0,0,10,2,16.361,1055.4888605473,4.265092,1.8342908,0,-0.447388,1.789552,0,103.6, -12.8, 2.4,0,0,1410,1024,1024,1024,58,0,0,0,104,0,0,96,4.087,4.089,4.091,4.086,0,0,8.472,59.9,1055.4888605473,4.265092,6,P-GPS,
8000,2025-01-13 05:00:09,0,0,4.265092,,,1055.4888605473,3.937008,2.9527608,0,0,11,2,16.361,1055.4888605473,4.265092,2.9527608,0,-0.447388,2.908022,0,100.4, -11.4, 2.5,0,0,1404,1024,1024,1024,58,0,0,0,104,0,0,96,4.087,4.089,4.091,4.086,0,0,8.472,59.9,1055.4888605473,4.265092,6,P-GPS,
8200,2025-01-13 05:00:09,0,0,4.265092,,,1055.4888605473,3.937008,3.8699062,0,0,11,2,16.358,1055.4888605473,4.265092,3.8699062,0,-0.671082,3.802798,0,99.7, -10.3, 2.4,0,0,1348,1024,1024,1024,49,0,0,0,104,0,0,96,4.084,4.083,4.082,4.08,0,0,8.587,60.08,1055.4888605473,4.265092,6,P-GPS,
8400,2025-01-13 05:00:09,0,0,4.265092,,,1055.4888605473,3.937008,4.7423128,0,0,11,2,16.358,1055.4888605473,4.265092,4.7423128,0,-0.671082,4.697574,0,97.4, -7.5, 2.3,0,0,1024,1024,1024,1024,0,0,0,0,104,0,0,96,4.084,4.083,4.082,4.08,0,0,8.587,60.08,1055.4888605473,4.265092,6,P-GPS,
8600,2025-01-13 05:00:09,0,0,4.265092,,,1055.4888605473,4.593176,5.1673314,0,0,11,2,16.358,1055.4888605473,4.265092,5.1673314,0,-0.447388,5.144962,0,95.1, -3.4, 2,0,0,1024,1024,1024,1024,0,0,0,0,104,0,0,96,4.084,4.083,4.082,4.08,0,0,8.587,60.08,1055.4888605473,4.265092,6,P-GPS,
8800,2025-01-13 05:00:09,0,0,4.265092,,,1055.4888605473,5.249344,4.921268,0,0,12,2,16.358,1055.4888605473,4.265092,5.1673314,0,-0.223694,4.921268,0,95.3, 19.7, 1.9,0,0,1024,1024,1124,1144,0,0,15,18,104,0,0,96,4.084,4.083,4.082,4.08,0,0,8.587,60.08,1055.4888605473,4.265092,6,P-GPS,
9000,2025-01-13 05:00:10,0,0,4.265092,,,1055.4888605473,5.249344,2.908022,0,0,9,2,16.358,1055.4888605473,4.265092,5.1673314,0,0,2.908022,0,95.9, 25.3, 3.1,0,0,1024,1024,1024,1599,0,0,0,87,104.1,0,0,96,4.084,4.083,4.082,4.08,0,0,8.587,60.08,1055.4888605473,4.265092,6,P-GPS,
9200,2025-01-13 05:00:10,0,0,4.265092,,,1055.4888605473,5.577428,1.11847,0,0,9,2,16.228,1055.4888605473,4.265092,5.1673314,0,0,1.11847,-0.223694,96.2, 15.5, 4.3,0,0,1024,1024,1033,1613,0,0,1,89,104.1,0,0,96,4.035,4.036,4.031,4.042,0,0,9.33,60.26,1055.4888605473,4.265092,6,P-GPS,
9400,2025-01-13 05:00:10,0,0,4.265092,,,1055.4888605473,5.577428,0.223694,0,0,10,2,16.228,1055.4888605473,4.265092,5.1673314,0,0,0.223694,0,102.9, 8, 3.1,0,0,1024,1024,1024,1041,0,0,0,3,116,0,0,96,4.035,4.036,4.031,4.042,0,0,9.33,60.26,1055.4888605473,4.265092,6,P-GPS,
9600,2025-01-13 05:00:10,0,0,4.265092,,,1055.4888605473,5.577428,0,0,0,11,2,16.228,1055.4888605473,4.265092,5.1673314,0,0,0,0,112.3, 4.4, 2.6,0,0,1024,1024,1024,1024,0,0,0,0,124.1,0,0,96,4.035,4.036,4.031,4.042,0,0,9.33,60.26,1055.4888605473,4.265092,6,P-GPS,
9800,2025-01-13 05:00:11,0,0,4.593176,,,1055.8169445473,5.577428,0,0,0,10,2,16.228,1055.8169445473,4.593176,5.1673314,0,0,0,0,117.8, 3.3, 2.7,0,0,1024,1024,1036,1024,0,0,2,0,126.2,0,0,96,4.035,4.036,4.031,4.042,0,0,9.33,60.26,1055.8169445473,4.593176,6,P-GPS,
10200,2025-01-13 05:00:11,0,0,4.265092,,,1055.4888605473,5.249344,0,0,0,12,2,16.276,1055.8169445473,4.593176,5.1673314,0,0,0,0,116.9, 2.5, 0.7,0,0,1024,1024,1024,1024,0,0,0,0,126.2,0,0,96,4.06,4.063,4.063,4.061,0,0,10.107,60.26,1055.4888605473,4.265092,6,P-GPS,
10400,2025-01-13 05:00:11,0,0,4.265092,,,1055.4888605473,5.249344,0,0,0,12,2,16.276,1055.8169445473,4.593176,5.1673314,0,0,0,0,117.5, 1.7, 2,0,0,1024,1263,1024,1024,0,36,0,0,126.2,0,0,96,4.06,4.063,4.063,4.061,0,0,10.107,60.26,1055.4888605473,4.265092,6,P-GPS,
10600,2025-01-13 05:00:11,0,0,4.265092,,,1055.4888605473,5.249344,0,0,0,13,2,16.276,1055.8169445473,4.593176,5.1673314,0,0,0,0,117.1, 1.2, 3.8,0,0,1024,1243,1024,1024,0,33,0,0,126.2,0,0,96,4.06,4.063,4.063,4.061,0,0,10.107,60.26,1055.4888605473,4.265092,6,P-GPS,
10800,2025-01-13 05:00:11,0,0,4.265092,,,1055.4888605473,5.249344,0,0,0,13,2,16.276,1055.8169445473,4.593176,5.1673314,0,0,0,0,117.7, 2, 7.4,0,0,1024,1217,1024,1024,0,29,0,0,126.2,0,0,96,4.06,4.063,4.063,4.061,0,0,10.107,60.26,1055.4888605473,4.265092,6,P-GPS,
11000,2025-01-13 05:00:12,0,0,4.265092,,,1055.4888605473,5.249344,0.223694,0,0,12,2,16.276,1055.8169445473,4.593176,5.1673314,0,-0.223694,0,0,117.6, 2.3, 9.5,0,0,1024,1170,1024,1024,0,22,0,0,126.2,0,0,96,4.06,4.063,4.063,4.061,0,0,10.107,60.26,1055.4888605473,4.265092,6,P-GPS,
11200,2025-01-13 05:00:12,0,0,4.593176,,,1055.8169445473,5.249344,0.4921268,0,0,12,2,16.249,1055.8169445473,4.593176,5.1673314,0,-0.447388,-0.223694,0,117.8, 2.6, 7.9,0,0,1024,1119,1024,1024,0,14,0,0,126.2,0,0,96,4.064,4.061,4.067,4.063,0,0,9.467,60.44,1055.8169445473,4.593176,6,P-GPS,
11400,2025-01-13 05:00:12,0,0,4.593176,,,1055.8169445473,5.249344,0.8052984,0,0,11,2,16.249,1055.8169445473,4.593176,5.1673314,0,-0.671082,-0.447388,0,117.8, 1.5, 4.9,0,0,1024,1024,1173,1024,0,0,23,0,126.2,0,0,96,4.064,4.061,4.067,4.063,0,0,9.467,60.44,1055.8169445473,4.593176,6,P-GPS,
11600,2025-01-13 05:00:12,0,0,4.593176,,,1055.8169445473,5.249344,0.8052984,0,0,11,2,16.249,1055.8169445473,4.593176,5.1673314,0,-0.671082,-0.447388,0,117.5, 0.9, 4.9,0,0,1024,1024,1427,1024,0,0,61,0,126.2,0,0,96,4.064,4.061,4.067,4.063,0,0,9.467,60.44,1055.8169445473,4.593176,6,P-GPS,
11800,2025-01-13 05:00:12,0,0,4.593176,,,1055.8169445473,5.249344,0.6263432,0,0,12,2,16.249,1055.8169445473,4.593176,5.1673314,0,-0.447388,-0.447388,-0.671082,116.8, 1.4, -2.1,0,0,1024,1024,1425,1024,0,0,61,0,126.2,0,0,96,4.064,4.061,4.067,4.063,0,0,9.467,60.44,1055.8169445473,4.593176,6,P-GPS,
12000,2025-01-13 05:00:13,0,0,5.249344,,,1056.4731125473,5.905512,0.223694,0,0,12,2,16.249,1056.4731125473,5.249344,5.1673314,0,0,-0.223694,-2.908022,114, 0.3, 2.1,0,0,1024,1024,1392,1033,0,0,56,1,126.2,0,0,96,4.064,4.061,4.067,4.063,0,0,9.467,60.44,1056.4731125473,5.249344,6,P-GPS,
12200,2025-01-13 05:00:13,0,0,6.233596,,,1057.4573645473,6.889764,0.223694,0,0,10,2,16.268,1057.4573645473,6.233596,5.1673314,0,0,-0.223694,-4.250186,113.2, -0.5, 6.7,0,0,1024,1024,1353,1024,0,0,50,0,126.2,0,0,96,3.977,3.981,3.977,3.971,0,0,9.143,60.44,1057.4573645473,6.233596,6,P-GPS,
12400,2025-01-13 05:00:13,0,0,7.545932,,,1058.7697005473,8.2021,0,0,0,10,2,16.268,1058.7697005473,7.545932,5.1673314,0,0,0,-4.250186,112.7, -0.4, 5,0,0,1024,1024,1173,1024,0,0,23,0,126.2,0,0,96,3.977,3.981,3.977,3.971,0,0,9.143,60.44,1058.7697005473,7.545932,6,P-GPS,
12600,2025-01-13 05:00:13,0,0,8.530184,,,1059.7539525473,9.186352,0.223694,0,0,11,2,16.268,1059.7539525473,8.530184,5.1673314,0,-0.223694,0,-2.908022,110.3, 1.1, 2.5,0,0,1024,1024,1024,1024,0,0,0,0,126.2,0,0,96,3.977,3.981,3.977,3.971,0,0,9.143,60.44,1059.7539525473,8.530184,6,P-GPS,
12800,2025-01-13 05:00:13,0,0,9.186352,,,1060.4101205473,9.84252,0,0,0,12,2,16.268,1060.4101205473,9.186352,5.1673314,0,0,0,-1.11847,109.3, 1.9, 2.7,0,0,1024,1024,1024,1024,0,0,0,0,126.2,0,0,96,3.977,3.981,3.977,3.971,0,0,9.143,60.44,1060.4101205473,9.186352,6,P-GPS,
13000,2025-01-13 05:00:14,0,0,9.514436,,,1060.7382045473,9.84252,0,0,0,10,2,16.268,1060.7382045473,9.514436,5.1673314,0,0,0,-0.223694,107.7, 1.8, 1.8,0,0,1024,1024,1314,1024,0,0,44,0,126.2,0,0,96,3.977,3.981,3.977,3.971,0,0,9.143,60.44,1060.7382045473,9.514436,6,P-GPS,
13200,2025-01-13 05:00:14,0,0,9.514436,,,1060.7382045473,9.84252,0,0,0,9,2,16.289,1060.7382045473,9.514436,5.1673314,0,0,0,0,106.9, 2.6, 1.5,0,0,1024,1024,1388,1024,0,0,55,0,126.2,0,0,95,4.118,4.118,4.11,4.098,0,0,11.049,60.62,1060.7382045473,9.514436,6,P-GPS,
13400,2025-01-13 05:00:14,0,0,9.514436,,,1060.7382045473,10.170604,0,0,0,9,2,16.289,1060.7382045473,9.514436,5.1673314,0,0,0,-0.894776,107.2, 2.5, 1.6,0,0,1024,1024,1369,1068,0,0,52,7,126.2,0,0,95,4.118,4.118,4.11,4.098,0,0,11.049,60.62,1060.7382045473,9.514436,6,P-GPS,
13600,2025-01-13 05:00:14,0,0,10.170604,,,1061.3943725473,10.498688,0,0,0,10,2,16.289,1061.3943725473,10.170604,5.1673314,0,0,0,-2.684328,106.6, 2.7, 0,0,0,1024,1024,1024,1024,0,0,0,0,126.2,0,0,95,4.118,4.118,4.11,4.098,0,0,11.049,60.62,1061.3943725473,10.170604,6,P-GPS,
13800,2025-01-13 05:00:14,0,0,10.826772,,,1062.0505405473,11.48294,0.223694,0,0,11,2,16.289,1062.0505405473,10.826772,5.1673314,0,0,-0.223694,-2.460634,107.4, 2, 1.3,0,0,1024,1024,1024,1024,0,0,0,0,126.4,0,0,95,4.118,4.118,4.11,4.098,0,0,11.049,60.62,1062.0505405473,10.826772,6,P-GPS,
14000,2025-01-13 05:00:15,0,0,11.48294,,,1062.7067085473,11.811024,0.223694,0,0,11,2,16.289,1062.7067085473,11.48294,5.1673314,0,0,-0.223694,-0.894776,107.7, 0, 0.2,0,0,1111,1024,1024,1024,13,0,0,0,126.4,0,0,95,4.118,4.118,4.11,4.098,0,0,11.049,60.62,1062.7067085473,11.48294,6,P-GPS,
14200,2025-01-13 05:00:15,0,0,11.48294,,,1062.7067085473,12.139108,0,0,0,11,2,15.921,1062.7067085473,11.48294,5.1673314,0,0,0,0,107.8, -1.3, -1.4,0,0,1236,1024,1024,1024,32,0,0,0,126.4,0,0,95,4.108,4.101,4.101,4.101,0,0,9.96,60.8,1062.7067085473,11.48294,6,P-GPS,
14400,2025-01-13 05:00:15,0,0,11.48294,,,1062.7067085473,12.139108,0,0,0,12,2,15.921,1062.7067085473,11.48294,5.1673314,0,0,0,0,107.6, -0.2, -2.4,0,0,1275,1024,1024,1024,38,0,0,0,126.4,0,0,95,4.108,4.101,4.101,4.101,0,0,9.96,60.8,1062.7067085473,11.48294,6,P-GPS,
14600,2025-01-13 05:00:15,0,0,11.48294,,,1062.7067085473,12.139108,0.223694,0,0,11,2,15.921,1062.7067085473,11.48294,5.1673314,0,0,0.223694,0,107.4, -1.5, 0,0,0,1264,1024,1024,1024,36,0,0,0,126.4,0,0,95,4.108,4.101,4.101,4.101,0,0,9.96,60.8,1062.7067085473,11.48294,6,P-GPS,
14800,2025-01-13 05:00:16,0,0,11.48294,,,1062.7067085473,11.811024,0.447388,0,0,12,2,15.921,1062.7067085473,11.48294,5.1673314,0,0,0.447388,0,107.5, -1.1, 0.9,0,0,1254,1024,1024,1024,35,0,0,0,126.4,0,0,95,4.108,4.101,4.101,4.101,0,0,9.96,60.8,1062.7067085473,11.48294,6,P-GPS,
15200,2025-01-13 05:00:16,0,0,11.48294,,,1062.7067085473,11.811024,0.894776,0,0,13,2,16.242,1062.7067085473,11.48294,5.1673314,0,0,0.894776,0,109.8, -3.2, 0.5,0,0,1253,1024,1024,1024,35,0,0,0,126.4,0,0,95,4.043,4.042,4.044,4.041,0,0,7.889,60.8,1062.7067085473,11.48294,6,P-GPS,
15400,2025-01-13 05:00:16,0,0,11.48294,,,1062.7067085473,11.811024,1.342164,0,0,11,2,16.242,1062.7067085473,11.48294,5.1673314,0,0,1.342164,0,110.1, -1.8, 1,0,0,1253,1024,1024,1024,35,0,0,0,126.4,0,0,95,4.043,4.042,4.044,4.041,0,0,7.889,60.8,1062.7067085473,11.48294,6,P-GPS,
15600,2025-01-13 05:00:16,0,0,11.48294,,,1062.7067085473,11.811024,1.5882274,0,0,12,2,16.242,1062.7067085473,11.48294,5.1673314,0,-0.223694,1.565858,0,110.2, -1.5, 1.8,0,0,1250,1024,1024,1024,34,0,0,0,126.4,0,0,95,4.043,4.042,4.044,4.041,0,0,7.889,60.8,1062.7067085473,11.48294,6,P-GPS,
15800,2025-01-13 05:00:16,0,0,11.48294,,,1062.7067085473,11.811024,1.8342908,0,0,12,2,16.242,1062.7067085473,11.48294,5.1673314,0,-0.447388,1.789552,0,110.2, -1.3, 1.4,0,0,1249,1024,1024,1024,34,0,0,0,126.4,0,0,95,4.043,4.042,4.044,4.041,0,0,7.889,60.8,1062.7067085473,11.48294,6,P-GPS,
16000,2025-01-13 05:00:17,0,0,11.48294,,,1062.7067085473,11.811024,1.8342908,0,0,12,2,16.242,1062.7067085473,11.48294,5.1673314,0,-0.447388,1.789552,0,110.1, -0.9, 1.6,0,0,1215,1024,1024,1024,29,0,0,0,126.4,0,0,95,4.043,4.042,4.044,4.041,0,0,7.889,60.8,1062.7067085473,11.48294,6,P-GPS,
16200,2025-01-13 05:00:17,0,0,11.48294,,,1062.7067085473,12.139108,2.0579848,0,0,11,2,16.153,1062.7067085473,11.48294,5.1673314,0,-0.447388,2.013246,0,110.4, -0.5, 0.7,0,0,1024,1024,1024,1024,0,0,0,0,126.4,0,0,95,4.033,4.036,4.037,4.038,0,0,9.976,60.98,1062.7067085473,11.48294,6,P-GPS,
16400,2025-01-13 05:00:17,0,0,11.48294,,,1062.7067085473,12.139108,2.0579848,0,0,13,2,16.153,1062.7067085473,11.48294,5.1673314,0,-0.447388,2.013246,0,110.1, 3.3, 0.3,0,0,1024,1148,1024,1024,0,19,0,0,126.4,0,0,95,4.033,4.036,4.037,4.038,0,0,9.976,60.98,1062.7067085473,11.48294,6,P-GPS,
16600,2025-01-13 05:00:17,0,0,11.48294,,,1062.7067085473,12.139108,1.6329662,0,0,12,2,16.153,1062.7067085473,11.48294,5.1673314,0,-0.447388,1.565858,0,111.3, 13.9, 1.6,0,0,1024,1261,1024,1024,0,36,0,0,126.4,0,0,95,4.033,4.036,4.037,4.038,0,0,9.976,60.98,1062.7067085473,11.48294,6,P-GPS,
16800,2025-01-13 05:00:17,0,0,11.48294,,,1062.7067085473,12.139108,0.9171454,0,0,11,2,16.153,1062.7067085473,11.48294,5.1673314,0,-0.223694,0.894776,0,112.7, 5.1, 1.6,0,0,1024,1343,1024,1024,0,48,0,0,126.4,0,0,95,4.033,4.036,4.037,4.038,0,0,9.976,60.98,1062.7067085473,11.48294,6,P-GPS,
17000,2025-01-13 05:00:18,0,0,11.48294,,,1062.7067085473,12.139108,0.7158208,0,0,10,2,16.153,1062.7067085473,11.48294,5.1673314,0,-0.223694,0.671082,0,113.1, 3, 5.8,0,0,1030,1387,1024,1024,1,55,0,0,126.4,0,0,95,4.033,4.036,4.037,4.038,0,0,9.976,60.98,1062.7067085473,11.48294,6,P-GPS,
17200,2025-01-13 05:00:18,0,0,11.48294,,,1062.7067085473,12.139108,0.6263432,0,0,12,2,16.2,1062.7067085473,11.48294,5.1673314,0,-0.447388,0.447388,0,113.4, 2.6, 10.6,0,0,1035,1385,1024,1024,2,55,0,0,126.4,0,0,95,4.038,4.039,4.04,4.036,0,0,9.751,61.16,1062.7067085473,11.48294,6,P-GPS,
17400,2025-01-13 05:00:18,0,0,11.48294,,,1062.7067085473,12.139108,1.1408394,0,0,12,2,16.2,1062.7067085473,11.48294,5.1673314,0,-1.11847,0.223694,0,114.1, 2.4, 13,0,0,1024,1327,1024,1024,0,46,0,0,126.4,0,0,95,4.038,4.039,4.04,4.036,0,0,9.751,61.16,1062.7067085473,11.48294,6,P-GPS,
17600,2025-01-13 05:00:19,0,0,11.48294,,,1062.7067085473,12.139108,2.013246,0,0,12,2,16.2,1062.7067085473,11.48294,5.1673314,0,-2.013246,0,0,113.4, 3.5, 13.8,0,0,1024,1024,1024,1024,0,0,0,0,126.4,0,0,95,4.038,4.039,4.04,4.036,0,0,9.751,61.16,1062.7067085473,11.48294,6,P-GPS,
18000,2025-01-13 05:00:19,0,0,11.48294,,,1062.7067085473,12.139108,3.131716,0,0,12,2,16.2,1062.7067085473,11.48294,5.1673314,0,-3.131716,-0.223694,0,106.9, 2.9, 0,0,0,1024,1024,1024,1024,0,0,0,0,126.4,0,0,95,4.038,4.039,4.04,4.036,0,0,9.751,61.16,1062.7067085473,11.48294,6,P-GPS,
18200,2025-01-13 05:00:19,0,0,11.48294,,,1062.7067085473,12.139108,2.460634,0,0,12,2,16.132,1062.7067085473,11.48294,5.1673314,0,-2.460634,-0.223694,0,107.8, 5.6, -14.5,0,0,1024,1024,1143,1024,0,0,18,0,126.4,0,0,95,4.03,4.032,4.037,4.036,0,0,10.093,61.16,1062.7067085473,11.48294,6,P-GPS,
18400,2025-01-13 05:00:19,0,0,11.48294,,,1062.7067085473,12.139108,0.894776,0,0,12,2,16.132,1062.7067085473,11.48294,5.1673314,0,-0.894776,0,0,113.9, 6.5, -11.2,0,0,1024,1024,1339,1024,0,0,48,0,126.4,0,0,95,4.03,4.032,4.037,4.036,0,0,10.093,61.16,1062.7067085473,11.48294,6,P-GPS,
18600,2025-01-13 05:00:19,0,0,11.48294,,,1062.7067085473,12.139108,0,0,0,12,2,16.132,1062.7067085473,11.48294,5.1673314,0,0,0,-0.671082,114.4, 3.5, -1.1,0,0,1024,1024,1327,1024,0,0,46,0,126.4,0,0,95,4.03,4.032,4.037,4.036,0,0,10.093,61.16,1062.7067085473,11.48294,6,P-GPS,
18800,2025-01-13 05:00:19,0,0,12.139108,,,1063.3628765473,12.467192,0,0,0,13,2,16.132,1063.3628765473,12.139108,5.1673314,0,0,0,-2.23694,113.7, 2.3, 1.5,0,0,1024,1024,1269,1024,0,0,37,0,126.4,0,0,95,4.03,4.032,4.037,4.036,0,0,10.093,61.16,1063.3628765473,12.139108,6,P-GPS,
19000,2025-01-13 05:00:20,0,0,12.795276,,,1064.0190445473,13.12336,0,0,0,15,2,16.132,1064.0190445473,12.795276,5.1673314,0,0,0,-2.684328,114, 2.6, 2,0,0,1024,1024,1024,1024,0,0,0,0,126.4,0,0,95,4.03,4.032,4.037,4.036,0,0,10.093,61.16,1064.0190445473,12.795276,6,P-GPS,
19200,2025-01-13 05:00:20,0,0,13.779528,,,1065.0032965473,14.107612,0,0,0,13,2,16.086,1065.0032965473,13.779528,5.1673314,0,0,0,-2.23694,113.4, 2.8, 1.1,0,0,1024,1024,1024,1024,0,0,0,0,126.4,0,0,95,3.993,4.002,4.006,4.009,0,0,10.683,61.34,1065.0032965473,13.779528,6,P-GPS,
19400,2025-01-13 05:00:20,0,0,14.107612,,,1065.3313805473,14.435696,0.223694,0,0,11,2,16.086,1065.3313805473,14.107612,5.1673314,0,-0.223694,0,-0.671082,111.9, 2.2, -1.6,0,0,1024,1024,1024,1024,0,0,0,0,126.4,0,0,95,3.993,4.002,4.006,4.009,0,0,10.683,61.34,1065.3313805473,14.107612,6,P-GPS,
19600,2025-01-13 05:00:20,0,0,14.107612,,,1065.3313805473,14.76378,0.223694,0,0,12,2,16.086,1065.3313805473,14.107612,5.1673314,0,-0.223694,0,0,110.9, 1.5, -4.4,0,0,1024,1024,1033,1024,0,0,1,0,126.4,0,0,95,3.993,4.002,4.006,4.009,0,0,10.683,61.34,1065.3313805473,14.107612,6,P-GPS,
19800,2025-01-13 05:00:20,0,0,14.107612,,,1065.3313805473,14.76378,0,0,0,11,2,16.086,1065.3313805473,14.107612,5.1673314,0,0,0,0,110.6, 1, -5.2,0,0,1024,1024,1068,1024,0,0,7,0,126.4,0,0,95,3.993,4.002,4.006,4.009,0,0,10.683,61.34,1065.3313805473,14.107612,6,P-GPS,
20000,2025-01-13 05:00:21,0,0,14.107612,,,1065.3313805473,14.435696,0,0,0,12,2,16.086,1065.3313805473,14.107612,5.1673314,0,0,0,0,110.7, 1.1, -3.9,0,0,1024,1024,1077,1024,0,0,8,0,126.4,0,0,95,3.993,4.002,4.006,4.009,0,0,10.683,61.34,1065.3313805473,14.107612,6,P-GPS,
20400,2025-01-13 05:00:21,0,0,14.107612,,,1065.3313805473,14.435696,0,0,0,13,2,16.32,1065.3313805473,14.107612,5.1673314,0,0,0,0,111.1, 1.4, -2.8,0,0,1024,1024,1113,1024,0,0,13,0,126.4,0,0,95,4.041,4.037,4.038,4.034,0,0,9.308,61.52,1065.3313805473,14.107612,6,P-GPS,
20600,2025-01-13 05:00:21,0,0,14.107612,,,1065.3313805473,14.76378,0.223694,0,0,14,2,16.32,1065.3313805473,14.107612,5.1673314,0,0.223694,0,0,110.8, 1, -2.8,0,0,1024,1024,1156,1024,0,0,20,0,126.4,0,0,95,4.041,4.037,4.038,4.034,0,0,9.308,61.52,1065.3313805473,14.107612,6,P-GPS,
20800,2025-01-13 05:00:21,0,0,14.107612,,,1065.3313805473,14.76378,0.223694,0,0,14,2,16.32,1065.3313805473,14.107612,5.1673314,0,0.223694,0,-0.223694,110.8, 0.7, -1.4,0,0,1024,1024,1195,1024,0,0,26,0,126.4,0,0,95,4.041,4.037,4.038,4.034,0,0,9.308,61.52,1065.3313805473,14.107612,6,P-GPS,
21000,2025-01-13 05:00:22,0,0,14.435696,,,1065.6594645473,14.76378,0.223694,0,0,12,2,16.32,1065.6594645473,14.435696,5.1673314,0,0.223694,0,-0.223694,111.1, 0.6, 0.1,0,0,1024,1024,1213,1024,0,0,29,0,126.4,0,0,95,4.041,4.037,4.038,4.034,0,0,9.308,61.52,1065.6594645473,14.435696,6,P-GPS,
21200,2025-01-13 05:00:22,0,0,14.435696,,,1065.6594645473,15.091864,0,0,0,12,2,16.32,1065.6594645473,14.435696,5.1673314,0,0,0,-0.671082,111.2, 0.5, 0,0,0,1024,1024,1213,1024,0,0,29,0,126.4,0,0,95,4.041,4.037,4.038,4.034,0,0,9.308,61.52,1065.6594645473,14.435696,6,P-GPS,
21400,2025-01-13 05:00:22,0,0,14.76378,,,1065.9875485473,15.091864,0,0,0,13,2,16.187,1065.9875485473,14.76378,5.1673314,0,0,0,-0.894776,111.3, 1.7, -1.3,0,0,1024,1024,1213,1024,0,0,29,0,126.4,0,0,95,4.04,4.037,4.036,4.031,0,0,9.415,61.7,1065.9875485473,14.76378,6,P-GPS,
21600,2025-01-13 05:00:22,0,0,15.091864,,,1066.3156325473,15.419948,0.223694,0,0,16,2,16.187,1066.3156325473,15.091864,5.1673314,0,0,0.223694,-0.894776,110.6, 2.9, -0.8,0,0,1024,1024,1209,1024,0,0,28,0,126.4,0,0,95,4.04,4.037,4.036,4.031,0,0,9.415,61.7,1066.3156325473,15.091864,6,P-GPS,
21800,2025-01-13 05:00:22,0,0,15.419948,,,1066.6437165473,15.748032,0,0,0,15,2,16.187,1066.6437165473,15.419948,5.1673314,0,0,0,-0.894776,110.7, 2.9, 0.9,0,0,1024,1024,1209,1024,0,0,28,0,126.4,0,0,95,4.04,4.037,4.036,4.031,0,0,9.415,61.7,1066.6437165473,15.419948,6,P-GPS,
22000,2025-01-13 05:00:23,0,0,15.419948,,,1066.6437165473,16.076116,0,0,0,13,2,16.187,1066.6437165473,15.419948,5.1673314,0,0,0,-0.894776,111.3, 2.2, 1.3,0,0,1024,1024,1208,1024,0,0,28,0,126.4,0,0,95,4.04,4.037,4.036,4.031,0,0,9.415,61.7,1066.6437165473,15.419948,6,P-GPS,
22200,2025-01-13 05:00:23,0,0,15.748032,,,1066.9718005473,16.4042,0,0,0,14,2,16.187,1066.9718005473,15.748032,5.1673314,0,0,0,-0.894776,111.1, 1.5, 0.8,0,0,1024,1024,1157,1024,0,0,20,0,126.4,0,0,95,4.04,4.037,4.036,4.031,0,0,9.415,61.7,1066.9718005473,15.748032,6,P-GPS,
22400,2025-01-13 05:00:23,0,0,16.076116,,,1067.2998845473,16.732284,0,0,0,13,2,16.173,1067.2998845473,16.076116,5.1673314,0,0,0,-0.671082,111, 1.7, -1.1,0,0,1024,1024,1024,1024,0,0,0,0,126.4,0,0,95,4.04,4.039,4.04,4.034,0,0,9.422,61.7,1067.2998845473,16.076116,6,P-GPS,
22600,2025-01-13 05:00:23,0,0,16.4042,,,1067.6279685473,16.732284,0,0,0,12,2,16.173,1067.6279685473,16.4042,5.1673314,0,0,0,-0.671082,110.7, 1.6, -1.2,0,0,1024,1024,1024,1024,0,0,0,0,126.4,0,0,95,4.04,4.039,4.04,4.034,0,0,9.422,61.7,1067.6279685473,16.4042,6,P-GPS,
22800,2025-01-13 05:00:23,0,0,16.4042,,,1067.6279685473,17.060368,0,0,0,12,2,16.173,1067.6279685473,16.4042,5.1673314,0,0,0,0,111, 2.1, -2.5,0,0,1024,1024,1024,1024,0,0,0,0,126.4,0,0,95,4.04,4.039,4.04,4.034,0,0,9.422,61.7,1067.6279685473,16.4042,6,P-GPS,
23000,2025-01-13 05:00:24,0,0,16.4042,,,1067.6279685473,17.060368,0,0,0,13,2,16.173,1067.6279685473,16.4042,5.1673314,0,0,0,0,110.5, 2.9, -2.1,0,0,1024,1024,1024,1024,0,0,0,0,126.4,0,0,95,4.04,4.039,4.04,4.034,0,0,9.422,61.7,1067.6279685473,16.4042,6,P-GPS,
23200,2025-01-13 05:00:24,0,0,16.4042,,,1067.6279685473,17.060368,0,0,0,13,2,16.173,1067.6279685473,16.4042,5.1673314,0,0,0,0,110.7, 2.5, -1.4,0,0,1024,1024,1024,1024,0,0,0,0,126.4,0,0,95,4.04,4.039,4.04,4.034,0,0,9.422,61.7,1067.6279685473,16.4042,6,P-GPS,
23400,2025-01-13 05:00:24,0,0,16.4042,,,1067.6279685473,17.060368,0,0,0,13,2,16.097,1067.6279685473,16.4042,5.1673314,0,0,0,0,110.5, 1.9, -0.5,0,0,1024,1024,1024,1024,0,0,0,0,126.4,0,0,95,4.051,4.048,4.045,4.04,0,0,9.37,61.88,1067.6279685473,16.4042,6,P-GPS,
23600,2025-01-13 05:00:24,0,0,16.4042,,,1067.6279685473,17.060368,0,0,0,14,2,16.097,1067.6279685473,16.4042,5.1673314,0,0,0,0,110.6, 1.8, -0.3,0,0,1024,1024,1024,1024,0,0,0,0,126.4,0,0,95,4.051,4.048,4.045,4.04,0,0,9.37,61.88,1067.6279685473,16.4042,6,P-GPS,
23800,2025-01-13 05:00:24,0,0,16.076116,,,1067.2998845473,17.060368,0,0,0,15,2,16.097,1067.6279685473,16.4042,5.1673314,0,0,0,0,111, 1.7, -1.7,0,0,1024,1024,1024,1024,0,0,0,0,126.4,0,0,95,4.051,4.048,4.045,4.04,0,0,9.37,61.88,1067.2998845473,16.076116,6,P-GPS,
24000,2025-01-13 05:00:25,0,0,16.076116,,,1067.2998845473,17.060368,0,0,0,16,2,16.097,1067.6279685473,16.4042,5.1673314,0,0,0,0,110.8, 1.5, -1.2,0,0,1024,1024,1024,1024,0,0,0,0,126.4,0,0,95,4.051,4.048,4.045,4.04,0,0,9.37,61.88,1067.2998845473,16.076116,6,P-GPS,
24200,2025-01-13 05:00:25,0,0,16.076116,,,1067.2998845473,17.060368,0,0,0,16,2,16.097,1067.6279685473,16.4042,5.1673314,0,0,0,0,111.1, 1.6, -0.4,0,0,1024,1024,1024,1024,0,0,0,0,126.4,0,0,95,4.051,4.048,4.045,4.04,0,0,9.37,61.88,1067.2998845473,16.076116,6,P-GPS,
24400,2025-01-13 05:00:25,0,0,16.076116,,,1067.2998845473,16.732284,0,0,0,16,2,16.179,1067.6279685473,16.4042,5.1673314,0,0,0,0,111.1, 2.4, 0.7,0,0,1024,1024,1024,1122,0,0,0,15,126.4,0,0,95,4.05,4.049,4.047,4.043,0,0,8.752,61.88,1067.2998845473,16.076116,6,P-GPS,
24600,2025-01-13 05:00:25,0,0,16.076116,,,1067.2998845473,16.732284,0,0,0,15,2,16.179,1067.6279685473,16.4042,5.1673314,0,0,0,0,111.4, 2.7, 0,0,0,1024,1024,1024,1444,0,0,0,64,126.4,0,0,95,4.05,4.049,4.047,4.043,0,0,8.752,61.88,1067.2998845473,16.076116,6,P-GPS,
24800,2025-01-13 05:00:25,0,0,16.076116,,,1067.2998845473,16.732284,0,0,0,14,2,16.179,1067.6279685473,16.4042,5.1673314,0,0,0,0,111.3, 3, 1,0,0,1024,1024,1024,1684,0,0,0,100,127.5,0,0,95,4.05,4.049,4.047,4.043,0,0,8.752,61.88,1067.2998845473,16.076116,6,P-GPS,
25000,2025-01-13 05:00:26,0,0,15.748032,,,1066.9718005473,16.732284,0,0,0,14,2,16.179,1067.6279685473,16.4042,5.1673314,0,0,0,0,115.3, 3, 0.5,0,0,1024,1024,1024,1684,0,0,0,100,134.7,0,0,95,4.05,4.049,4.047,4.043,0,0,8.752,61.88,1066.9718005473,15.748032,6,P-GPS,
25200,2025-01-13 05:00:26,0,0,15.748032,,,1066.9718005473,16.732284,0,0,0,15,2,16.179,1067.6279685473,16.4042,5.1673314,0,0,0,0,126.5, 2.2, 0.5,0,0,1024,1024,1024,1684,0,0,0,100,134.7,0,0,95,4.05,4.049,4.047,4.043,0,0,8.752,61.88,1066.9718005473,15.748032,6,P-GPS,
25400,2025-01-13 05:00:26,0,0,15.748032,,,1066.9718005473,16.732284,0,0,0,15,2,16.165,1067.6279685473,16.4042,5.1673314,0,0,0,0,138.5, 2.1, 2,0,0,1024,1024,1024,1684,0,0,0,100,158.3,0,0,95,4.046,4.047,4.05,4.047,0,0,8.773,61.88,1066.9718005473,15.748032,6,P-GPS,
25600,2025-01-13 05:00:26,0,0,15.748032,,,1066.9718005473,16.732284,0,0,0,14,2,16.165,1067.6279685473,16.4042,5.1673314,0,0,0,0,150.7, 1.4, 3.9,0,0,1024,1024,1024,1684,0,0,0,100,170.3,0,0,95,4.046,4.047,4.05,4.047,0,0,8.773,61.88,1066.9718005473,15.748032,6,P-GPS,
25800,2025-01-13 05:00:26,0,0,15.748032,,,1066.9718005473,17.060368,0,0,0,12,2,16.165,1067.6279685473,16.4042,5.1673314,0,0,0,0,162.4, 0, 4,0,0,1024,1024,1024,1684,0,0,0,100,170.3,0,0,95,4.046,4.047,4.05,4.047,0,0,8.773,61.88,1066.9718005473,15.748032,6,P-GPS,
26000,2025-01-13 05:00:27,0,0,15.748032,,,1066.9718005473,16.732284,0,0,0,12,2,16.165,1067.6279685473,16.4042,5.1673314,0,0,0,0,174.5, -1.2, 2.5,0,0,1024,1024,1024,1684,0,0,0,100,194.3,0,0,95,4.046,4.047,4.05,4.047,0,0,8.773,61.88,1066.9718005473,15.748032,6,P-GPS,
26200,2025-01-13 05:00:27,0,0,15.419948,,,1066.6437165473,16.732284,0,0,0,13,2,16.165,1067.6279685473,16.4042,5.1673314,0,0,0,0,186.4, -2.1, 4,0,0,1024,1024,1024,1684,0,0,0,100,206.3,0,0,95,4.046,4.047,4.05,4.047,0,0,8.773,61.88,1066.6437165473,15.419948,6,P-GPS,
26400,2025-01-13 05:00:27,0,0,15.419948,,,1066.6437165473,17.060368,0,0,0,13,2,16.192,1067.6279685473,16.4042,5.1673314,0,0,0,0,198.5, -3, 3.1,0,0,1024,1024,1024,1684,0,0,0,100,206.3,0,0,95,4.048,4.048,4.051,4.048,0,0,8.618,62.06,1066.6437165473,15.419948,6,P-GPS,
26600,2025-01-13 05:00:27,0,0,15.419948,,,1066.6437165473,17.060368,0,0,0,13,2,16.192,1067.6279685473,16.4042,5.1673314,0,0,0,0,210.3, -1.9, 1.5,0,0,1024,1024,1024,1684,0,0,0,100,230.3,0,0,95,4.048,4.048,4.051,4.048,0,0,8.618,62.06,1066.6437165473,15.419948,6,P-GPS,
26800,2025-01-13 05:00:27,0,0,15.419948,,,1066.6437165473,17.060368,0,0,0,12,2,16.192,1067.6279685473,16.4042,5.1673314,0,0,0,0,222.1, -1.9, 0,0,0,1024,1024,1024,1684,0,0,0,100,242.3,0,0,95,4.048,4.048,4.051,4.048,0,0,8.618,62.06,1066.6437165473,15.419948,6,P-GPS,
27000,2025-01-13 05:00:28,0,0,15.419948,,,1066.6437165473,17.060368,0,0,0,11,2,16.192,1067.6279685473,16.4042,5.1673314,0,0,0,0,234.3, -1.4, 0.3,0,0,1024,1024,1024,1684,0,0,0,100,242.3,0,0,95,4.048,4.048,4.051,4.048,0,0,8.618,62.06,1066.6437165473,15.419948,6,P-GPS,
27200,2025-01-13 05:00:28,0,0,15.419948,,,1066.6437165473,17.060368,0,0,0,11,2,16.192,1067.6279685473,16.4042,5.1673314,0,0,0,0,246.6, -0.9, -0.1,0,0,1024,1024,1024,1684,0,0,0,100,266.3,0,0,95,4.048,4.048,4.051,4.048,0,0,8.618,62.06,1066.6437165473,15.419948,6,P-GPS,
27400,2025-01-13 05:00:28,0,0,15.419948,,,1066.6437165473,17.060368,0,0,0,13,2,16.233,1067.6279685473,16.4042,5.1673314,0,0,0,0,258.4, -1, 0.3,0,0,1024,1024,1024,1684,0,0,0,100,278.3,0,0,95,4.055,4.059,4.057,4.053,0,0,8.209,62.06,1066.6437165473,15.419948,6,P-GPS,
27600,2025-01-13 05:00:28,0,0,15.419948,,,1066.6437165473,17.060368,0,0,0,12,2,16.233,1067.6279685473,16.4042,5.1673314,0,0,0,0,270.7, -0.7, 1.3,0,0,1024,1024,1024,1024,0,0,0,0,278.3,0,0,95,4.055,4.059,4.057,4.053,0,0,8.209,62.06,1066.6437165473,15.419948,6,P-GPS,
27800,2025-01-13 05:00:28,0,0,15.419948,,,1066.6437165473,17.060368,0,0,0,12,2,16.233,1067.6279685473,16.4042,5.1673314,0,0,0,0,282.7, -1.4, 0.9,0,0,1024,1024,1024,1024,0,0,0,0,302.1,0,0,95,4.055,4.059,4.057,4.053,0,0,8.209,62.06,1066.6437165473,15.419948,6,P-GPS,
28000,2025-01-13 05:00:29,0,0,15.419948,,,1066.6437165473,17.060368,0,0,0,14,2,16.233,1067.6279685473,16.4042,5.1673314,0,0,0,0,291.1, -1.1, 0.6,0,0,1024,1024,1024,1024,0,0,0,0,302.1,0,0,95,4.055,4.059,4.057,4.053,0,0,8.209,62.06,1066.6437165473,15.419948,6,P-GPS,
28200,2025-01-13 05:00:29,0,0,15.419948,,,1066.6437165473,16.732284,0,0,0,13,2,16.233,1067.6279685473,16.4042,5.1673314,0,0,0,0,289.8, -0.3, -0.8,0,0,1024,1024,1024,1024,0,0,0,0,305.3,0,0,95,4.055,4.059,4.057,4.053,0,0,8.209,62.06,1066.6437165473,15.419948,6,P-GPS,
28400,2025-01-13 05:00:29,0,0,15.419948,,,1066.6437165473,16.732284,0,0,0,13,2,16.203,1067.6279685473,16.4042,5.1673314,0,0,0,0,289.8, -0.9, 0,0,0,1024,1024,1024,1024,0,0,0,0,305.3,0,0,95,4.039,4.039,4.038,4.033,0,0,8.225,62.06,1066.6437165473,15.419948,6,P-GPS,
28600,2025-01-13 05:00:29,0,0,15.419948,,,1066.6437165473,16.732284,0,0,0,15,2,16.203,1067.6279685473,16.4042,5.1673314,0,0,0,0,289.6, 0.9, 0.6,0,0,1024,1024,1024,1024,0,0,0,0,305.3,0,0,95,4.039,4.039,4.038,4.033,0,0,8.225,62.06,1066.6437165473,15.419948,6,P-GPS,
28800,2025-01-13 05:00:29,0,0,15.419948,,,1066.6437165473,16.732284,0,0,0,15,2,16.203,1067.6279685473,16.4042,5.1673314,0,0,0,0,290, 1.8, 0.7,0,0,1024,1024,1024,1024,0,0,0,0,305.3,0,0,95,4.039,4.039,4.038,4.033,0,0,8.225,62.06,1066.6437165473,15.419948,6,P-GPS,
29000,2025-01-13 05:00:30,0,0,15.419948,,,1066.6437165473,16.732284,0,0,0,14,2,16.203,1067.6279685473,16.4042,5.1673314,0,0,0,0,289.9, 0, 0.9,0,0,1024,1024,1024,1024,0,0,0,0,305.3,0,0,95,4.039,4.039,4.038,4.033,0,0,8.225,62.06,1066.6437165473,15.419948,6,P-GPS,
29200,2025-01-13 05:00:30,0,0,15.419948,,,1066.6437165473,16.732284,0,0,0,14,2,16.203,1067.6279685473,16.4042,5.1673314,0,0,0,0,289.6, -1, -0.8,0,0,1024,1024,1024,1024,0,0,0,0,305.3,0,0,95,4.039,4.039,4.038,4.033,0,0,8.225,62.06,1066.6437165473,15.419948,6,P-GPS,
29400,2025-01-13 05:00:30,0,0,15.419948,,,1066.6437165473,16.732284,0.223694,0,0,13,2,16.119,1067.6279685473,16.4042,5.1673314,0,0,0.223694,0,290.2, -1.3, -2.3,0,0,1024,1024,1024,1024,0,0,0,0,305.3,0,0,95,4.029,4.032,4.036,4.035,0,0,9.264,62.42,1066.6437165473,15.419948,6,P-GPS,
29600,2025-01-13 05:00:30,0,0,15.419948,,,1066.6437165473,17.060368,0,0,0,13,2,16.119,1067.6279685473,16.4042,5.1673314,0,0,0,0,289.9, -2.1, -4.5,0,0,1024,1024,1024,1024,0,0,0,0,305.3,0,0,95,4.029,4.032,4.036,4.035,0,0,9.264,62.42,1066.6437165473,15.419948,6,P-GPS,
29800,2025-01-13 05:00:30,0,0,15.419948,,,1066.6437165473,17.060368,0,0,0,13,2,16.119,1067.6279685473,16.4042,5.1673314,0,0,0,0,289.7, -2.6, -5.2,0,0,1024,1024,1024,1024,0,0,0,0,305.3,0,0,95,4.029,4.032,4.036,4.035,0,0,9.264,62.42,1066.6437165473,15.419948,6,P-GPS,
30000,2025-01-13 05:00:31,0,0,15.419948,,,1066.6437165473,17.060368,0.447388,0,0,14,2,16.119,1067.6279685473,16.4042,5.1673314,0,-0.447388,0,0,289.7, -1.4, -1.8,0,0,1024,1024,1024,1024,0,0,0,0,305.3,0,0,95,4.029,4.032,4.036,4.035,0,0,9.264,62.42,1066.6437165473,15.419948,6,P-GPS,
30200,2025-01-13 05:00:31,0,0,15.419948,,,1066.6437165473,17.060368,0.447388,0,0,15,2,16.119,1067.6279685473,16.4042,5.1673314,0,-0.447388,0,0,290.8, -3.1, 2.3,0,0,1024,1024,1024,1024,0,0,0,0,305.3,0,0,95,4.029,4.032,4.036,4.035,0,0,9.264,62.42,1066.6437165473,15.419948,6,P-GPS,
30400,2025-01-13 05:00:31,0,0,15.419948,,,1066.6437165473,17.060368,0.223694,0,0,14,2,16.204,1067.6279685473,16.4042,5.1673314,0,-0.223694,0,0,291, -1.8, 4.4,0,0,1024,1024,1024,1024,0,0,0,0,305.3,0,0,94,4.058,4.059,4.061,4.053,0,0,8.676,62.42,1066.6437165473,15.419948,6,P-GPS,
30600,2025-01-13 05:00:31,0,0,15.091864,,,1066.3156325473,17.060368,0,0,0,13,2,16.204,1067.6279685473,16.4042,5.1673314,0,0,0,0,290.7, -2.1, 3.4,0,0,1024,1024,1024,1024,0,0,0,0,305.3,0,0,94,4.058,4.059,4.061,4.053,0,0,8.676,62.42,1066.3156325473,15.091864,6,P-GPS,
30800,2025-01-13 05:00:31,0,0,15.091864,,,1066.3156325473,17.060368,0.223694,0,0,12,2,16.204,1067.6279685473,16.4042,5.1673314,0,0.223694,0,0,290.3, -2, -1.7,0,0,1024,1024,1024,1024,0,0,0,0,305.3,0,0,94,4.058,4.059,4.061,4.053,0,0,8.676,62.42,1066.3156325473,15.091864,6,P-GPS,
31000,2025-01-13 05:00:32,0,0,15.091864,,,1066.3156325473,17.060368,0.223694,0,0,12,2,16.204,1067.6279685473,16.4042,5.1673314,0,0.223694,0,0,290.2, -0.5, -3.8,0,0,1024,1024,1024,1024,0,0,0,0,305.3,0,0,94,4.058,4.059,4.061,4.053,0,0,8.676,62.42,1066.3156325473,15.091864,6,P-GPS,
31200,2025-01-13 05:00:32,0,0,15.091864,,,1066.3156325473,17.060368,0,0,0,12,2,16.204,1067.6279685473,16.4042,5.1673314,0,0,0,0,290.5, -0.1, -2.6,0,0,1024,1024,1024,1024,0,0,0,0,305.3,0,0,94,4.058,4.059,4.061,4.053,0,0,8.676,62.42,1066.3156325473,15.091864,6,P-GPS,
31400,2025-01-13 05:00:32,0,0,15.091864,,,1066.3156325473,17.060368,0,0,0,12,2,16.177,1067.6279685473,16.4042,5.1673314,0,0,0,0,291.4, 0.4, -1.2,0,0,1024,997,1024,1024,0,-4,0,0,305.3,0,0,94,4.051,4.053,4.052,4.05,0,0,8.263,62.42,1066.3156325473,15.091864,6,P-GPS,
31600,2025-01-13 05:00:32,0,0,15.091864,,,1066.3156325473,17.060368,0,0,0,12,2,16.177,1067.6279685473,16.4042,5.1673314,0,0,0,0,290.9, 0.2, -1.3,0,0,1024,927,1024,1024,0,-15,0,0,305.3,0,0,94,4.051,4.053,4.052,4.05,0,0,8.263,62.42,1066.3156325473,15.091864,6,P-GPS,
31800,2025-01-13 05:00:32,0,0,15.091864,,,1066.3156325473,17.060368,0,0,0,11,2,16.177,1067.6279685473,16.4042,5.1673314,0,0,0,0,290.7, -0.4, -0.8,0,0,1024,917,1024,1024,0,-16,0,0,305.3,0,0,94,4.051,4.053,4.052,4.05,0,0,8.263,62.42,1066.3156325473,15.091864,6,P-GPS,
32000,2025-01-13 05:00:33,0,0,15.091864,,,1066.3156325473,17.060368,0,0,0,11,2,16.177,1067.6279685473,16.4042,5.1673314,0,0,0,0,291.1, 1.2, -0.4,0,0,1024,896,1024,1024,0,-19,0,0,305.3,0,0,94,4.051,4.053,4.052,4.05,0,0,8.263,62.42,1066.3156325473,15.091864,6,P-GPS,
32200,2025-01-13 05:00:33,0,0,15.419948,,,1066.6437165473,16.732284,0,0,0,11,2,16.177,1067.6279685473,16.4042,5.1673314,0,0,0,0,292.5, 0, -2.9,0,0,1024,887,1024,1024,0,-21,0,0,305.3,0,0,94,4.051,4.053,4.052,4.05,0,0,8.263,62.42,1066.6437165473,15.419948,6,P-GPS,
32400,2025-01-13 05:00:33,0,0,15.419948,,,1066.6437165473,16.732284,0.3131716,0,0,11,2,16.175,1067.6279685473,16.4042,5.1673314,0,-0.223694,-0.223694,0,290.5, 1.8, -1.4,0,0,1024,879,1024,1024,0,-22,0,0,305.3,0,0,94,4.046,4.049,4.047,4.041,0,0,8.297,62.6,1066.6437165473,15.419948,6,P-GPS,
32600,2025-01-13 05:00:33,0,0,15.419948,,,1066.6437165473,16.732284,0.447388,0,0,11,2,16.175,1067.6279685473,16.4042,5.1673314,0,-0.447388,0,0,291.4, 1.4, -2,0,0,1024,888,1024,1024,0,-21,0,0,305.3,0,0,94,4.046,4.049,4.047,4.041,0,0,8.297,62.6,1066.6437165473,15.419948,6,P-GPS,
32800,2025-01-13 05:00:33,0,0,15.748032,,,1066.9718005473,16.732284,0.447388,0,0,10,2,16.175,1067.6279685473,16.4042,5.1673314,0,-0.447388,0,0,290.5, 0.7, 1.4,0,0,1024,887,1024,1024,0,-21,0,0,305.3,0,0,94,4.046,4.049,4.047,4.041,0,0,8.297,62.6,1066.9718005473,15.748032,6,P-GPS,
33000,2025-01-13 05:00:34,0,0,15.748032,,,1066.9718005473,16.732284,0.447388,0,0,12,2,16.175,1067.6279685473,16.4042,5.1673314,0,-0.447388,0,0,289.9, 0.3, 0.2,0,0,1024,887,1024,1024,0,-21,0,0,305.3,0,0,94,4.046,4.049,4.047,4.041,0,0,8.297,62.6,1066.9718005473,15.748032,6,P-GPS,
33200,2025-01-13 05:00:34,0,0,15.748032,,,1066.9718005473,16.732284,0.671082,0,0,11,2,16.175,1067.6279685473,16.4042,5.1673314,0,-0.671082,0,0,289.8, 1.8, -1.1,0,0,1024,876,1024,1024,0,-22,0,0,305.3,0,0,94,4.046,4.049,4.047,4.041,0,0,8.297,62.6,1066.9718005473,15.748032,6,P-GPS,
33400,2025-01-13 05:00:34,0,0,15.748032,,,1066.9718005473,16.732284,0.894776,0,0,12,2,16.139,1067.6279685473,16.4042,5.1673314,0,-0.894776,0,0,291.3, 0.4, 2.5,0,0,1024,875,1024,1024,0,-23,0,0,305.3,0,0,94,4.032,4.033,4.037,4.027,0,0,9.219,62.6,1066.9718005473,15.748032,6,P-GPS,
33600,2025-01-13 05:00:34,0,0,15.748032,,,1066.9718005473,16.732284,0.671082,0,0,11,2,16.139,1067.6279685473,16.4042,5.1673314,0,-0.671082,0,0,290.5, -0.8, 3.2,0,0,1024,877,1024,1024,0,-22,0,0,305.3,0,0,94,4.032,4.033,4.037,4.027,0,0,9.219,62.6,1066.9718005473,15.748032,6,P-GPS,
33800,2025-01-13 05:00:34,0,0,15.748032,,,1066.9718005473,16.732284,0.671082,0,0,12,2,16.139,1067.6279685473,16.4042,5.1673314,0,-0.671082,0,0,290.5, -1.8, 0,0,0,1024,862,1024,1024,0,-25,0,0,305.3,0,0,94,4.032,4.033,4.037,4.027,0,0,9.219,62.6,1066.9718005473,15.748032,6,P-GPS,
34000,2025-01-13 05:00:35,0,0,15.748032,,,1066.9718005473,17.060368,0.671082,0,0,13,2,16.139,1067.6279685473,16.4042,5.1673314,0,-0.671082,0,0,291.4, -2.2, -0.6,0,0,1024,848,1024,1024,0,-27,0,0,305.3,0,0,94,4.032,4.033,4.037,4.027,0,0,9.219,62.6,1066.9718005473,15.748032,6,P-GPS,
34200,2025-01-13 05:00:35,0,0,15.748032,,,1066.9718005473,17.060368,0.671082,0,0,14,2,16.139,1067.6279685473,16.4042,5.1673314,0,-0.671082,0,0,291.3, -0.9, 0.6,0,0,1024,848,1024,1024,0,-27,0,0,305.3,0,0,94,4.032,4.033,4.037,4.027,0,0,9.219,62.6,1066.9718005473,15.748032,6,P-GPS,
34400,2025-01-13 05:00:35,0,0,15.748032,,,1066.9718005473,17.060368,0.447388,0,0,13,2,16.158,1067.6279685473,16.4042,5.1673314,0,-0.447388,0,0,291.1, -2.8, -2.1,0,0,1024,849,1024,1024,0,-27,0,0,305.3,0,0,94,4.041,4.041,4.042,4.036,0,0,8.852,62.6,1066.9718005473,15.748032,6,P-GPS,
34600,2025-01-13 05:00:35,0,0,15.748032,,,1066.9718005473,16.732284,0.4921268,0,0,12,2,16.158,1067.6279685473,16.4042,5.1673314,0,-0.447388,-0.223694,0,290.9, -0.1, -3.1,0,0,1024,837,1024,1024,0,-28,0,0,305.3,0,0,94,4.041,4.041,4.042,4.036,0,0,8.852,62.6,1066.9718005473,15.748032,6,P-GPS,
34800,2025-01-13 05:00:35,0,0,15.748032,,,1066.9718005473,16.732284,0.7158208,0,0,12,2,16.158,1067.6279685473,16.4042,5.1673314,0,-0.671082,-0.223694,0,290.3, -0.2, -5.2,0,0,1024,837,1024,1024,0,-28,0,0,305.3,0,0,94,4.041,4.041,4.042,4.036,0,0,8.852,62.6,1066.9718005473,15.748032,6,P-GPS,
35000,2025-01-13 05:00:36,0,0,15.748032,,,1066.9718005473,16.732284,1.2079476,0,0,11,2,16.158,1067.6279685473,16.4042,5.1673314,0,-1.11847,-0.447388,0,290, -0.6, -5.1,0,0,1024,841,1024,1024,0,-28,0,0,305.3,0,0,94,4.041,4.041,4.042,4.036,0,0,8.852,62.6,1066.9718005473,15.748032,6,P-GPS,
35200,2025-01-13 05:00:36,0,0,15.748032,,,1066.9718005473,16.732284,1.4092722,0,0,12,2,16.158,1067.6279685473,16.4042,5.1673314,0,-1.342164,-0.447388,0,290.2, -1.1, -3.5,0,0,1024,856,1024,1024,0,-25,0,0,305.3,0,0,94,4.041,4.041,4.042,4.036,0,0,8.852,62.6,1066.9718005473,15.748032,6,P-GPS,
35400,2025-01-13 05:00:36,0,0,15.748032,,,1066.9718005473,16.732284,1.6329662,0,0,12,2,16.194,1067.6279685473,16.4042,5.1673314,0,-1.565858,-0.447388,0,290.4, -0.8, -1.5,0,0,1024,863,1024,1024,0,-24,0,0,305.3,0,0,94,4.045,4.047,4.05,4.046,0,0,8.443,62.78,1066.9718005473,15.748032,6,P-GPS,
35600,2025-01-13 05:00:36,0,0,15.419948,,,1066.6437165473,16.732284,1.901399,0,0,12,2,16.194,1067.6279685473,16.4042,5.1673314,0,-1.789552,-0.671082,0,290.9, -0.5, -0.2,0,0,1024,887,1024,1024,0,-21,0,0,305.3,0,0,94,4.045,4.047,4.05,4.046,0,0,8.443,62.78,1066.6437165473,15.419948,6,P-GPS,
35800,2025-01-13 05:00:36,0,0,15.419948,,,1066.6437165473,16.732284,1.901399,0,0,13,2,16.194,1067.6279685473,16.4042,5.1673314,0,-1.789552,-0.671082,0,290.1, -0.8, 1.5,0,0,1024,1024,1024,1024,0,0,0,0,305.3,0,0,94,4.045,4.047,4.05,4.046,0,0,8.443,62.78,1066.6437165473,15.419948,6,P-GPS,
36000,2025-01-13 05:00:37,0,0,15.419948,,,1066.6437165473,16.732284,1.8342908,0,0,12,2,16.194,1067.6279685473,16.4042,5.1673314,0,-1.789552,-0.447388,0,289.1, -1, 4,0,0,1024,1024,1024,1024,0,0,0,0,305.3,0,0,94,4.045,4.047,4.05,4.046,0,0,8.443,62.78,1066.6437165473,15.419948,6,P-GPS,
36200,2025-01-13 05:00:37,0,0,15.419948,,,1066.6437165473,16.732284,1.3645334,0,0,14,2,16.194,1067.6279685473,16.4042,5.1673314,0,-1.342164,-0.223694,0,289.2, -1, 12.4,0,0,1024,1024,1024,1024,0,0,0,0,305.3,0,0,94,4.045,4.047,4.05,4.046,0,0,8.443,62.78,1066.6437165473,15.419948,6,P-GPS,
36400,2025-01-13 05:00:37,0,0,15.419948,,,1066.6437165473,16.732284,0.671082,0,0,14,2,16.202,1067.6279685473,16.4042,5.1673314,0,-0.671082,0,0,289.3, -1.9, 9.9,0,0,1024,1024,1024,1024,0,0,0,0,305.3,0,0,94,4.045,4.046,4.047,4.044,0,0,8.102,62.78,1066.6437165473,15.419948,6,P-GPS,
36600,2025-01-13 05:00:37,0,0,15.419948,,,1066.6437165473,16.732284,0.223694,0,0,15,2,16.202,1067.6279685473,16.4042,5.1673314,0,-0.223694,0,0,289.2, -2.1, 6.9,0,0,1024,1024,1024,1024,0,0,0,0,305.3,0,0,94,4.045,4.046,4.047,4.044,0,0,8.102,62.78,1066.6437165473,15.419948,6,P-GPS,
36800,2025-01-13 05:00:37,0,0,15.419948,,,1066.6437165473,16.732284,0,0,0,15,2,16.202,1067.6279685473,16.4042,5.1673314,0,0,0,0,291.5, -1.2, 4.2,0,0,1024,1024,1024,1024,0,0,0,0,305.3,0,0,94,4.045,4.046,4.047,4.044,0,0,8.102,62.78,1066.6437165473,15.419948,6,P-GPS,
37000,2025-01-13 05:00:38,0,0,15.419948,,,1066.6437165473,16.732284,0,0,0,15,2,16.202,1067.6279685473,16.4042,5.1673314,0,0,0,0,293.9, 0, 1.6,0,0,1024,1024,1024,1024,0,0,0,0,305.3,0,0,94,4.045,4.046,4.047,4.044,0,0,8.102,62.78,1066.6437165473,15.419948,6,P-GPS,
37200,2025-01-13 05:00:38,0,0,15.419948,,,1066.6437165473,16.732284,0,0,0,14,2,16.202,1067.6279685473,16.4042,5.1673314,0,0,0,0,295.3, -0.7, -0.6,0,0,1024,1024,1024,1024,0,0,0,0,305.3,0,0,94,4.045,4.046,4.047,4.044,0,0,8.102,62.78,1066.6437165473,15.419948,6,P-GPS,
37400,2025-01-13 05:00:38,0,0,15.419948,,,1066.6437165473,16.732284,0.223694,0,0,14,2,16.159,1067.6279685473,16.4042,5.1673314,0,0,-0.223694,0,294.3, 1.8, 2.2,0,0,1024,1024,1024,1024,0,0,0,0,305.3,0,0,94,4.035,4.037,4.039,4.035,0,0,8.457,62.96,1066.6437165473,15.419948,6,P-GPS,
37600,2025-01-13 05:00:38,0,0,15.419948,,,1066.6437165473,16.732284,0,0,0,14,2,16.159,1067.6279685473,16.4042,5.1673314,0,0,0,0,294.3, 2.2, 1.2,0,0,958,1024,1024,1024,-10,0,0,0,305.3,0,0,94,4.035,4.037,4.039,4.035,0,0,8.457,62.96,1066.6437165473,15.419948,6,P-GPS,
37800,2025-01-13 05:00:38,0,0,15.419948,,,1066.6437165473,16.732284,0,0,0,14,2,16.159,1067.6279685473,16.4042,5.1673314,0,0,0,0,294.3, 1.6, 1,0,0,874,1024,1024,1024,-23,0,0,0,305.3,0,0,94,4.035,4.037,4.039,4.035,0,0,8.457,62.96,1066.6437165473,15.419948,6,P-GPS,
38000,2025-01-13 05:00:39,0,0,15.419948,,,1066.6437165473,17.060368,0,0,0,14,2,16.159,1067.6279685473,16.4042,5.1673314,0,0,0,0,294.4, 2.2, 0.5,0,0,871,1024,1024,1024,-23,0,0,0,305.3,0,0,94,4.035,4.037,4.039,4.035,0,0,8.457,62.96,1066.6437165473,15.419948,6,P-GPS,
38200,2025-01-13 05:00:39,37.0152255876825,140.149116182711,15.419948,,,1066.6437165473,17.060368,0,0,0,15,2,16.159,1067.6279685473,16.4042,5.1673314,0,0,0,0,294.3, 2.8, 0.1,0,0,855,1024,1024,1024,-26,0,0,0,305.3,0,0,94,4.035,4.037,4.039,4.035,0,0,8.457,62.96,1066.6437165473,15.419948,6,P-GPS,
38400,2025-01-13 05:00:39,37.0152256259081,140.149116672172,15.419948,,,1066.6437165473,17.060368,0.223694,0.143271986212,0.143271986212,15,2,16.113,1067.6279685473,16.4042,5.1673314,0.143271986212,0,0.223694,0,294, 3.9, -0.6,0,0,844,1024,1024,1024,-27,0,0,0,305.3,0,0,94,4.035,4.032,4.038,4.033,0,0,8.937,62.96,1066.6437165473,15.419948,6,P-GPS,"GNSSがありません。慎重に飛行してください GNSS信号が微弱です。ホバリングが不安定です。慎重に飛行してください (Code: 30002)"
38600,2025-01-13 05:00:39,37.0152256300045,140.149117326296,15.419948,,,1066.6437165473,17.060368,0.447388,0.33351050936,0.33383859336,15,2,16.113,1067.6279685473,16.4042,5.1673314,0.33351050936,0,0.447388,0,294, 4.4, -1.8,0,0,861,1024,1024,1024,-25,0,0,0,305.3,0,0,94,4.035,4.032,4.038,4.033,0,0,8.937,62.96,1066.6437165473,15.419948,6,P-GPS,
38800,2025-01-13 05:00:39,37.0152255656566,140.149118125877,15.419948,,,1066.6437165473,16.732284,0.671082,0.56614831208,0.56795605492,15,2,16.113,1067.6279685473,16.4042,5.1673314,0.56614831208,0,0.671082,0,293.9, 2.9, -3.3,0,0,892,1024,1024,1024,-20,0,0,0,305.3,0,0,94,4.035,4.032,4.038,4.033,0,0,8.937,62.96,1066.6437165473,15.419948,6,P-GPS,
39000,2025-01-13 05:00:40,37.0152253808906,140.149118906005,15.419948,,,1066.6437165473,16.732284,0.7158208,0.79693900188,0.80501314912,15,2,16.113,1067.6279685473,16.4042,5.1673314,0.79693900188,-0.223694,0.671082,0,293.6, 3.1, -3.8,0,0,891,1024,1024,1024,-20,0,0,0,305.3,0,0,94,4.035,4.032,4.038,4.033,0,0,8.937,62.96,1066.6437165473,15.419948,6,P-GPS,
39200,2025-01-13 05:00:40,37.0152250439112,140.149119608871,15.419948,,,1066.6437165473,16.732284,0.8052984,1.01764767036,1.0438484586,15,4,16.113,1067.6279685473,16.4042,5.1673314,1.01764767036,-0.447388,0.671082,0,293.5, 2.5, -2.3,0,0,857,1024,1024,1024,-25,0,0,0,305.3,0,0,94,4.035,4.032,4.038,4.033,0,0,8.937,62.96,1066.6437165473,15.419948,6,P-GPS,"Setting new Maximum Flight Altitude to 150m (492 ft)"
39400,2025-01-13 05:00:40,37.0152245675871,140.14912023605,15.091864,,,1066.3156325473,16.732284,0.9395148,1.23809715248,1.29601054016,15,4,16.168,1067.6279685473,16.4042,5.1673314,1.23809715248,-0.671082,0.671082,0,293.6, 1.6, 0.1,0,0,844,1024,1024,1024,-27,0,0,0,305.3,0,0,94,4.031,4.035,4.036,4.037,0,0,8.538,63.14,1066.3156325473,15.091864,6,P-GPS,
39600,2025-01-13 05:00:40,37.0152240971491,140.149120837925,15.091864,,,1066.3156325473,16.732284,1.006623,1.46114505988,1.54137472124,14,4,16.168,1067.6279685473,16.4042,5.1673314,1.46114505988,-0.447388,0.894776,0,294, 1.9, 1.4,0,0,839,1024,1024,1024,-28,0,0,0,305.3,0,0,94,4.031,4.035,4.036,4.037,0,0,8.538,63.14,1066.3156325473,15.091864,6,P-GPS,
39800,2025-01-13 05:00:41,37.0152236343878,140.149121449521,15.091864,,,1066.3156325473,16.732284,1.006623,1.69177170768,1.78683732752,16,4,16.168,1067.6279685473,16.4042,5.1673314,1.69177170768,-0.447388,0.894776,0,294, 1.5, 0.8,0,0,876,1024,1024,1024,-22,0,0,0,305.3,0,0,94,4.031,4.035,4.036,4.037,0,0,8.538,63.14,1066.3156325473,15.091864,6,P-GPS,
40000,2025-01-13 05:00:41,37.0152231679835,140.149122077634,15.091864,,,1066.3156325473,16.732284,1.2079476,1.93095806704,2.03671922528,16,4,16.168,1067.6279685473,16.4042,5.1673314,1.93095806704,-0.447388,1.11847,0,293.7, 2, 1.4,0,0,1024,1024,1024,1024,0,0,0,0,305.3,0,0,94,4.031,4.035,4.036,4.037,0,0,8.538,63.14,1066.3156325473,15.091864,6,P-GPS,
40200,2025-01-13 05:00:41,37.0152227140766,140.149122839479,15.091864,,,1066.3156325473,16.732284,1.2079476,2.20453747212,2.31363852548,14,5,16.168,1067.6279685473,16.4042,5.1673314,2.20453747212,-0.447388,1.11847,0,293.8, 0.3, 0,0,0,1024,960,1024,1024,0,-10,0,0,305.3,0,0,94,4.031,4.035,4.036,4.037,0,0,8.538,63.14,1066.3156325473,15.091864,6,P-GPS,"ホームポイントを更新 (Code: 3000001)"
40400,2025-01-13 05:00:41,37.0152223362776,140.149123603248,15.091864,,,1066.3156325473,16.732284,0.9171454,2.46586950148,2.575377379,14,5,16.177,1067.6279685473,16.4042,5.1673314,2.46586950148,-0.223694,0.894776,0,293.9, -6, -0.2,0,0,1024,855,1024,1024,0,-26,0,0,305.3,0,0,94,4.04,4.042,4.045,4.042,0,0,8.402,63.14,1066.3156325473,15.091864,6,P-GPS,
40600,2025-01-13 05:00:41,37.0152221143869,140.149123981764,15.091864,,,1066.3156325473,16.732284,0.671082,2.60155192052,2.71217528364,14,5,16.177,1067.6279685473,16.4042,5.1673314,2.60155192052,0,0.671082,0,294.1, -2.5, -0.7,0,0,1024,770,1024,1024,0,-38,0,0,305.3,0,0,94,4.04,4.042,4.045,4.042,0,0,8.402,63.14,1066.3156325473,15.091864,6,P-GPS,
40800,2025-01-13 05:00:41,37.0152220196977,140.149124213421,15.091864,,,1066.3156325473,16.732284,0.447388,2.67731963948,2.7879922152,15,5,16.177,1067.6279685473,16.4042,5.1673314,2.67731963948,0,0.447388,0,295.1, -1.4, -4.2,0,0,1024,763,1024,1024,0,-40,0,0,305.3,0,0,94,4.04,4.042,4.045,4.042,0,0,8.402,63.14,1066.3156325473,15.091864,6,P-GPS,
41000,2025-01-13 05:00:42,37.0152217997582,140.149124275983,15.091864,,,1066.3156325473,16.732284,0.4921268,2.73294956252,2.87027896324,15,5,16.177,1067.6279685473,16.4042,5.1673314,2.73294956252,-0.447388,0.223694,0,295.5, -0.7, -7.3,0,0,1024,778,1024,1024,0,-37,0,0,305.3,0,0,94,4.04,4.042,4.045,4.042,0,0,8.402,63.14,1066.3156325473,15.091864,6,P-GPS,
41200,2025-01-13 05:00:42,37.0152211498643,140.149124175468,15.091864,,,1066.3156325473,16.732284,0.894776,2.8360893296,3.10919629372,15,5,16.177,1067.6279685473,16.4042,5.1673314,2.8360893296,-0.894776,0,0,295.9, -1.8, -6.3,0,0,1024,1024,1024,1024,0,0,0,0,305.3,0,0,94,4.04,4.042,4.045,4.042,0,0,8.402,63.14,1066.3156325473,15.091864,6,P-GPS,
41400,2025-01-13 05:00:42,37.0152202139807,140.149123990741,15.091864,,,1066.3156325473,16.732284,1.11847,3.00299878376,3.4548557536,14,5,16.165,1067.6279685473,16.4042,5.1673314,3.00299878376,-1.11847,0,0,296.2, -1.2, -4.4,0,0,1024,1024,1024,1024,0,0,0,0,305.3,0,0,94,4.033,4.033,4.037,4.035,0,0,8.368,63.14,1066.3156325473,15.091864,6,P-GPS,飛行中
41600,2025-01-13 05:00:42,37.0152191399481,140.149123792497,15.091864,,,1066.3156325473,16.732284,1.342164,3.23244761,3.8509515668,14,5,16.165,1067.6279685473,16.4042,5.1673314,3.23244761,-1.342164,0,0,294.5, -1.8, 5.9,0,0,1024,1024,1024,1024,0,0,0,0,305.3,0,0,94,4.033,4.033,4.037,4.035,0,0,8.368,63.14,1066.3156325473,15.091864,6,P-GPS,
41800,2025-01-13 05:00:42,37.015218397141,140.149123814142,15.091864,,,1066.3156325473,16.732284,0.671082,3.4387796376,4.122047376,14,5,16.165,1067.6279685473,16.4042,5.1673314,3.4387796376,-0.671082,0,0,294.3, -3.6, 4.9,0,0,1024,1024,1024,1024,0,0,0,0,305.3,0,0,94,4.033,4.033,4.037,4.035,0,0,8.368,63.14,1066.3156325473,15.091864,6,P-GPS,
42000,2025-01-13 05:00:43,37.0152180370929,140.149123919684,14.76378,,,1065.9875485473,17.060368,0.223694,3.5594161244,4.2569555168,15,5,16.165,1067.6279685473,16.4042,5.1673314,3.5594161244,-0.223694,0,0,294.7, -3.2, 2.3,0,0,1024,1024,1024,1024,0,0,0,0,305.3,0,0,94,4.033,4.033,4.037,4.035,0,0,8.368,63.14,1065.9875485473,14.76378,6,P-GPS,
42200,2025-01-13 05:00:43,37.0152179509785,140.149124125274,14.76378,,,1065.9875485473,16.732284,0,3.6217520844,4.3246064376,16,5,16.165,1067.6279685473,16.4042,5.1673314,3.6217520844,0,0,0,294.3, -3, 1.1,0,0,1024,1024,1024,1024,0,0,0,0,305.3,0,0,94,4.033,4.033,4.037,4.035,0,0,8.368,63.14,1065.9875485473,14.76378,6,P-GPS,
42400,2025-01-13 05:00:43,37.0152181337666,140.149124330548,14.76378,,,1065.9875485473,17.060368,0,3.60974421,4.4141733696,16,5,16.176,1067.6279685473,16.4042,5.1673314,3.6217520844,0,0,0,294.3, -1.7, -1.9,0,0,1024,1024,1024,1024,0,0,0,0,305.3,0,0,94,4.044,4.044,4.045,4.04,0,0,8.43,63.32,1065.9875485473,14.76378,6,P-GPS,
42600,2025-01-13 05:00:43,37.0152182725298,140.14912449924,14.76378,,,1065.9875485473,17.060368,0,3.6045932912,4.4847114296,16,5,16.176,1067.6279685473,16.4042,5.1673314,3.6217520844,0,0,0,294.5, -1.6, -2.1,0,0,1024,1024,1024,1024,0,0,0,0,305.3,0,0,94,4.044,4.044,4.045,4.04,0,0,8.43,63.32,1065.9875485473,14.76378,6,P-GPS,
