time(millisecond),datetime(utc),latitude,longitude,height_above_takeoff(feet),height_above_ground_at_drone_location(feet),ground_elevation_at_drone_location(feet),altitude_above_seaLevel(feet),height_sonar(feet),speed(mph),distance(feet),mileage(feet),satellites,gpslevel,voltage(v),max_altitude(feet),max_ascent(feet),max_speed(mph),max_distance(feet), xSpeed(mph), ySpeed(mph), zSpeed(mph), compass_heading(degrees), pitch(degrees), roll(degrees),isPhoto,isVideo,rc_elevator,rc_aileron,rc_throttle,rc_rudder,rc_elevator(percent),rc_aileron(percent),rc_throttle(percent),rc_rudder(percent),gimbal_heading(degrees),gimbal_pitch(degrees),gimbal_roll(degrees),battery_percent,voltageCell1,voltageCell2,voltageCell3,voltageCell4,voltageCell5,voltageCell6,current(A),battery_temperature(f),altitude(feet),ascent(feet),flycStateRaw,flycState,message
0,2025-01-13 04:04:30,0,0,0,Available with any HD 360 subscription,Available with any HD 360 subscription,1050.644054618,0.328084,0,0,0,0,0,0,1050.644054618,0,0,0,0,0,0,59.4, 4.2, 0.7,0,0,1024,1024,1024,1024,0,0,0,0,59.3,0,0,96,4.182,4.178,4.177,4.178,0,0,0,57.92,1050.644054618,0,41,Motors_Started,"機体は飛行していません。ビジョンシステムと障害物回避が無効です (Code: 180059)"
200,2025-01-13 04:04:30,0,0,0,,,1050.644054618,0.328084,0,0,0,0,0,0,1050.644054618,0,0,0,0,0,0,59.4, 4.2, 0.7,0,0,1024,1024,1024,1024,0,0,0,0,59.3,0,0,96,4.182,4.178,4.177,4.178,0,0,0,57.92,1050.644054618,0,41,Motors_Started,
400,2025-01-13 04:04:30,0,0,0,,,1050.644054618,0.328084,0,0,0,0,0,0,1050.644054618,0,0,0,0,0,0,59.4, 4.2, 0.7,0,0,1024,1024,1024,1024,0,0,0,0,59.3,0,0,96,4.182,4.178,4.177,4.178,0,0,0,57.92,1050.644054618,0,41,Motors_Started,"Setting new Return-To-Home altitude to 100m (328 ft). Data Recorder File Index is 86. Setting new Maximum Flight Altitude to 30m (98 ft)"
600,2025-01-13 04:04:31,0,0,0,,,1050.644054618,0,0,0,0,0,0,0,1050.644054618,0,0,0,0,0,0,59.5, 4.2, 0.7,0,0,1024,1024,1024,1024,0,0,0,0,59.3,0,0,96,4.182,4.178,4.177,4.178,0,0,0,57.92,1050.644054618,0,41,Motors_Started,"GNSS信号が微弱です。ホバリングが不安定です。慎重に飛行してください (Code: 30002). 機体は飛行していません。ビジョンシステムと障害物回避が無効です (Code: 180059)"
800,2025-01-13 04:04:31,0,0,0,,,1050.644054618,0,0,0,0,0,0,0,1050.644054618,0,0,0,0,0,0,59.6, 4.1, 0.7,0,0,1024,1024,1024,1024,0,0,0,0,59.3,0,0,96,4.182,4.178,4.177,4.178,0,0,0,57.92,1050.644054618,0,41,Motors_Started,GNSSがありません。慎重に飛行してください
1000,2025-01-13 04:04:31,0,0,0,,,1050.644054618,0,0,0,0,0,0,0,1050.644054618,0,0,0,0,0,0,59.6, 4.2, 0.7,0,0,1024,1024,1024,1024,0,0,0,0,59.3,0,0,96,4.182,4.178,4.177,4.178,0,0,0,57.92,1050.644054618,0,41,Motors_Started,
1200,2025-01-13 04:04:31,0,0,0,,,1050.644054618,0,0,0,0,0,0,0,1050.644054618,0,0,0,0,0,0,59.7, 4.1, 0.7,0,0,1024,1024,1024,1024,0,0,0,0,59.3,0,0,96,4.182,4.178,4.177,4.178,0,0,0,57.92,1050.644054618,0,41,Motors_Started,
1400,2025-01-13 04:04:31,0,0,0,,,1050.644054618,0,0,0,0,0,0,16.736,1050.644054618,0,0,0,0,0,0,59.7, 4.1, 0.7,0,0,1024,1024,1024,1024,0,0,0,0,59.3,0,0,96,4.182,4.178,4.177,4.178,0,0,3.68,57.92,1050.644054618,0,41,Motors_Started,
1600,2025-01-13 04:04:32,0,0,0,,,1050.644054618,0,0,0,0,0,0,16.736,1050.644054618,0,0,0,0,0,0,59.8, 4.1, 0.7,0,0,1024,1024,1024,1024,0,0,0,0,59.3,0,0,96,4.182,4.178,4.177,4.178,0,0,3.68,57.92,1050.644054618,0,11,AutoTakeoff,
1800,2025-01-13 04:04:32,0,0,0,,,1050.644054618,0,0,0,0,0,0,16.736,1050.644054618,0,0,0,0,0,0,59.8, 4.1, 0.7,0,0,1024,1024,1024,1024,0,0,0,0,59.3,0,0,96,4.182,4.178,4.177,4.178,0,0,3.68,57.92,1050.644054618,0,11,AutoTakeoff,
2000,2025-01-13 04:04:32,0,0,0,,,1050.644054618,0,0,0,0,0,0,16.736,1050.644054618,0,0,0,0,0,0,59.8, 3.8, 0.6,0,0,1024,1024,1024,1024,0,0,0,0,59.4,0,0,96,4.182,4.178,4.177,4.178,0,0,3.68,57.92,1050.644054618,0,11,AutoTakeoff,
2200,2025-01-13 04:04:32,0,0,0,,,1050.644054618,0,0,0,0,0,0,16.736,1050.644054618,0,0,0,0,0,-0.223694,60.4, -2.6, 0,0,0,1024,1024,1024,1024,0,0,0,0,59.4,0,0,96,4.182,4.178,4.177,4.178,0,0,3.68,57.92,1050.644054618,0,11,AutoTakeoff,"機体は飛行していません。ビジョンシステムと障害物回避が無効です (Code: 180059)"
2400,2025-01-13 04:04:32,0,0,0,,,1050.644054618,0.328084,0,0,0,0,0,16.875,1050.644054618,0,0,0,0,0,-0.894776,60.4, -1.2, 0,0,0,1024,1024,1024,1024,0,0,0,0,59.5,0,0,96,4.192,4.182,4.176,4.172,0,0,3.395,58.1,1050.644054618,0,11,AutoTakeoff,
2600,2025-01-13 04:04:33,0,0,0.328084,,,1050.972138618,0.328084,0.223694,0,0,0,0,16.875,1050.972138618,0.328084,0,0,0.223694,0,-0.894776,60.2, 2, 0.6,0,0,1024,1024,1024,1024,0,0,0,0,59.5,0,0,96,4.192,4.182,4.176,4.172,0,0,3.395,58.1,1050.972138618,0.328084,11,AutoTakeoff,
2800,2025-01-13 04:04:33,0,0,0.656168,,,1051.300222618,0.656168,0.223694,0,0,0,0,16.875,1051.300222618,0.656168,0,0,0.223694,0,-0.894776,60.6, 1.8, 1.8,0,0,1024,1024,1024,1024,0,0,0,0,59.6,0,0,96,4.192,4.182,4.176,4.172,0,0,3.395,58.1,1051.300222618,0.656168,11,AutoTakeoff,
3000,2025-01-13 04:04:33,0,0,0.984252,,,1051.628306618,0.984252,0,0,0,0,0,16.875,1051.628306618,0.984252,0,0,0,0,-0.894776,60.4, 1.2, 2.8,0,0,1024,1024,1024,1024,0,0,0,0,59.6,0,0,96,4.192,4.182,4.176,4.172,0,0,3.395,58.1,1051.628306618,0.984252,11,AutoTakeoff,
3200,2025-01-13 04:04:33,0,0,1.312336,,,1051.956390618,1.312336,0,0,0,0,0,16.875,1051.956390618,1.312336,0,0,0,0,-0.894776,60.2, 0.9, 3.3,0,0,1024,1024,1079,1024,0,0,8,0,59.6,0,0,96,4.192,4.182,4.176,4.172,0,0,3.395,58.1,1051.956390618,1.312336,11,AutoTakeoff,
3400,2025-01-13 04:04:33,0,0,1.64042,,,1052.284474618,1.64042,0,0,0,0,0,16.435,1052.284474618,1.64042,0,0,0,0,-1.11847,60.2, 0.5, 2.6,0,0,1024,1024,1088,1024,0,0,10,0,59.7,0,0,96,4.106,4.099,4.099,4.101,0,0,7.523,57.92,1052.284474618,1.64042,11,AutoTakeoff,
3600,2025-01-13 04:04:34,0,0,1.968504,,,1052.612558618,2.296588,0,0,0,0,0,16.435,1052.612558618,1.968504,0,0,0,0,-1.11847,60.5, 0.5, 2.3,0,0,1024,1024,1173,1024,0,0,23,0,59.7,0,0,96,4.106,4.099,4.099,4.101,0,0,7.523,57.92,1052.612558618,1.968504,11,AutoTakeoff,
3800,2025-01-13 04:04:34,0,0,2.296588,,,1052.940642618,2.624672,0,0,0,0,0,16.435,1052.940642618,2.296588,0,0,0,0,-1.11847,60.4, 1.1, 1.9,0,0,1024,1024,1190,1024,0,0,25,0,59.7,0,0,96,4.106,4.099,4.099,4.101,0,0,7.523,57.92,1052.940642618,2.296588,11,AutoTakeoff,飛行中
4000,2025-01-13 04:04:34,0,0,2.624672,,,1053.268726618,2.952756,0,0,0,0,0,16.435,1053.268726618,2.624672,0,0,0,0,-1.342164,60.4, 0.7, 1.4,0,0,1024,1024,1102,1024,0,0,12,0,59.7,0,0,96,4.106,4.099,4.099,4.101,0,0,7.523,57.92,1053.268726618,2.624672,11,AutoTakeoff,
4200,2025-01-13 04:04:34,0,0,3.28084,,,1053.924894618,3.608924,0,0,0,0,0,16.435,1053.924894618,3.28084,0,0,0,0,-1.565858,60.4, 1.1, 1.6,0,0,1024,1276,1024,1024,0,38,0,0,59.8,0,0,96,4.106,4.099,4.099,4.101,0,0,7.523,57.92,1053.924894618,3.28084,11,AutoTakeoff,
4400,2025-01-13 04:04:34,0,0,3.608924,,,1054.252978618,3.937008,0,0,0,0,0,16.369,1054.252978618,3.608924,0,0,0,0,-1.11847,60.4, 1.4, 2.8,0,0,1024,1325,1024,1024,0,46,0,0,59.8,0,0,96,4.089,4.08,4.079,4.083,0,0,8.654,57.92,1054.252978618,3.608924,6,P-GPS,
4600,2025-01-13 04:04:35,0,0,3.937008,,,1054.581062618,4.265092,0,0,0,0,0,16.369,1054.581062618,3.937008,0,0,0,0,-0.223694,60.3, 1, 6.1,0,0,1024,1295,1024,1024,0,41,0,0,59.8,0,0,96,4.089,4.08,4.079,4.083,0,0,8.654,57.92,1054.581062618,3.937008,6,P-GPS,
4800,2025-01-13 04:04:35,0,0,3.937008,,,1054.581062618,4.265092,0.447388,0,0,0,0,16.369,1054.581062618,3.937008,0,0,-0.447388,0,0,60.3, 0.2, 9,0,0,1024,1292,1024,1024,0,41,0,0,59.8,0,0,96,4.089,4.08,4.079,4.083,0,0,8.654,57.92,1054.581062618,3.937008,6,P-GPS,
5000,2025-01-13 04:04:35,0,0,3.937008,,,1054.581062618,4.265092,1.006623,0,0,0,0,16.369,1054.581062618,3.937008,0,0,-0.894776,0.447388,0,60.2, 0.4, 9.1,0,0,1024,1269,1024,1024,0,37,0,0,59.8,0,0,96,4.089,4.08,4.079,4.083,0,0,8.654,57.92,1054.581062618,3.937008,6,P-GPS,
5200,2025-01-13 04:04:35,0,0,3.937008,,,1054.581062618,4.265092,1.2974252,0,0,0,0,16.369,1054.581062618,3.937008,0,0,-1.11847,0.671082,0,60.1, 0.7, 7.9,0,0,1024,1261,1024,1024,0,36,0,0,59.8,0,0,96,4.089,4.08,4.079,4.083,0,0,8.654,57.92,1054.581062618,3.937008,6,P-GPS,
5400,2025-01-13 04:04:35,0,0,3.937008,,,1054.581062618,4.265092,1.8119214,0,0,0,0,16.469,1054.581062618,3.937008,0,0,-1.565858,0.894776,0,60.2, 0.7, 7,0,0,1024,1174,1024,1024,0,23,0,0,59.8,0,0,96,4.105,4.099,4.098,4.098,0,0,7.819,57.92,1054.581062618,3.937008,6,P-GPS,
5600,2025-01-13 04:04:36,0,0,3.937008,,,1054.581062618,4.265092,1.9908766,0,0,0,0,16.469,1054.581062618,3.937008,0,0,-1.789552,0.894776,0,60.2, 1.2, 5.8,0,0,1024,1024,1024,1024,0,0,0,0,59.8,0,0,96,4.105,4.099,4.098,4.098,0,0,7.819,57.92,1054.581062618,3.937008,6,P-GPS,
5800,2025-01-13 04:04:36,0,0,3.937008,,,1054.581062618,4.265092,1.9908766,0,0,0,0,16.469,1054.581062618,3.937008,0,0,-1.789552,0.894776,0,60.1, 1.2, 3,0,0,1024,1024,1022,1684,0,0,-0,100,59.9,0,0,96,4.105,4.099,4.098,4.098,0,0,7.819,57.92,1054.581062618,3.937008,6,P-GPS,
6000,2025-01-13 04:04:36,0,0,3.937008,,,1054.581062618,4.265092,1.6105968,0,0,0,0,16.469,1054.581062618,3.937008,0,0,-1.342164,0.894776,0,59.8, 1.2, -8.1,0,0,1024,1024,1024,1684,0,0,0,100,67.1,0,0,96,4.105,4.099,4.098,4.098,0,0,7.819,57.92,1054.581062618,3.937008,6,P-GPS,
6200,2025-01-13 04:04:36,0,0,4.265092,,,1054.909146618,4.265092,0.8052984,0,0,0,0,16.469,1054.909146618,4.265092,0,0,-0.671082,0.447388,0,63.6, 2.2, -5.8,0,0,1024,1024,1024,1684,0,0,0,100,79,0,0,96,4.105,4.099,4.098,4.098,0,0,7.819,57.92,1054.909146618,4.265092,6,P-GPS,
6400,2025-01-13 04:04:36,0,0,4.265092,,,1054.909146618,5.249344,0.223694,0,0,0,0,16.363,1054.909146618,4.265092,0,0,-0.223694,0,0,76.7, 3.3, -0.5,0,0,1024,1024,1024,1684,0,0,0,100,91,0,0,96,4.088,4.088,4.089,4.091,0,0,8.376,58.1,1054.909146618,4.265092,6,P-GPS,
6600,2025-01-13 04:04:37,0,0,4.265092,,,1054.909146618,5.249344,0,0,0,0,0,16.363,1054.909146618,4.265092,0,0,0,0,0,89.1, 2.2, 1.5,0,0,1024,1024,1054,1266,0,0,5,37,102.9,0,0,96,4.088,4.088,4.089,4.091,0,0,8.376,58.1,1054.909146618,4.265092,6,P-GPS,
6800,2025-01-13 04:04:37,0,0,4.265092,,,1054.909146618,4.92126,0.223694,0,0,0,0,16.363,1054.909146618,4.265092,0,0,0,-0.223694,0,101, 0.7, 2.1,0,0,1024,1024,1024,1024,0,0,0,0,106.9,0,0,96,4.088,4.088,4.089,4.091,0,0,8.376,58.1,1054.909146618,4.265092,6,P-GPS,
7000,2025-01-13 04:04:37,0,0,4.265092,,,1054.909146618,4.593176,0.223694,0,0,0,0,16.363,1054.909146618,4.265092,0,0,0,-0.223694,0,107.7, -1.1, 1.9,0,0,1024,1024,1024,1024,0,0,0,0,106.9,0,0,96,4.088,4.088,4.089,4.091,0,0,8.376,58.1,1054.909146618,4.265092,6,P-GPS,
7200,2025-01-13 04:04:37,0,0,4.265092,,,1054.909146618,4.265092,0,0,0,0,0,16.363,1054.909146618,4.265092,0,0,0,0,0,106.6, -2.5, 1.2,0,0,1024,1024,1024,1684,0,0,0,100,107.1,0,0,96,4.088,4.088,4.089,4.091,0,0,8.376,58.1,1054.909146618,4.265092,6,P-GPS,
7400,2025-01-13 04:04:37,0,0,4.265092,,,1054.909146618,3.937008,0,0,0,0,0,16.363,1054.909146618,4.265092,0,0,0,0,0,106.8, -1.6, 1.6,0,0,1024,1024,1024,1024,0,0,0,0,114.1,0,0,96,4.088,4.088,4.089,4.091,0,0,8.376,58.1,1054.909146618,4.265092,6,P-GPS,
7600,2025-01-13 04:04:38,0,0,4.265092,,,1054.909146618,3.937008,0,0,0,0,0,16.355,1054.909146618,4.265092,0,0,0,0,0,111.1, -1.5, 1.6,0,0,1024,1024,1024,1024,0,0,0,0,119,0,0,96,4.092,4.084,4.085,4.087,0,0,8.503,58.1,1054.909146618,4.265092,6,P-GPS,
7800,2025-01-13 04:04:38,0,0,4.265092,,,1054.909146618,4.265092,0,0,0,0,0,16.355,1054.909146618,4.265092,0,0,0,0,0,119.7, -0.9, 2.6,0,0,1266,1024,1024,1024,37,0,0,0,119,0,0,96,4.092,4.084,4.085,4.087,0,0,8.503,58.1,1054.909146618,4.265092,6,P-GPS,
8000,2025-01-13 04:04:38,0,0,4.265092,,,1054.909146618,4.265092,0,0,0,0,0,16.355,1054.909146618,4.265092,0,0,0,0,0,118.8, -1.3, 0.9,0,0,1417,1024,1024,1024,60,0,0,0,119,0,0,96,4.092,4.084,4.085,4.087,0,0,8.503,58.1,1054.909146618,4.265092,6,P-GPS,
8200,2025-01-13 04:04:38,0,0,4.265092,,,1054.909146618,4.265092,0.223694,0,0,0,0,16.355,1054.909146618,4.265092,0,0,0,0.223694,0,119, -4.4, 1.9,0,0,1436,1024,1024,1024,62,0,0,0,119,0,0,96,4.092,4.084,4.085,4.087,0,0,8.503,58.1,1054.909146618,4.265092,6,P-GPS,
8400,2025-01-13 04:04:38,0,0,4.265092,,,1054.909146618,4.265092,0.7158208,0,0,0,0,16.355,1054.909146618,4.265092,0,0,-0.223694,0.671082,0,118.9, -10.8, 1.9,0,0,1399,1024,1024,1024,57,0,0,0,119,0,0,96,4.092,4.084,4.085,4.087,0,0,8.503,58.1,1054.909146618,4.265092,6,P-GPS,
8600,2025-01-13 04:04:39,0,0,4.265092,,,1054.909146618,4.265092,1.4987498,0,0,0,0,16.346,1054.909146618,4.265092,0,0,-0.671082,1.342164,0,118.7, -13.4, 1.9,0,0,1385,1024,1024,1024,55,0,0,0,119,0,0,96,4.084,4.079,4.079,4.083,0,0,8.353,58.28,1054.909146618,4.265092,6,P-GPS,
8800,2025-01-13 04:04:39,0,0,4.265092,,,1054.909146618,4.265092,2.4158952,0,0,0,0,16.346,1054.909146618,4.265092,0,0,-0.894776,2.23694,0,118.4, -12.6, 2.5,0,0,1383,1024,1024,1024,54,0,0,0,119,0,0,96,4.084,4.079,4.079,4.083,0,0,8.353,58.28,1054.909146618,4.265092,6,P-GPS,
9000,2025-01-13 04:04:39,0,0,4.265092,,,1054.909146618,4.265092,3.1988242,0,0,0,0,16.346,1054.909146618,4.265092,0,0,-1.342164,2.908022,0,118.5, -11.2, 3,0,0,1394,1024,1024,1024,56,0,0,0,119,0,0,96,4.084,4.079,4.079,4.083,0,0,8.353,58.28,1054.909146618,4.265092,6,P-GPS,
9200,2025-01-13 04:04:39,0,0,4.265092,,,1054.909146618,5.249344,4.0041226,0,0,0,0,16.346,1054.909146618,4.265092,0,0,-1.789552,3.579104,0,118.8, -9.8, 2.9,0,0,1302,1024,1024,1024,42,0,0,0,119,0,0,96,4.084,4.079,4.079,4.083,0,0,8.353,58.28,1054.909146618,4.265092,6,P-GPS,
9400,2025-01-13 04:04:39,0,0,4.265092,,,1054.909146618,5.905512,4.4962494,0,0,0,0,16.346,1054.909146618,4.265092,0,0,-2.013246,4.026492,0,118.9, -8.8, 2.4,0,0,1263,1024,1024,1024,36,0,0,0,119,0,0,96,4.084,4.079,4.079,4.083,0,0,8.353,58.28,1054.909146618,4.265092,6,P-GPS,
9600,2025-01-13 04:04:40,0,0,4.265092,,,1054.909146618,5.577428,4.809421,0,0,0,0,16.321,1054.909146618,4.265092,0,0,-2.23694,4.250186,0,118.9, -5.1, 2.3,0,0,1276,1024,1024,1024,38,0,0,0,119,0,0,96,4.088,4.081,4.082,4.084,0,0,8.517,58.46,1054.909146618,4.265092,6,P-GPS,
9800,2025-01-13 04:04:40,0,0,4.265092,,,1054.909146618,5.577428,5.1002232,0,0,0,0,16.321,1054.909146618,4.265092,0,0,-2.460634,4.47388,0,119.1, -2.7, 1.5,0,0,1024,1024,1024,1024,0,0,0,0,119,0,0,96,4.088,4.081,4.082,4.084,0,0,8.517,58.46,1054.909146618,4.265092,6,P-GPS,
10000,2025-01-13 04:04:40,0,0,4.265092,,,1054.909146618,5.905512,5.0107456,0,0,0,0,16.321,1054.909146618,4.265092,0,0,-2.23694,4.47388,0,119.4, -1.8, 2,0,0,1024,1024,1024,1024,0,0,0,0,119,0,0,96,4.088,4.081,4.082,4.084,0,0,8.517,58.46,1054.909146618,4.265092,6,P-GPS,
10200,2025-01-13 04:04:40,0,0,4.265092,,,1054.909146618,5.905512,5.0107456,0,0,0,0,16.321,1054.909146618,4.265092,0,0,-2.23694,4.47388,0,119.4, 9, 2.4,0,0,1024,1024,1024,1024,0,0,0,0,119,0,0,96,4.088,4.081,4.082,4.084,0,0,8.517,58.46,1054.909146618,4.265092,6,P-GPS,
10400,2025-01-13 04:04:40,0,0,4.265092,,,1054.909146618,5.905512,3.5119958,0,0,0,0,16.321,1054.909146618,4.265092,0,0,-1.565858,3.131716,0,119.2, 24.5, 2.1,0,0,1024,1024,1085,1024,0,0,9,0,119,0,0,96,4.088,4.081,4.082,4.084,0,0,8.517,58.46,1054.909146618,4.265092,6,P-GPS,
10600,2025-01-13 04:04:41,0,0,4.265092,,,1054.909146618,5.577428,1.4987498,0,0,0,0,16.345,1054.909146618,4.265092,0,0,-0.671082,1.342164,0,119.6, 15.1, 3.3,0,0,1024,1024,1315,1024,0,0,44,0,119,0,0,96,4.094,4.085,4.085,4.089,0,0,8.062,58.64,1054.909146618,4.265092,6,P-GPS,
10800,2025-01-13 04:04:41,0,0,4.265092,,,1054.909146618,5.577428,0.4921268,0,0,0,0,16.345,1054.909146618,4.265092,0,0,-0.223694,0.447388,0,117.9, 6.6, 3,0,0,1024,1024,1409,1024,0,0,58,0,119,0,0,96,4.094,4.085,4.085,4.089,0,0,8.062,58.64,1054.909146618,4.265092,6,P-GPS,
11000,2025-01-13 04:04:41,0,0,4.593176,,,1055.237230618,5.905512,0,0,0,0,0,16.345,1055.237230618,4.593176,0,0,0,0,-1.11847,119, 1.8, 2.2,0,0,1024,1024,1393,1024,0,0,56,0,119,0,0,96,4.094,4.085,4.085,4.089,0,0,8.062,58.64,1055.237230618,4.593176,6,P-GPS,
11200,2025-01-13 04:04:41,0,0,5.249344,,,1055.893398618,6.56168,0,0,0,0,0,16.345,1055.893398618,5.249344,0,0,0,0,-3.131716,118.9, -0.8, 1.5,0,0,1024,1024,1394,1024,0,0,56,0,119,0,0,96,4.094,4.085,4.085,4.089,0,0,8.062,58.64,1055.893398618,5.249344,6,P-GPS,
11400,2025-01-13 04:04:41,0,0,6.233596,,,1056.877650618,7.874016,0,0,0,0,0,16.345,1056.877650618,6.233596,0,0,0,0,-4.026492,119.1, -0.8, 1.2,0,0,1024,1024,1189,1024,0,0,25,0,119,0,0,96,4.094,4.085,4.085,4.089,0,0,8.062,58.64,1056.877650618,6.233596,6,P-GPS,
11600,2025-01-13 04:04:42,0,0,7.545932,,,1058.189986618,8.858268,0,0,0,0,0,16.253,1058.189986618,7.545932,0,0,0,0,-4.250186,119, 0.3, 0.9,0,0,1024,1024,1024,1024,0,0,0,0,119,0,0,96,4.052,4.033,4.023,4.001,0,0,8.885,58.64,1058.189986618,7.545932,6,P-GPS,
11800,2025-01-13 04:04:42,0,0,8.858268,,,1059.502322618,9.84252,0,0,0,0,0,16.253,1059.502322618,8.858268,0,0,0,0,-3.131716,118.9, 0.8, 1.4,0,0,1024,1024,1024,1024,0,0,0,0,119,0,0,96,4.052,4.033,4.023,4.001,0,0,8.885,58.64,1059.502322618,8.858268,6,P-GPS,
12000,2025-01-13 04:04:42,0,0,9.186352,,,1059.830406618,10.498688,0,0,0,0,0,16.253,1059.830406618,9.186352,0,0,0,0,-1.11847,119, 0.4, 0.6,0,0,1011,1231,1024,1024,-2,31,0,0,119,0,0,96,4.052,4.033,4.023,4.001,0,0,8.885,58.64,1059.830406618,9.186352,6,P-GPS,
12200,2025-01-13 04:04:42,0,0,9.514436,,,1060.158490618,10.826772,0,0,0,0,0,16.253,1060.158490618,9.514436,0,0,0,0,0,118.8, 0.4, 0.7,0,0,1024,1238,1024,1024,0,32,0,0,119,0,0,96,4.052,4.033,4.023,4.001,0,0,8.885,58.64,1060.158490618,9.514436,6,P-GPS,
12400,2025-01-13 04:04:42,0,0,9.514436,,,1060.158490618,10.826772,0,0,0,0,0,16.253,1060.158490618,9.514436,0,0,0,0,0,118.6, 0.4, 2.9,0,0,1024,1177,1024,1024,0,23,0,0,119,0,0,96,4.052,4.033,4.023,4.001,0,0,8.885,58.64,1060.158490618,9.514436,6,P-GPS,
12600,2025-01-13 04:04:43,0,0,9.514436,,,1060.158490618,10.498688,0,0,0,0,0,16.232,1060.158490618,9.514436,0,0,0,0,0,118.7, 0.5, 4.6,0,0,1024,1177,1024,1024,0,23,0,0,119,0,0,96,4.114,4.104,4.1,4.102,0,0,10.63,58.64,1060.158490618,9.514436,6,P-GPS,
12800,2025-01-13 04:04:43,0,0,9.514436,,,1060.158490618,10.498688,0.3131716,0,0,0,0,16.232,1060.158490618,9.514436,0,0,-0.223694,-0.223694,0,119, 0.8, 3.3,0,0,1021,1056,1024,1024,-0,5,0,0,119,0,0,96,4.114,4.104,4.1,4.102,0,0,10.63,58.64,1060.158490618,9.514436,6,P-GPS,
13000,2025-01-13 04:04:43,0,0,9.186352,,,1059.830406618,10.498688,0.4921268,0,0,0,0,16.232,1060.158490618,9.514436,0,0,-0.447388,-0.223694,0,119, 1.1, 2.4,0,0,1014,1032,1024,1024,-2,1,0,0,119,0,0,96,4.114,4.104,4.1,4.102,0,0,10.63,58.64,1059.830406618,9.186352,6,P-GPS,
13200,2025-01-13 04:04:43,0,0,9.186352,,,1059.830406618,10.498688,0.4921268,0,0,0,0,16.232,1060.158490618,9.514436,0,0,-0.447388,-0.223694,0,119.1, 1.5, -0.6,0,0,1006,1024,1024,1024,-3,0,0,0,119,0,0,96,4.114,4.104,4.1,4.102,0,0,10.63,58.64,1059.830406618,9.186352,6,P-GPS,
13400,2025-01-13 04:04:43,0,0,9.186352,,,1059.830406618,10.498688,0.3131716,0,0,0,0,16.232,1060.158490618,9.514436,0,0,-0.223694,-0.223694,0,118.9, 0.9, -3.4,0,0,998,1024,1024,1024,-4,0,0,0,119,0,0,96,4.114,4.104,4.1,4.102,0,0,10.63,58.64,1059.830406618,9.186352,6,P-GPS,
13600,2025-01-13 04:04:44,0,0,9.186352,,,1059.830406618,10.498688,0,0,0,0,0,16.292,1060.158490618,9.514436,0,0,0,0,0,119, 0.7, -1.6,0,0,995,1074,1029,1024,-4,8,1,0,119,0,0,96,4.076,4.068,4.066,4.07,0,0,7.411,58.82,1059.830406618,9.186352,6,P-GPS,
13800,2025-01-13 04:04:44,0,0,9.186352,,,1059.830406618,10.498688,0,0,0,0,0,16.292,1060.158490618,9.514436,0,0,0,0,0,119.2, 0.6, 0.4,0,0,1018,1237,1024,1024,-1,32,0,0,119,0,0,96,4.076,4.068,4.066,4.07,0,0,7.411,58.82,1059.830406618,9.186352,6,P-GPS,
14000,2025-01-13 04:04:44,0,0,9.186352,,,1059.830406618,10.498688,0,0,0,0,0,16.292,1060.158490618,9.514436,0,0,0,0,0,119.1, 0.9, 0.2,0,0,1024,1252,1024,1024,0,35,0,0,119,0,0,96,4.076,4.068,4.066,4.07,0,0,7.411,58.82,1059.830406618,9.186352,6,P-GPS,
14200,2025-01-13 04:04:44,0,0,9.186352,,,1059.830406618,10.498688,0.223694,0,0,0,0,16.292,1060.158490618,9.514436,0,0,0,-0.223694,0,119.2, 0.3, 1.6,0,0,1024,1254,1024,1024,0,35,0,0,119,0,0,96,4.076,4.068,4.066,4.07,0,0,7.411,58.82,1059.830406618,9.186352,6,P-GPS,
14400,2025-01-13 04:04:44,0,0,9.186352,,,1059.830406618,10.498688,0.3131716,0,0,0,0,16.292,1060.158490618,9.514436,0,0,-0.223694,-0.223694,0,119.3, -0.6, 3.4,0,0,1024,1246,1024,1024,0,34,0,0,119,0,0,96,4.076,4.068,4.066,4.07,0,0,7.411,58.82,1059.830406618,9.186352,6,P-GPS,
14600,2025-01-13 04:04:45,0,0,9.186352,,,1059.830406618,10.498688,0.6263432,0,0,0,0,16.255,1060.158490618,9.514436,0,0,-0.447388,-0.447388,0,119.1, 1, 4.9,0,0,996,1233,1063,1024,-4,32,6,0,119,0,0,96,4.06,4.052,4.05,4.053,0,0,8.706,58.82,1059.830406618,9.186352,6,P-GPS,
14800,2025-01-13 04:04:45,0,0,9.186352,,,1059.830406618,10.498688,1.11847,0,0,0,0,16.255,1060.158490618,9.514436,0,0,-0.894776,-0.671082,0,119.4, 0.1, 2.1,0,0,1024,1024,1175,1024,0,0,23,0,119,0,0,96,4.06,4.052,4.05,4.053,0,0,8.706,58.82,1059.830406618,9.186352,6,P-GPS,
15000,2025-01-13 04:04:45,0,0,9.186352,,,1059.830406618,10.498688,1.11847,0,0,0,0,16.255,1060.158490618,9.514436,0,0,-0.894776,-0.671082,0,119.6, -0.2, 0.2,0,0,1024,1024,1401,1024,0,0,57,0,119,0,0,96,4.06,4.052,4.05,4.053,0,0,8.706,58.82,1059.830406618,9.186352,6,P-GPS,
15200,2025-01-13 04:04:45,0,0,9.186352,,,1059.830406618,10.498688,1.006623,0,0,0,0,16.255,1060.158490618,9.514436,0,0,-0.894776,-0.447388,-0.671082,119, 0, -7.2,0,0,1024,1024,1401,1024,0,0,57,0,119,0,0,96,4.06,4.052,4.05,4.053,0,0,8.706,58.82,1059.830406618,9.186352,6,P-GPS,
15400,2025-01-13 04:04:45,0,0,9.84252,,,1060.486574618,11.154856,0.223694,0,0,0,0,16.255,1060.486574618,9.84252,0,0,-0.223694,0,-2.460634,118.9, 1.1, -2.9,0,0,1024,1024,1024,1024,0,0,0,0,119,0,0,96,4.06,4.052,4.05,4.053,0,0,8.706,58.82,1060.486574618,9.84252,6,P-GPS,
15600,2025-01-13 04:04:46,0,0,10.826772,,,1061.470826618,12.139108,0,0,0,0,0,16.188,1061.470826618,10.826772,0,0,0,0,-3.802798,118.7, 0.6, -1.6,0,0,1024,1024,1024,1024,0,0,0,0,119,0,0,96,4.024,3.999,3.976,3.958,0,0,9.443,59,1061.470826618,10.826772,6,P-GPS,
15800,2025-01-13 04:04:46,0,0,12.139108,,,1062.783162618,13.12336,0,0,0,0,0,16.188,1062.783162618,12.139108,0,0,0,0,-3.35541,119, 1.3, -1.3,0,0,1024,1024,1024,1024,0,0,0,0,119,0,0,96,4.024,3.999,3.976,3.958,0,0,9.443,59,1062.783162618,12.139108,6,P-GPS,
16000,2025-01-13 04:04:46,0,0,12.795276,,,1063.439330618,13.779528,0,0,0,0,0,16.188,1063.439330618,12.795276,0,0,0,0,-1.342164,118.8, 1.5, -1,0,0,1024,1024,1189,1024,0,0,25,0,119,0,0,96,4.024,3.999,3.976,3.958,0,0,9.443,59,1063.439330618,12.795276,6,P-GPS,
16200,2025-01-13 04:04:46,0,0,13.12336,,,1063.767414618,14.107612,0,0,0,0,0,16.188,1063.767414618,13.12336,0,0,0,0,-0.223694,118.5, 0.4, -0.8,0,0,1024,1024,1194,1024,0,0,26,0,119,0,0,96,4.024,3.999,3.976,3.958,0,0,9.443,59,1063.767414618,13.12336,6,P-GPS,
16400,2025-01-13 04:04:46,0,0,13.12336,,,1063.767414618,14.107612,0,0,0,0,0,16.188,1063.767414618,13.12336,0,0,0,0,-0.223694,118.4, 0.4, -1.9,0,0,1024,1024,1220,1024,0,0,30,0,119,0,0,96,4.024,3.999,3.976,3.958,0,0,9.443,59,1063.767414618,13.12336,6,P-GPS,
16600,2025-01-13 04:04:47,0,0,13.451444,,,1064.095498618,14.435696,0,0,0,0,0,15.973,1064.095498618,13.451444,0,0,0,0,-0.671082,118.7, 1.1, -2,0,0,1024,1024,1276,1024,0,0,38,0,119,0,0,95,4.101,4.091,4.095,4.095,0,0,12.55,59.18,1064.095498618,13.451444,6,P-GPS,
16800,2025-01-13 04:04:47,0,0,13.451444,,,1064.095498618,14.76378,0,0,0,0,0,15.973,1064.095498618,13.451444,0,0,0,0,-0.894776,119.1, 0.4, -2.3,0,0,1024,1024,1024,1024,0,0,0,0,119,0,0,95,4.101,4.091,4.095,4.095,0,0,12.55,59.18,1064.095498618,13.451444,6,P-GPS,
17000,2025-01-13 04:04:47,0,0,14.107612,,,1064.751666618,15.091864,0,0,0,0,0,15.973,1064.751666618,14.107612,0,0,0,0,-1.342164,118.8, -1.4, -3.2,0,0,1024,1024,1024,1024,0,0,0,0,119,0,0,95,4.101,4.091,4.095,4.095,0,0,12.55,59.18,1064.751666618,14.107612,6,P-GPS,
17200,2025-01-13 04:04:47,0,0,14.435696,,,1065.079750618,15.419948,0.223694,0,0,0,0,15.973,1065.079750618,14.435696,0,0,0.223694,0,-0.447388,117.8, -0.6, -0.4,0,0,1024,1024,1024,1024,0,0,0,0,119,0,0,95,4.101,4.091,4.095,4.095,0,0,12.55,59.18,1065.079750618,14.435696,6,P-GPS,
17400,2025-01-13 04:04:47,0,0,14.435696,,,1065.079750618,15.419948,0,0,0,0,0,15.973,1065.079750618,14.435696,0,0,0,0,0,119, 0.5, 0.2,0,0,1226,1024,1024,1024,31,0,0,0,119,0,0,95,4.101,4.091,4.095,4.095,0,0,12.55,59.18,1065.079750618,14.435696,6,P-GPS,
17600,2025-01-13 04:04:48,0,0,14.435696,,,1065.079750618,15.419948,0,0,0,0,0,16.137,1065.079750618,14.435696,0,0,0,0,0,118.7, 2, -1.2,0,0,1323,1024,1024,1024,45,0,0,0,119,0,0,95,4.105,4.097,4.08,4.076,0,0,8.576,59.36,1065.079750618,14.435696,6,P-GPS,
17800,2025-01-13 04:04:48,0,0,14.435696,,,1065.079750618,15.419948,0.223694,0,0,0,0,16.137,1065.079750618,14.435696,0,0,0,0.223694,0,118.4, -0.1, -0.6,0,0,1339,1024,1024,1024,48,0,0,0,119,0,0,95,4.105,4.097,4.08,4.076,0,0,8.576,59.36,1065.079750618,14.435696,6,P-GPS,
18000,2025-01-13 04:04:48,0,0,14.435696,,,1065.079750618,15.419948,0.447388,0,0,0,0,16.137,1065.079750618,14.435696,0,0,0,0.447388,0,118.6, -2.9, -0.4,0,0,1336,1024,1024,1024,47,0,0,0,119,0,0,95,4.105,4.097,4.08,4.076,0,0,8.576,59.36,1065.079750618,14.435696,6,P-GPS,
18200,2025-01-13 04:04:48,0,0,14.435696,,,1065.079750618,15.419948,0.7158208,0,0,0,0,16.137,1065.079750618,14.435696,0,0,-0.223694,0.671082,0,118.3, -5, 0.3,0,0,1213,1024,1024,1024,29,0,0,0,119,0,0,95,4.105,4.097,4.08,4.076,0,0,8.576,59.36,1065.079750618,14.435696,6,P-GPS,
18400,2025-01-13 04:04:48,0,0,14.435696,,,1065.079750618,15.419948,1.1408394,0,0,0,0,16.137,1065.079750618,14.435696,0,0,-0.223694,1.11847,0,119, -5.5, -0.4,0,0,1248,1024,1024,1024,34,0,0,0,119,0,0,95,4.105,4.097,4.08,4.076,0,0,8.576,59.36,1065.079750618,14.435696,6,P-GPS,
18600,2025-01-13 04:04:49,0,0,14.435696,,,1065.079750618,15.419948,1.6329662,0,0,0,0,16.222,1065.079750618,14.435696,0,0,-0.447388,1.565858,0,118.9, -4.8, 1.3,0,0,1249,1024,1024,1024,34,0,0,0,119,0,0,95,4.044,4.037,4.039,4.042,0,0,8.512,59.36,1065.079750618,14.435696,6,P-GPS,
18800,2025-01-13 04:04:49,0,0,14.435696,,,1065.079750618,15.419948,1.901399,0,0,0,0,16.222,1065.079750618,14.435696,0,0,-0.671082,1.789552,0,119.3, -2.1, 3,0,0,1226,1024,1024,1024,31,0,0,0,119,0,0,95,4.044,4.037,4.039,4.042,0,0,8.512,59.36,1065.079750618,14.435696,6,P-GPS,
19000,2025-01-13 04:04:49,0,0,14.435696,,,1065.079750618,15.419948,1.9908766,0,0,0,0,16.222,1065.079750618,14.435696,0,0,-0.894776,1.789552,0,119.6, -1.8, 3,0,0,1094,1024,1024,1024,11,0,0,0,119,0,0,95,4.044,4.037,4.039,4.042,0,0,8.512,59.36,1065.079750618,14.435696,6,P-GPS,
19200,2025-01-13 04:04:49,0,0,14.435696,,,1065.079750618,15.419948,1.9908766,0,0,0,0,16.222,1065.079750618,14.435696,0,0,-0.894776,1.789552,0,119.5, -0.7, 1.9,0,0,1024,1024,1024,1098,0,0,0,11,119,0,0,95,4.044,4.037,4.039,4.042,0,0,8.512,59.36,1065.079750618,14.435696,6,P-GPS,
19400,2025-01-13 04:04:49,0,0,14.435696,,,1065.079750618,15.419948,1.8119214,0,0,0,0,16.222,1065.079750618,14.435696,0,0,-0.894776,1.565858,0,120.2, 11.8, 1.3,0,0,1024,1024,1024,1243,0,0,0,33,119,0,0,95,4.044,4.037,4.039,4.042,0,0,8.512,59.36,1065.079750618,14.435696,6,P-GPS,
19600,2025-01-13 04:04:50,0,0,14.435696,,,1065.079750618,15.419948,0.8052984,0,0,0,0,16.185,1065.079750618,14.435696,0,0,-0.447388,0.671082,0,120, 10.2, 0.8,0,0,1024,1024,1027,1262,0,0,0,36,119.6,0,0,95,4.065,4.059,4.057,4.061,0,0,9.434,59.54,1065.079750618,14.435696,6,P-GPS,
19800,2025-01-13 04:04:50,0,0,14.435696,,,1065.079750618,15.419948,0.223694,0,0,0,0,16.185,1065.079750618,14.435696,0,0,0,0.223694,0,120, 5.5, 0.9,0,0,1024,1024,1024,1430,0,0,0,62,120.9,0,0,95,4.065,4.059,4.057,4.061,0,0,9.434,59.54,1065.079750618,14.435696,6,P-GPS,
20000,2025-01-13 04:04:50,0,0,14.435696,,,1065.079750618,15.419948,0,0,0,0,0,16.185,1065.079750618,14.435696,0,0,0,0,0,120.3, 3.3, 2.2,0,0,1024,1024,1024,1024,0,0,0,0,123.3,0,0,95,4.065,4.059,4.057,4.061,0,0,9.434,59.54,1065.079750618,14.435696,6,P-GPS,
20200,2025-01-13 04:04:50,0,0,14.435696,,,1065.079750618,15.419948,0,0,0,0,0,16.185,1065.079750618,14.435696,0,0,0,0,0,123.2, 1.6, 1.4,0,0,1024,1408,1024,1024,0,58,0,0,124.5,0,0,95,4.065,4.059,4.057,4.061,0,0,9.434,59.54,1065.079750618,14.435696,6,P-GPS,
20400,2025-01-13 04:04:50,0,0,14.435696,,,1065.079750618,15.419948,0,0,0,0,0,16.185,1065.079750618,14.435696,0,0,0,0,0,125.5, 0.6, 0.8,0,0,1024,1462,1024,1024,0,66,0,0,124.5,0,0,95,4.065,4.059,4.057,4.061,0,0,9.434,59.54,1065.079750618,14.435696,6,P-GPS,
20600,2025-01-13 04:04:51,0,0,14.435696,,,1065.079750618,15.419948,0,0,0,0,0,16.213,1065.079750618,14.435696,0,0,0,0,0,124.6, 1.3, 4.6,0,0,1024,1466,1024,1024,0,67,0,0,124.5,0,0,95,4.053,4.047,4.048,4.053,0,0,8.621,59.72,1065.079750618,14.435696,6,P-GPS,
20800,2025-01-13 04:04:51,0,0,14.435696,,,1065.079750618,15.419948,0.4921268,0,0,0,0,16.213,1065.079750618,14.435696,0,0,-0.447388,-0.223694,0,124.8, 1, 10.8,0,0,1024,1449,1024,1024,0,64,0,0,124.5,0,0,95,4.053,4.047,4.048,4.053,0,0,8.621,59.72,1065.079750618,14.435696,6,P-GPS,
21000,2025-01-13 04:04:51,0,0,14.435696,,,1065.079750618,15.419948,1.2974252,0,0,0,0,16.213,1065.079750618,14.435696,0,0,-1.11847,-0.671082,0,124.2, 1, 11.5,0,0,1024,1417,1024,1024,0,60,0,0,124.5,0,0,95,4.053,4.047,4.048,4.053,0,0,8.621,59.72,1065.079750618,14.435696,6,P-GPS,
21200,2025-01-13 04:04:51,0,0,14.435696,,,1065.079750618,15.419948,2.1027236,0,0,0,0,16.213,1065.079750618,14.435696,0,0,-1.789552,-1.11847,0,123.9, 0.9, 11.5,0,0,1024,1365,1024,1024,0,52,0,0,124.5,0,0,95,4.053,4.047,4.048,4.053,0,0,8.621,59.72,1065.079750618,14.435696,6,P-GPS,
21400,2025-01-13 04:04:51,0,0,14.435696,,,1065.079750618,15.419948,2.908022,0,0,0,0,16.213,1065.079750618,14.435696,0,0,-2.460634,-1.565858,0,124.6, 1.7, 10.1,0,0,1024,1216,1024,1024,0,29,0,0,124.5,0,0,95,4.053,4.047,4.048,4.053,0,0,8.621,59.72,1065.079750618,14.435696,6,P-GPS,
21600,2025-01-13 04:04:52,0,0,14.435696,,,1065.079750618,15.419948,3.5343652,0,0,0,0,16.23,1065.079750618,14.435696,0,0,-2.908022,-2.013246,0,125.1, 1, 7.5,0,0,1024,1185,1024,1024,0,24,0,0,124.5,0,0,95,4.06,4.054,4.055,4.058,0,0,8.638,59.72,1065.079750618,14.435696,6,P-GPS,
21800,2025-01-13 04:04:52,0,0,14.435696,,,1065.079750618,15.419948,3.8475368,0,0,0,0,16.23,1065.079750618,14.435696,0,0,-3.131716,-2.23694,0,125.3, 1.5, 4.5,0,0,1024,1024,1024,1024,0,0,0,0,124.5,0,0,95,4.06,4.054,4.055,4.058,0,0,8.638,59.72,1065.079750618,14.435696,6,P-GPS,
22000,2025-01-13 04:04:52,0,0,14.435696,,,1065.079750618,15.419948,3.8475368,0,0,0,0,16.23,1065.079750618,14.435696,0,0,-3.131716,-2.23694,0,125.2, 0.4, 1.6,0,0,1024,1024,1024,1024,0,0,0,0,124.5,0,0,95,4.06,4.054,4.055,4.058,0,0,8.638,59.72,1065.079750618,14.435696,6,P-GPS,
22200,2025-01-13 04:04:52,0,0,14.435696,,,1065.079750618,15.419948,3.35541,0,0,0,0,16.23,1065.079750618,14.435696,0,0,-2.684328,-2.013246,0,124.8, 0.9, -13.8,0,0,1024,1024,1024,1024,0,0,0,0,124.5,0,0,95,4.06,4.054,4.055,4.058,0,0,8.638,59.72,1065.079750618,14.435696,6,P-GPS,
22400,2025-01-13 04:04:52,0,0,14.435696,,,1065.079750618,15.091864,1.7448132,0,0,0,0,16.23,1065.079750618,14.435696,0,0,-1.342164,-1.11847,0,124.7, -0.1, -17.2,0,0,1024,1211,1024,1024,0,28,0,0,124.5,0,0,95,4.06,4.054,4.055,4.058,0,0,8.638,59.72,1065.079750618,14.435696,6,P-GPS,
22600,2025-01-13 04:04:53,0,0,14.435696,,,1065.079750618,15.091864,0.6263432,0,0,0,0,16.251,1065.079750618,14.435696,0,0,-0.447388,-0.447388,0,124.2, -1, -5.5,0,0,1024,1475,1024,1024,0,68,0,0,124.5,0,0,95,4.061,4.044,4.047,4.054,0,0,8.41,59.9,1065.079750618,14.435696,6,P-GPS,
22800,2025-01-13 04:04:53,0,0,14.435696,,,1065.079750618,15.091864,0.3131716,0,0,0,0,16.251,1065.079750618,14.435696,0,0,-0.223694,-0.223694,0,124.3, 0.3, 3.4,0,0,1024,1392,1024,1024,0,56,0,0,124.5,0,0,95,4.061,4.044,4.047,4.054,0,0,8.41,59.9,1065.079750618,14.435696,6,P-GPS,
23000,2025-01-13 04:04:53,0,0,14.435696,,,1065.079750618,15.419948,0.8052984,0,0,0,0,16.251,1065.079750618,14.435696,0,0,-0.671082,-0.447388,0,124.9, 0.5, 9.3,0,0,1024,1365,1024,1024,0,52,0,0,124.5,0,0,95,4.061,4.044,4.047,4.054,0,0,8.41,59.9,1065.079750618,14.435696,6,P-GPS,
23200,2025-01-13 04:04:53,0,0,14.435696,,,1065.079750618,15.419948,1.2974252,0,0,0,0,16.251,1065.079750618,14.435696,0,0,-1.11847,-0.671082,0,124.7, 0.4, 10.1,0,0,1024,1356,1024,1024,0,50,0,0,124.5,0,0,95,4.061,4.044,4.047,4.054,0,0,8.41,59.9,1065.079750618,14.435696,6,P-GPS,
23400,2025-01-13 04:04:53,0,0,14.435696,,,1065.079750618,15.419948,1.9237684,0,0,0,0,16.251,1065.079750618,14.435696,0,0,-1.565858,-1.11847,0,124.8, 2.2, 10.7,0,0,1024,1297,1024,1024,0,41,0,0,124.5,0,0,95,4.061,4.044,4.047,4.054,0,0,8.41,59.9,1065.079750618,14.435696,6,P-GPS,
23600,2025-01-13 04:04:54,0,0,14.107612,,,1064.751666618,15.419948,2.6172198,0,0,0,0,16.205,1065.079750618,14.435696,0,0,-2.23694,-1.342164,0,125, 0.4, 8.7,0,0,1024,1284,1024,1024,0,39,0,0,124.5,0,0,95,4.063,4.056,4.057,4.061,0,0,8.916,59.9,1064.751666618,14.107612,6,P-GPS,
23800,2025-01-13 04:04:54,0,0,14.107612,,,1064.751666618,15.419948,2.908022,0,0,0,0,16.205,1065.079750618,14.435696,0,0,-2.460634,-1.565858,0,125.2, 1.7, 5.9,0,0,1024,1219,1024,1024,0,30,0,0,124.5,0,0,95,4.063,4.056,4.057,4.061,0,0,8.916,59.9,1064.751666618,14.107612,6,P-GPS,
24000,2025-01-13 04:04:54,0,0,14.107612,,,1064.751666618,15.419948,3.2211936,0,0,0,0,16.205,1065.079750618,14.435696,0,0,-2.684328,-1.789552,0,125.1, 1.2, 6,0,0,1024,1174,1024,1024,0,23,0,0,124.5,0,0,95,4.063,4.056,4.057,4.061,0,0,8.916,59.9,1064.751666618,14.107612,6,P-GPS,
24200,2025-01-13 04:04:54,0,0,14.107612,,,1064.751666618,15.419948,3.35541,0,0,0,0,16.205,1065.079750618,14.435696,0,0,-2.684328,-2.013246,0,124.8, 0.2, 4.3,0,0,1024,1024,1024,1024,0,0,0,0,124.5,0,0,95,4.063,4.056,4.057,4.061,0,0,8.916,59.9,1064.751666618,14.107612,6,P-GPS,
24400,2025-01-13 04:04:54,0,0,14.107612,,,1064.751666618,15.419948,3.2211936,0,0,0,0,16.205,1065.079750618,14.435696,0,0,-2.684328,-1.789552,0,124.9, 0.6, -10,0,0,1024,1024,1024,1024,0,0,0,0,124.5,0,0,95,4.063,4.056,4.057,4.061,0,0,8.916,59.9,1064.751666618,14.107612,6,P-GPS,
24600,2025-01-13 04:04:55,0,0,14.107612,,,1064.751666618,15.419948,2.1027236,0,0,0,0,16.214,1065.079750618,14.435696,0,0,-1.789552,-1.11847,0,124.8, 0.6, -15.6,0,0,1024,1024,1055,1024,0,0,5,0,124.5,0,0,95,4.061,4.056,4.057,4.06,0,0,8.32,60.08,1064.751666618,14.107612,6,P-GPS,
24800,2025-01-13 04:04:55,0,0,14.107612,,,1064.751666618,15.419948,1.006623,0,0,0,0,16.214,1065.079750618,14.435696,0,0,-0.894776,-0.447388,0,124.4, 2.5, -9.4,0,0,1024,1024,1236,1024,0,0,32,0,124.5,0,0,95,4.061,4.056,4.057,4.06,0,0,8.32,60.08,1064.751666618,14.107612,6,P-GPS,
25000,2025-01-13 04:04:55,0,0,14.107612,,,1064.751666618,15.419948,0.223694,0,0,0,0,16.214,1065.079750618,14.435696,0,0,-0.223694,0,0,124.5, 3.8, -5.6,0,0,1024,1024,1286,1024,0,0,40,0,124.5,0,0,95,4.061,4.056,4.057,4.06,0,0,8.32,60.08,1064.751666618,14.107612,6,P-GPS,
25200,2025-01-13 04:04:55,0,0,14.107612,,,1064.751666618,15.748032,0,0,0,0,0,16.214,1065.079750618,14.435696,0,0,0,0,-0.447388,123.7, 2.6, -0.8,0,0,1024,1024,1284,1024,0,0,39,0,124.5,0,0,95,4.061,4.056,4.057,4.06,0,0,8.32,60.08,1064.751666618,14.107612,6,P-GPS,
25400,2025-01-13 04:04:55,0,0,14.435696,,,1065.079750618,16.076116,0,0,0,0,0,16.214,1065.079750618,14.435696,0,0,0,0,-1.565858,123.8, 1.9, 1.4,0,0,1024,1024,1281,1024,0,0,39,0,124.5,0,0,95,4.061,4.056,4.057,4.06,0,0,8.32,60.08,1065.079750618,14.435696,6,P-GPS,
25600,2025-01-13 04:04:56,0,0,15.091864,,,1065.735918618,16.732284,0,0,0,0,0,16.15,1065.735918618,15.091864,0,0,0,0,-2.013246,124.8, 2.1, -1.4,0,0,1024,1024,1274,1024,0,0,38,0,124.5,0,0,95,4.039,4.018,4.007,4.009,0,0,8.7,60.08,1065.735918618,15.091864,6,P-GPS,
25800,2025-01-13 04:04:56,0,0,15.419948,,,1066.064002618,17.060368,0.223694,0,0,0,0,16.15,1066.064002618,15.419948,0,0,0,-0.223694,-2.013246,124.2, 2, -3,0,0,1024,1024,1264,1024,0,0,36,0,124.5,0,0,95,4.039,4.018,4.007,4.009,0,0,8.7,60.08,1066.064002618,15.419948,6,P-GPS,
26000,2025-01-13 04:04:56,0,0,16.076116,,,1066.720170618,17.716536,0,0,0,0,0,16.15,1066.720170618,16.076116,0,0,0,0,-1.789552,124.3, 0.8, -4.7,0,0,1024,1024,1260,1024,0,0,36,0,124.5,0,0,95,4.039,4.018,4.007,4.009,0,0,8.7,60.08,1066.720170618,16.076116,6,P-GPS,
26200,2025-01-13 04:04:56,0,0,16.4042,,,1067.048254618,18.372704,0,0,0,0,0,16.15,1067.048254618,16.4042,0,0,0,0,-1.565858,123.7, 0.6, -2.2,0,0,1024,1024,1086,1024,0,0,9,0,124.5,0,0,95,4.039,4.018,4.007,4.009,0,0,8.7,60.08,1067.048254618,16.4042,6,P-GPS,
26400,2025-01-13 04:04:56,0,0,16.732284,,,1067.376338618,18.700788,0,0,0,0,0,16.15,1067.376338618,16.732284,0,0,0,0,-1.342164,123.9, 1, -1.4,0,0,1024,1024,1024,1024,0,0,0,0,124.5,0,0,95,4.039,4.018,4.007,4.009,0,0,8.7,60.08,1067.376338618,16.732284,6,P-GPS,
26600,2025-01-13 04:04:57,0,0,16.732284,,,1067.376338618,19.028872,0,0,0,0,0,16.158,1067.376338618,16.732284,0,0,0,0,-0.447388,124.1, 1, -1.9,0,0,1024,1024,1024,1024,0,0,0,0,124.5,0,0,95,4.062,4.057,4.059,4.062,0,0,9.838,60.26,1067.376338618,16.732284,6,P-GPS,
26800,2025-01-13 04:04:57,0,0,16.732284,,,1067.376338618,19.028872,0.223694,0,0,0,0,16.158,1067.376338618,16.732284,0,0,0.223694,0,0,124.7, -0.1, -1.3,0,0,1024,1024,1056,1024,0,0,5,0,124.5,0,0,95,4.062,4.057,4.059,4.062,0,0,9.838,60.26,1067.376338618,16.732284,6,P-GPS,
27000,2025-01-13 04:04:57,0,0,16.732284,,,1067.376338618,19.028872,0,0,0,0,0,16.158,1067.376338618,16.732284,0,0,0,0,0,125, -2.4, -1.9,0,0,1024,1024,1318,1024,0,0,45,0,124.5,0,0,95,4.062,4.057,4.059,4.062,0,0,9.838,60.26,1067.376338618,16.732284,6,P-GPS,
27200,2025-01-13 04:04:57,0,0,16.4042,,,1067.048254618,19.028872,0,0,0,0,0,16.158,1067.376338618,16.732284,0,0,0,0,0,124.8, -1.5, -1.5,0,0,1024,1024,1024,1024,0,0,0,0,124.5,0,0,95,4.062,4.057,4.059,4.062,0,0,9.838,60.26,1067.048254618,16.4042,6,P-GPS,
27400,2025-01-13 04:04:57,0,0,16.732284,,,1067.376338618,19.356956,0,0,0,0,0,16.158,1067.376338618,16.732284,0,0,0,0,-1.565858,124.7, -1.2, -1.4,0,0,1024,1024,1024,1024,0,0,0,0,124.5,0,0,95,4.062,4.057,4.059,4.062,0,0,9.838,60.26,1067.376338618,16.732284,6,P-GPS,
27600,2025-01-13 04:04:58,0,0,17.060368,,,1067.704422618,19.68504,0,0,0,0,0,16.289,1067.704422618,17.060368,0,0,0,0,-1.11847,124.4, -0.5, -3.5,0,0,1281,1024,1024,1024,39,0,0,0,124.5,0,0,95,4.065,4.056,4.051,4.03,0,0,7.525,60.44,1067.704422618,17.060368,6,P-GPS,
27800,2025-01-13 04:04:58,0,0,17.060368,,,1067.704422618,20.013124,0,0,0,0,0,16.289,1067.704422618,17.060368,0,0,0,0,-0.223694,124.5, -1, -3.2,0,0,1303,1024,1024,1024,42,0,0,0,124.5,0,0,95,4.065,4.056,4.051,4.03,0,0,7.525,60.44,1067.704422618,17.060368,6,P-GPS,
28000,2025-01-13 04:04:58,0,0,17.060368,,,1067.704422618,20.013124,0,0,0,0,0,16.289,1067.704422618,17.060368,0,0,0,0,0,124.5, -4.4, -2.6,0,0,1240,1024,1024,1024,33,0,0,0,124.5,0,0,95,4.065,4.056,4.051,4.03,0,0,7.525,60.44,1067.704422618,17.060368,6,P-GPS,
28200,2025-01-13 04:04:58,0,0,17.060368,,,1067.704422618,19.68504,0.3131716,0,0,0,0,16.289,1067.704422618,17.060368,0,0,-0.223694,0.223694,0,124.8, -6.9, -3.7,0,0,1231,1024,1024,1024,31,0,0,0,124.5,0,0,95,4.065,4.056,4.051,4.03,0,0,7.525,60.44,1067.704422618,17.060368,6,P-GPS,
28400,2025-01-13 04:04:58,0,0,17.060368,,,1067.704422618,19.68504,0.6263432,0,0,0,0,16.289,1067.704422618,17.060368,0,0,-0.447388,0.447388,0,124.8, -6.9, -3.4,0,0,1222,1024,1024,1024,30,0,0,0,124.5,0,0,95,4.065,4.056,4.051,4.03,0,0,7.525,60.44,1067.704422618,17.060368,6,P-GPS,
28600,2025-01-13 04:04:59,0,0,16.732284,,,1067.376338618,19.68504,1.006623,0,0,0,0,16.343,1067.704422618,17.060368,0,0,-0.447388,0.894776,0,124.4, -4.8, -4.8,0,0,1024,1024,1024,1024,0,0,0,0,124.5,0,0,95,4.063,4.056,4.057,4.057,0,0,8.494,60.44,1067.376338618,16.732284,6,P-GPS,
28800,2025-01-13 04:04:59,0,0,16.732284,,,1067.376338618,19.68504,1.2974252,0,0,0,0,16.343,1067.704422618,17.060368,0,0,-0.671082,1.11847,0,124.5, -3, -3.5,0,0,1024,1024,1024,1024,0,0,0,0,124.5,0,0,95,4.063,4.056,4.057,4.057,0,0,8.494,60.44,1067.376338618,16.732284,6,P-GPS,
29000,2025-01-13 04:04:59,0,0,16.732284,,,1067.376338618,20.013124,1.006623,0,0,0,0,16.343,1067.704422618,17.060368,0,0,-0.447388,0.894776,0,124.1, 5.8, -2.8,0,0,1024,1024,1024,1166,0,0,0,22,124.5,0,0,95,4.063,4.056,4.057,4.057,0,0,8.494,60.44,1067.376338618,16.732284,6,P-GPS,
29200,2025-01-13 04:04:59,0,0,16.732284,,,1067.376338618,19.68504,0.4921268,0,0,0,0,16.343,1067.704422618,17.060368,0,0,-0.223694,0.447388,0,124.6, 4.5, -3.2,0,0,1024,1024,1024,1335,0,0,0,47,124.7,0,0,95,4.063,4.056,4.057,4.057,0,0,8.494,60.44,1067.376338618,16.732284,6,P-GPS,
29400,2025-01-13 04:04:59,0,0,16.732284,,,1067.376338618,19.68504,0.223694,0,0,0,0,16.343,1067.704422618,17.060368,0,0,0,0.223694,0,124.2, 1.7, -3.2,0,0,1024,1024,1024,1555,0,0,0,80,126.1,0,0,95,4.063,4.056,4.057,4.057,0,0,8.494,60.44,1067.376338618,16.732284,6,P-GPS,
29600,2025-01-13 04:05:00,0,0,16.732284,,,1067.376338618,19.68504,0,0,0,0,0,16.197,1067.704422618,17.060368,0,0,0,0,0,125.4, 0, -2.9,0,0,1024,1024,1024,1671,0,0,0,98,131.3,0,0,95,4.051,4.044,4.047,4.048,0,0,8.39,60.44,1067.376338618,16.732284,6,P-GPS,
29800,2025-01-13 04:05:00,0,0,16.732284,,,1067.376338618,19.68504,0.223694,0,0,0,0,16.197,1067.704422618,17.060368,0,0,0,0.223694,0,129.8, -1.7, -2,0,0,1024,1024,1024,1684,0,0,0,100,141.8,0,0,95,4.051,4.044,4.047,4.048,0,0,8.39,60.44,1067.376338618,16.732284,6,P-GPS,
30000,2025-01-13 04:05:00,0,0,16.4042,,,1067.048254618,19.68504,0.223694,0,0,0,0,16.197,1067.704422618,17.060368,0,0,0,0.223694,0,139.3, 0.8, -1.2,0,0,1024,1024,1024,1684,0,0,0,100,153.7,0,0,95,4.051,4.044,4.047,4.048,0,0,8.39,60.44,1067.048254618,16.4042,6,P-GPS,
30200,2025-01-13 04:05:00,0,0,16.4042,,,1067.048254618,19.68504,0.3131716,0,0,0,0,16.197,1067.704422618,17.060368,0,0,-0.223694,0.223694,0,151.6, 4.2, -1.2,0,0,1024,1024,1024,1684,0,0,0,100,165.7,0,0,95,4.051,4.044,4.047,4.048,0,0,8.39,60.44,1067.048254618,16.4042,6,P-GPS,
30400,2025-01-13 04:05:00,0,0,16.4042,,,1067.048254618,19.68504,0.447388,0,0,0,0,16.197,1067.704422618,17.060368,0,0,-0.447388,0,0,163.5, 6.9, -1.4,0,0,1024,1024,1024,1684,0,0,0,100,177.7,0,0,95,4.051,4.044,4.047,4.048,0,0,8.39,60.44,1067.048254618,16.4042,6,P-GPS,
30600,2025-01-13 04:05:01,0,0,16.732284,,,1067.376338618,19.68504,0.223694,0,0,0,0,16.207,1067.704422618,17.060368,0,0,-0.223694,0,0,175.6, 8.4, 0,0,0,1024,1024,1024,1682,0,0,0,100,189.7,0,0,95,4.048,4.045,4.047,4.049,0,0,8.523,60.62,1067.376338618,16.732284,6,P-GPS,
30800,2025-01-13 04:05:01,0,0,16.732284,,,1067.376338618,19.356956,0,0,0,0,0,16.207,1067.704422618,17.060368,0,0,0,0,0,187.7, 7.3, 1.1,0,0,1024,1024,1024,1682,0,0,0,100,201.6,0,0,95,4.048,4.045,4.047,4.049,0,0,8.523,60.62,1067.376338618,16.732284,6,P-GPS,
31000,2025-01-13 04:05:01,0,0,16.732284,,,1067.376338618,18.700788,0,0,0,0,0,16.207,1067.704422618,17.060368,0,0,0,0,0,199.5, 5.8, 2.4,0,0,1024,1024,1024,1682,0,0,0,100,213.5,0,0,95,4.048,4.045,4.047,4.049,0,0,8.523,60.62,1067.376338618,16.732284,6,P-GPS,
31200,2025-01-13 04:05:01,0,0,16.732284,,,1067.376338618,18.372704,0,0,0,0,0,16.207,1067.704422618,17.060368,0,0,0,0,0,211.8, 5.1, 1.4,0,0,1024,1024,1024,1682,0,0,0,100,225.5,0,0,95,4.048,4.045,4.047,4.049,0,0,8.523,60.62,1067.376338618,16.732284,6,P-GPS,
31400,2025-01-13 04:05:01,0,0,16.732284,,,1067.376338618,18.372704,0,0,0,0,0,16.207,1067.704422618,17.060368,0,0,0,0,0,223.1, 4.9, 2.7,0,0,1024,1024,1024,1679,0,0,0,99,237.4,0,0,95,4.048,4.045,4.047,4.049,0,0,8.523,60.62,1067.376338618,16.732284,6,P-GPS,
31600,2025-01-13 04:05:02,0,0,16.732284,,,1067.376338618,18.700788,0,0,0,0,0,16.173,1067.704422618,17.060368,0,0,0,0,0,235.9, 4.3, 4.2,0,0,1024,1024,1024,1675,0,0,0,99,249.3,0,0,95,4.057,4.049,4.051,4.052,0,0,8.665,60.62,1067.376338618,16.732284,6,P-GPS,
31800,2025-01-13 04:05:02,0,0,16.732284,,,1067.376338618,18.700788,0,0,0,0,0,16.173,1067.704422618,17.060368,0,0,0,0,0,247.6, 5.3, 5.9,0,0,1024,1024,1024,1671,0,0,0,98,261,0,0,95,4.057,4.049,4.051,4.052,0,0,8.665,60.62,1067.376338618,16.732284,6,P-GPS,
32000,2025-01-13 04:05:02,0,0,17.060368,,,1067.704422618,18.700788,0,0,0,0,0,16.173,1067.704422618,17.060368,0,0,0,0,0,259.3, 2.8, 7.1,0,0,1024,1024,1024,1684,0,0,0,100,272.7,0,0,95,4.057,4.049,4.051,4.052,0,0,8.665,60.62,1067.704422618,17.060368,6,P-GPS,
32200,2025-01-13 04:05:02,0,0,16.732284,,,1067.376338618,18.372704,0,0,0,0,0,16.173,1067.704422618,17.060368,0,0,0,0,0,271.3, 0.7, 6.1,0,0,1024,1024,1024,1214,0,0,0,29,284.6,0,0,95,4.057,4.049,4.051,4.052,0,0,8.665,60.62,1067.376338618,16.732284,6,P-GPS,
32400,2025-01-13 04:05:02,0,0,16.732284,,,1067.376338618,18.04462,0.223694,0,0,0,0,16.173,1067.704422618,17.060368,0,0,0,0.223694,0,282.9, -1.5, 5.2,0,0,1024,1024,1024,1024,0,0,0,0,289.3,0,0,95,4.057,4.049,4.051,4.052,0,0,8.665,60.62,1067.376338618,16.732284,6,P-GPS,
32600,2025-01-13 04:05:03,0,0,16.732284,,,1067.376338618,18.372704,0,0,0,0,0,16.233,1067.704422618,17.060368,0,0,0,0,0,290.1, -2.6, 5.4,0,0,1024,1024,1024,1216,0,0,0,29,289.4,0,0,95,4.049,4.042,4.043,4.047,0,0,8.29,60.8,1067.376338618,16.732284,6,P-GPS,
32800,2025-01-13 04:05:03,0,0,16.732284,,,1067.376338618,18.372704,0,0,0,0,0,16.233,1067.704422618,17.060368,0,0,0,0,0,289.1, -4.2, 4.9,0,0,1024,1024,1024,1676,0,0,0,99,290,0,0,95,4.049,4.042,4.043,4.047,0,0,8.29,60.8,1067.376338618,16.732284,6,P-GPS,
33000,2025-01-13 04:05:03,0,0,16.732284,,,1067.376338618,18.04462,0,0,0,0,0,16.233,1067.704422618,17.060368,0,0,0,0,0,289.3, -3.5, 6.4,0,0,1024,1024,1057,1373,0,0,5,53,296.1,0,0,95,4.049,4.042,4.043,4.047,0,0,8.29,60.8,1067.376338618,16.732284,6,P-GPS,
33200,2025-01-13 04:05:03,0,0,17.060368,,,1067.704422618,18.04462,0.223694,0,0,0,0,16.233,1067.704422618,17.060368,0,0,0,-0.223694,0,293.8, -2.5, 7,0,0,1024,1024,1024,1024,0,0,0,0,299.1,0,0,95,4.049,4.042,4.043,4.047,0,0,8.29,60.8,1067.704422618,17.060368,6,P-GPS,
33400,2025-01-13 04:05:03,0,0,16.732284,,,1067.376338618,17.716536,0.223694,0,0,0,0,16.233,1067.704422618,17.060368,0,0,0,-0.223694,0,300.1, -1, 7.8,0,0,1024,1024,1024,1024,0,0,0,0,299.1,0,0,95,4.049,4.042,4.043,4.047,0,0,8.29,60.8,1067.376338618,16.732284,6,P-GPS,
33600,2025-01-13 04:05:04,0,0,17.060368,,,1067.704422618,17.716536,0.223694,0,0,0,0,16.187,1067.704422618,17.060368,0,0,0,-0.223694,0,299.4, -2.5, 7.8,0,0,1024,1024,1024,1024,0,0,0,0,299.1,0,0,95,4.055,4.046,4.045,4.047,0,0,8.61,60.8,1067.704422618,17.060368,6,P-GPS,
33800,2025-01-13 04:05:04,0,0,17.060368,,,1067.704422618,17.716536,0.223694,0,0,0,0,16.187,1067.704422618,17.060368,0,0,0,-0.223694,0,299.4, -2.3, 8.1,0,0,1024,1024,1024,1024,0,0,0,0,299.1,0,0,95,4.055,4.046,4.045,4.047,0,0,8.61,60.8,1067.704422618,17.060368,6,P-GPS,
34000,2025-01-13 04:05:04,0,0,16.732284,,,1067.376338618,17.716536,0.3131716,0,0,0,0,16.187,1067.704422618,17.060368,0,0,0.223694,-0.223694,0,299.3, -2.6, 7.3,0,0,1024,1024,1024,1024,0,0,0,0,299.1,0,0,95,4.055,4.046,4.045,4.047,0,0,8.61,60.8,1067.376338618,16.732284,6,P-GPS,
34200,2025-01-13 04:05:04,0,0,16.732284,,,1067.376338618,17.716536,0.3131716,0,0,0,0,16.187,1067.704422618,17.060368,0,0,0.223694,-0.223694,0,299.3, -1.8, 6.7,0,0,1024,1024,1024,1024,0,0,0,0,299.1,0,0,95,4.055,4.046,4.045,4.047,0,0,8.61,60.8,1067.376338618,16.732284,6,P-GPS,
34400,2025-01-13 04:05:04,0,0,16.732284,,,1067.376338618,17.716536,0.223694,0,0,0,0,16.187,1067.704422618,17.060368,0,0,0.223694,0,0,299.6, -1.1, 5.7,0,0,1024,1024,1024,1024,0,0,0,0,299.1,0,0,95,4.055,4.046,4.045,4.047,0,0,8.61,60.8,1067.376338618,16.732284,6,P-GPS,
34600,2025-01-13 04:05:05,0,0,16.732284,,,1067.376338618,18.372704,0.3131716,0,0,0,0,16.197,1067.704422618,17.060368,0,0,0.223694,-0.223694,0,299.5, -1.3, 5.4,0,0,1024,1024,1024,1066,0,0,0,6,299.1,0,0,95,4.051,4.047,4.046,4.048,0,0,8.297,60.98,1067.376338618,16.732284,6,P-GPS,
34800,2025-01-13 04:05:05,0,0,16.732284,,,1067.376338618,18.372704,0.223694,0,0,0,0,16.197,1067.704422618,17.060368,0,0,0,-0.223694,0,299.4, -1, 4.5,0,0,1024,1024,1024,1024,0,0,0,0,299.1,0,0,95,4.051,4.047,4.046,4.048,0,0,8.297,60.98,1067.376338618,16.732284,6,P-GPS,
35000,2025-01-13 04:05:05,0,0,17.060368,,,1067.704422618,19.028872,0.223694,0,0,0,0,16.197,1067.704422618,17.060368,0,0,0,-0.223694,0,299.3, 0.5, 6.1,0,0,1024,1024,1024,1024,0,0,0,0,299.1,0,0,95,4.051,4.047,4.046,4.048,0,0,8.297,60.98,1067.704422618,17.060368,6,P-GPS,
35200,2025-01-13 04:05:05,0,0,17.060368,,,1067.704422618,19.356956,0.223694,0,0,0,0,16.197,1067.704422618,17.060368,0,0,0,-0.223694,0,299.9, 0.4, 7.1,0,0,1024,1024,1024,1024,0,0,0,0,299.1,0,0,95,4.051,4.047,4.046,4.048,0,0,8.297,60.98,1067.704422618,17.060368,6,P-GPS,
35400,2025-01-13 04:05:05,0,0,17.060368,,,1067.704422618,19.356956,0.223694,0,0,0,0,16.197,1067.704422618,17.060368,0,0,0,-0.223694,0,299.8, 1.1, 6.8,0,0,1024,1024,1024,1024,0,0,0,0,299.1,0,0,95,4.051,4.047,4.046,4.048,0,0,8.297,60.98,1067.704422618,17.060368,6,P-GPS,
35600,2025-01-13 04:05:06,0,0,17.060368,,,1067.704422618,19.68504,0,0,0,0,0,16.097,1067.704422618,17.060368,0,0,0,0,0,300.2, 0.9, 5.6,0,0,1024,1024,1024,1044,0,0,0,3,299.1,0,0,94,4.053,4.042,4.046,4.05,0,0,8.988,60.98,1067.704422618,17.060368,6,P-GPS,
35800,2025-01-13 04:05:06,0,0,17.388452,,,1068.032506618,19.68504,0,0,0,0,0,16.097,1068.032506618,17.388452,0,0,0,0,0,299.6, 0.3, 6.1,0,0,1024,1024,1024,1024,0,0,0,0,299.1,0,0,94,4.053,4.042,4.046,4.05,0,0,8.988,60.98,1068.032506618,17.388452,6,P-GPS,
36000,2025-01-13 04:05:06,0,0,17.388452,,,1068.032506618,20.013124,0,0,0,0,0,16.097,1068.032506618,17.388452,0,0,0,0,0,299.6, -1, 6.8,0,0,1024,1024,1024,1113,0,0,0,13,299.1,0,0,94,4.053,4.042,4.046,4.05,0,0,8.988,60.98,1068.032506618,17.388452,6,P-GPS,
36200,2025-01-13 04:05:06,0,0,17.388452,,,1068.032506618,19.68504,0,0,0,0,0,16.097,1068.032506618,17.388452,0,0,0,0,0,299.8, -0.2, 6.8,0,0,1024,1024,1024,1366,0,0,0,52,299.2,0,0,94,4.053,4.042,4.046,4.05,0,0,8.988,60.98,1068.032506618,17.388452,6,P-GPS,
36400,2025-01-13 04:05:06,0,0,17.388452,,,1068.032506618,19.68504,0,0,0,0,0,16.097,1068.032506618,17.388452,0,0,0,0,0,300.1, -0.1, 5.7,0,0,1024,1024,1024,1024,0,0,0,0,300.3,0,0,94,4.053,4.042,4.046,4.05,0,0,8.988,60.98,1068.032506618,17.388452,6,P-GPS,
36600,2025-01-13 04:05:07,0,0,17.388452,,,1068.032506618,19.68504,0,0,0,0,0,16.182,1068.032506618,17.388452,0,0,0,0,0,300.6, -0.4, 4.9,0,0,1024,1024,1024,1024,0,0,0,0,300.6,0,0,94,4.047,4.04,4.037,4.042,0,0,8.456,61.16,1068.032506618,17.388452,6,P-GPS,
36800,2025-01-13 04:05:07,0,0,17.716536,,,1068.360590618,20.013124,0,0,0,0,0,16.182,1068.360590618,17.716536,0,0,0,0,0,301.3, 0.9, 4.9,0,0,1024,1024,1024,1024,0,0,0,0,300.6,0,0,94,4.047,4.04,4.037,4.042,0,0,8.456,61.16,1068.360590618,17.716536,6,P-GPS,
37000,2025-01-13 04:05:07,0,0,17.716536,,,1068.360590618,20.013124,0.223694,0,0,0,0,16.182,1068.360590618,17.716536,0,0,0,0.223694,0,301, -1.3, 3.3,0,0,1024,1024,1024,1312,0,0,0,44,300.6,0,0,94,4.047,4.04,4.037,4.042,0,0,8.456,61.16,1068.360590618,17.716536,6,P-GPS,
37200,2025-01-13 04:05:07,0,0,17.716536,,,1068.360590618,20.013124,0,0,0,0,0,16.182,1068.360590618,17.716536,0,0,0,0,0,300.6, -3.7, 3.5,0,0,1024,1024,1024,1024,0,0,0,0,303.2,0,0,94,4.047,4.04,4.037,4.042,0,0,8.456,61.16,1068.360590618,17.716536,6,P-GPS,
37400,2025-01-13 04:05:07,0,0,17.716536,,,1068.360590618,20.013124,0,0,0,0,0,16.182,1068.360590618,17.716536,0,0,0,0,0,301.9, -3.2, 3.5,0,0,1024,1024,1024,1024,0,0,0,0,305,0,0,94,4.047,4.04,4.037,4.042,0,0,8.456,61.16,1068.360590618,17.716536,6,P-GPS,
37600,2025-01-13 04:05:08,0,0,17.716536,,,1068.360590618,20.013124,0,0,0,0,0,16.159,1068.360590618,17.716536,0,0,0,0,0,305.7, -1.7, 4.2,0,0,1024,1024,1024,1024,0,0,0,0,305,0,0,94,4.049,4.043,4.044,4.045,0,0,8.977,61.16,1068.360590618,17.716536,6,P-GPS,
37800,2025-01-13 04:05:08,0,0,17.716536,,,1068.360590618,20.013124,0,0,0,0,0,16.159,1068.360590618,17.716536,0,0,0,0,0,304.9, -1.6, 4.8,0,0,1024,1024,1024,1024,0,0,0,0,305,0,0,94,4.049,4.043,4.044,4.045,0,0,8.977,61.16,1068.360590618,17.716536,6,P-GPS,
38000,2025-01-13 04:05:08,0,0,17.716536,,,1068.360590618,20.013124,0,0,0,0,0,16.159,1068.360590618,17.716536,0,0,0,0,0,305.3, -1.6, 3.8,0,0,1024,1024,1024,1024,0,0,0,0,305,0,0,94,4.049,4.043,4.044,4.045,0,0,8.977,61.16,1068.360590618,17.716536,6,P-GPS,
38200,2025-01-13 04:05:08,0,0,17.716536,,,1068.360590618,20.013124,0,0,0,0,0,16.159,1068.360590618,17.716536,0,0,0,0,0,305, -1, 4.4,0,0,1024,1024,1024,1024,0,0,0,0,305,0,0,94,4.049,4.043,4.044,4.045,0,0,8.977,61.16,1068.360590618,17.716536,6,P-GPS,
38400,2025-01-13 04:05:08,0,0,17.716536,,,1068.360590618,20.013124,0,0,0,0,0,16.159,1068.360590618,17.716536,0,0,0,0,0,305.3, -1, 4.4,0,0,1024,1024,1024,1024,0,0,0,0,305,0,0,94,4.049,4.043,4.044,4.045,0,0,8.977,61.16,1068.360590618,17.716536,6,P-GPS,
38600,2025-01-13 04:05:09,0,0,17.716536,,,1068.360590618,20.013124,0,0,0,0,0,16.159,1068.360590618,17.716536,0,0,0,0,0,305.4, -0.2, 3.7,0,0,1024,1024,1024,1024,0,0,0,0,305,0,0,94,4.041,4.037,4.039,4.041,0,0,8.977,61.16,1068.360590618,17.716536,6,P-GPS,
38800,2025-01-13 04:05:09,0,0,17.716536,,,1068.360590618,20.013124,0,0,0,0,0,16.159,1068.360590618,17.716536,0,0,0,0,0,305.1, -0.5, 3,0,0,1024,1024,1024,1024,0,0,0,0,305,0,0,94,4.041,4.037,4.039,4.041,0,0,8.977,61.16,1068.360590618,17.716536,6,P-GPS,
39000,2025-01-13 04:05:09,0,0,17.716536,,,1068.360590618,20.013124,0,0,0,0,0,16.159,1068.360590618,17.716536,0,0,0,0,0,305.2, -1.3, 2.8,0,0,1024,1024,1024,1024,0,0,0,0,305,0,0,94,4.041,4.037,4.039,4.041,0,0,8.977,61.16,1068.360590618,17.716536,6,P-GPS,
39200,2025-01-13 04:05:09,0,0,17.716536,,,1068.360590618,20.013124,0,0,0,0,0,16.159,1068.360590618,17.716536,0,0,0,0,0,305.3, -1.7, 2.6,0,0,1024,1024,1024,1024,0,0,0,0,305,0,0,94,4.041,4.037,4.039,4.041,0,0,8.977,61.16,1068.360590618,17.716536,6,P-GPS,
39400,2025-01-13 04:05:09,0,0,17.716536,,,1068.360590618,20.013124,0,0,0,0,0,16.159,1068.360590618,17.716536,0,0,0,0,0,305.3, -2.2, 2,0,0,1024,1024,1024,1024,0,0,0,0,305,0,0,94,4.041,4.037,4.039,4.041,0,0,8.977,61.16,1068.360590618,17.716536,6,P-GPS,
39600,2025-01-13 04:05:10,0,0,17.716536,,,1068.360590618,20.013124,0,0,0,0,0,16.155,1068.360590618,17.716536,0,0,0,0,0,305.2, -1.9, 1.1,0,0,1024,1024,1024,1024,0,0,0,0,305,0,0,94,4.041,4.033,4.032,4.034,0,0,8.71,61.34,1068.360590618,17.716536,6,P-GPS,
39800,2025-01-13 04:05:10,0,0,17.716536,,,1068.360590618,20.013124,0,0,0,0,0,16.155,1068.360590618,17.716536,0,0,0,0,0,305.1, -1, 0.9,0,0,1024,1000,1024,1024,0,-4,0,0,305,0,0,94,4.041,4.033,4.032,4.034,0,0,8.71,61.34,1068.360590618,17.716536,6,P-GPS,
40000,2025-01-13 04:05:10,0,0,18.04462,,,1068.688674618,20.013124,0,0,0,0,0,16.155,1068.688674618,18.04462,0,0,0,0,0,305.1, -1.3, 1.8,0,0,1024,894,1024,1024,0,-20,0,0,305,0,0,94,4.041,4.033,4.032,4.034,0,0,8.71,61.34,1068.688674618,18.04462,6,P-GPS,
40200,2025-01-13 04:05:10,0,0,18.04462,,,1068.688674618,20.013124,0,0,0,0,0,16.155,1068.688674618,18.04462,0,0,0,0,0,305.2, -1.2, 0.6,0,0,1024,874,1024,1024,0,-23,0,0,305,0,0,94,4.041,4.033,4.032,4.034,0,0,8.71,61.34,1068.688674618,18.04462,6,P-GPS,
40400,2025-01-13 04:05:10,0,0,18.04462,,,1068.688674618,20.013124,0,0,0,0,0,16.155,1068.688674618,18.04462,0,0,0,0,0,305.1, -1.1, 0,0,0,1024,895,1024,1024,0,-20,0,0,305,0,0,94,4.041,4.033,4.032,4.034,0,0,8.71,61.34,1068.688674618,18.04462,6,P-GPS,
40600,2025-01-13 04:05:11,0,0,18.372704,,,1069.016758618,20.013124,0.3131716,0,0,0,0,16.132,1069.016758618,18.372704,0,0,-0.223694,-0.223694,0,305.1, -1.1, 1.4,0,0,1024,895,1024,1024,0,-20,0,0,305,0,0,94,4.027,4.02,4.017,4.02,0,0,9.19,61.34,1069.016758618,18.372704,6,P-GPS,
40800,2025-01-13 04:05:11,0,0,18.372704,,,1069.016758618,20.013124,0.223694,0,0,0,0,16.132,1069.016758618,18.372704,0,0,0,-0.223694,0,305.2, -0.9, 1.4,0,0,1024,876,1024,1024,0,-22,0,0,305,0,0,94,4.027,4.02,4.017,4.02,0,0,9.19,61.34,1069.016758618,18.372704,6,P-GPS,
41000,2025-01-13 04:05:11,0,0,18.700788,,,1069.344842618,20.013124,0.223694,0,0,0,0,16.132,1069.344842618,18.700788,0,0,0,-0.223694,0,305.3, -1.1, 0,0,0,1024,883,1024,1024,0,-21,0,0,305,0,0,94,4.027,4.02,4.017,4.02,0,0,9.19,61.34,1069.344842618,18.700788,6,P-GPS,
41200,2025-01-13 04:05:11,0,0,18.700788,,,1069.344842618,20.013124,0.3131716,0,0,0,0,16.132,1069.344842618,18.700788,0,0,-0.223694,-0.223694,0,305.1, -0.7, -1.1,0,0,1024,887,1024,1024,0,-21,0,0,305,0,0,94,4.027,4.02,4.017,4.02,0,0,9.19,61.34,1069.344842618,18.700788,6,P-GPS,
41400,2025-01-13 04:05:11,0,0,18.700788,,,1069.344842618,20.013124,0.3131716,0,0,0,0,16.132,1069.344842618,18.700788,0,0,-0.223694,-0.223694,0,305.2, -1.1, -0.6,0,0,1024,889,1024,1024,0,-20,0,0,305,0,0,94,4.027,4.02,4.017,4.02,0,0,9.19,61.34,1069.344842618,18.700788,6,P-GPS,
41600,2025-01-13 04:05:12,0,0,18.700788,,,1069.344842618,20.013124,0.6263432,0,0,0,0,16.214,1069.344842618,18.700788,0,0,-0.447388,-0.447388,0,304.9, -1.2, 0.2,0,0,1024,894,1024,1024,0,-20,0,0,305,0,0,94,4.059,4.053,4.051,4.053,0,0,8.61,61.7,1069.344842618,18.700788,6,P-GPS,
41800,2025-01-13 04:05:12,0,0,18.700788,,,1069.344842618,20.013124,0.6263432,0,0,0,0,16.214,1069.344842618,18.700788,0,0,-0.447388,-0.447388,0,305, 0, 0,0,0,1024,1024,1024,1024,0,0,0,0,305,0,0,94,4.059,4.053,4.051,4.053,0,0,8.61,61.7,1069.344842618,18.700788,6,P-GPS,
42000,2025-01-13 04:05:12,0,0,18.700788,,,1069.344842618,20.013124,0.6263432,0,0,0,0,16.214,1069.344842618,18.700788,0,0,-0.447388,-0.447388,0,305.4, -0.4, 1.9,0,0,1024,1024,1024,1024,0,0,0,0,305,0,0,94,4.059,4.053,4.051,4.053,0,0,8.61,61.7,1069.344842618,18.700788,6,P-GPS,
42200,2025-01-13 04:05:12,0,0,18.700788,,,1069.344842618,20.013124,0.4921268,0,0,0,0,16.214,1069.344842618,18.700788,0,0,-0.447388,-0.223694,0,305.4, -0.5, 5.6,0,0,1024,1024,1024,1024,0,0,0,0,305,0,0,94,4.059,4.053,4.051,4.053,0,0,8.61,61.7,1069.344842618,18.700788,6,P-GPS,
42400,2025-01-13 04:05:12,0,0,18.700788,,,1069.344842618,20.013124,0.223694,0,0,0,0,16.214,1069.344842618,18.700788,0,0,-0.223694,0,0,305.8, -0.5, 4.2,0,0,1024,1024,1024,1024,0,0,0,0,305,0,0,94,4.059,4.053,4.051,4.053,0,0,8.61,61.7,1069.344842618,18.700788,6,P-GPS,
42600,2025-01-13 04:05:13,0,0,18.700788,,,1069.344842618,20.013124,0,0,0,0,0,16.191,1069.344842618,18.700788,0,0,0,0,0,305.4, -0.7, 2.8,0,0,1024,1024,1024,1024,0,0,0,0,305,0,0,94,4.055,4.049,4.049,4.049,0,0,8.037,61.7,1069.344842618,18.700788,6,P-GPS,
42800,2025-01-13 04:05:13,0,0,18.700788,,,1069.344842618,20.013124,0,0,0,0,0,16.191,1069.344842618,18.700788,0,0,0,0,0,305.3, -0.6, 2.4,0,0,1024,1024,1024,1024,0,0,0,0,305,0,0,94,4.055,4.049,4.049,4.049,0,0,8.037,61.7,1069.344842618,18.700788,6,P-GPS,
43000,2025-01-13 04:05:13,0,0,19.028872,,,1069.672926618,20.013124,0.223694,0,0,0,0,16.191,1069.672926618,19.028872,0,0,-0.223694,0,0,305.2, -1.6, 3.5,0,0,1024,1024,1024,1024,0,0,0,0,305,0,0,94,4.055,4.049,4.049,4.049,0,0,8.037,61.7,1069.672926618,19.028872,6,P-GPS,
43200,2025-01-13 04:05:13,0,0,19.028872,,,1069.672926618,20.013124,0.223694,0,0,0,0,16.191,1069.672926618,19.028872,0,0,-0.223694,0,0,305.3, -2, 5,0,0,1024,1024,1024,1024,0,0,0,0,305,0,0,94,4.055,4.049,4.049,4.049,0,0,8.037,61.7,1069.672926618,19.028872,6,P-GPS,
43400,2025-01-13 04:05:13,0,0,19.028872,,,1069.672926618,19.68504,0,0,0,0,0,16.191,1069.672926618,19.028872,0,0,0,0,0,305.6, -1.7, 5.3,0,0,1024,1024,1024,1024,0,0,0,0,305,0,0,94,4.055,4.049,4.049,4.049,0,0,8.037,61.7,1069.672926618,19.028872,6,P-GPS,
43600,2025-01-13 04:05:14,0,0,18.700788,,,1069.344842618,19.68504,0,0,0,0,0,16.188,1069.672926618,19.028872,0,0,0,0,0,305.4, -2.7, 4.1,0,0,1024,1024,1024,1024,0,0,0,0,305,0,0,94,4.051,4.044,4.043,4.048,0,0,8.092,61.7,1069.344842618,18.700788,6,P-GPS,
43800,2025-01-13 04:05:14,0,0,18.700788,,,1069.344842618,19.68504,0,0,0,0,0,16.188,1069.672926618,19.028872,0,0,0,0,0,305.3, -3.2, 3.5,0,0,1024,1024,1024,1024,0,0,0,0,305,0,0,94,4.051,4.044,4.043,4.048,0,0,8.092,61.7,1069.344842618,18.700788,6,P-GPS,
44000,2025-01-13 04:05:14,0,0,18.372704,,,1069.016758618,19.356956,0,0,0,0,0,16.188,1069.672926618,19.028872,0,0,0,0,0,305.2, -3.5, 2.2,0,0,1024,1024,1024,1024,0,0,0,0,305,0,0,94,4.051,4.044,4.043,4.048,0,0,8.092,61.7,1069.016758618,18.372704,6,P-GPS,
44200,2025-01-13 04:05:14,0,0,18.372704,,,1069.016758618,19.356956,0,0,0,0,0,16.188,1069.672926618,19.028872,0,0,0,0,0,305.1, -4.6, 2,0,0,1024,1024,1024,1024,0,0,0,0,305,0,0,94,4.051,4.044,4.043,4.048,0,0,8.092,61.7,1069.016758618,18.372704,6,P-GPS,
44400,2025-01-13 04:05:14,0,0,18.372704,,,1069.016758618,19.028872,0,0,0,0,0,16.188,1069.672926618,19.028872,0,0,0,0,0,305, -3.6, 2.2,0,0,1024,1024,1024,1024,0,0,0,0,305,0,0,94,4.051,4.044,4.043,4.048,0,0,8.092,61.7,1069.016758618,18.372704,6,P-GPS,
44600,2025-01-13 04:05:15,0,0,18.04462,,,1068.688674618,18.700788,0,0,0,0,0,16.216,1069.672926618,19.028872,0,0,0,0,0,304.8, -3.8, 2.5,0,0,1024,1024,1024,1024,0,0,0,0,305,0,0,94,4.056,4.049,4.048,4.051,0,0,7.976,61.88,1068.688674618,18.04462,6,P-GPS,
