time(millisecond),datetime(utc),latitude,longitude,height_above_takeoff(feet),height_above_ground_at_drone_location(feet),ground_elevation_at_drone_location(feet),altitude_above_seaLevel(feet),height_sonar(feet),speed(mph),distance(feet),mileage(feet),satellites,gpslevel,voltage(v),max_altitude(feet),max_ascent(feet),max_speed(mph),max_distance(feet), xSpeed(mph), ySpeed(mph), zSpeed(mph), compass_heading(degrees), pitch(degrees), roll(degrees),isPhoto,isVideo,rc_elevator,rc_aileron,rc_throttle,rc_rudder,rc_elevator(percent),rc_aileron(percent),rc_throttle(percent),rc_rudder(percent),gimbal_heading(degrees),gimbal_pitch(degrees),gimbal_roll(degrees),battery_percent,voltageCell1,voltageCell2,voltageCell3,voltageCell4,voltageCell5,voltageCell6,current(A),battery_temperature(f),altitude(feet),ascent(feet),flycStateRaw,flycState,message
0,2025-01-13 05:17:48,37.0152452847548,140.149075057836,0,Available with any HD 360 subscription,Available with any HD 360 subscription,1052.7753791613,0.328084,0,0,0,15,5,0,1052.7753791613,0,0,0,0,0,0,41.3, -0.2, 2.7,0,0,1024,1024,1024,1024,0,0,0,0,45.9,0,0,97,3.964,3.937,3.934,0,0,0,0,63.86,1052.7753791613,0,41,Motors_Started,
100,2025-01-13 05:17:48,37.0152452583636,140.149074946413,0,,,1052.7753791613,0.328084,0,0.0338582688,0.0338582688,15,5,0,1052.7753791613,0,0,0.0338582688,0,0,0,41.3, -0.2, 2.7,0,0,1024,1024,1024,1024,0,0,0,0,45.9,0,0,97,3.964,3.937,3.934,0,0,0,0,63.86,1052.7753791613,0,41,Motors_Started,"飛行中. Setting new Return-To-Home altitude to 100m (328 ft). Data Recorder File Index is 13. Setting new Maximum Flight Altitude to 145m (476 ft)"
200,2025-01-13 05:17:48,37.0152452711451,140.149074909397,0,,,1052.7753791613,0.328084,0,0.043527888532,0.04560695684,15,5,0,1052.7753791613,0,0,0.043527888532,0,0,0,41.3, -0.2, 2.7,0,0,1024,1024,1024,1024,0,0,0,0,45.9,0,0,97,3.964,3.937,3.934,0,0,0,0,63.86,1052.7753791613,0,41,Motors_Started,
300,2025-01-13 05:17:48,37.015245248562,140.149074815235,0,,,1052.7753791613,0.328084,0,0.071898296264,0.074249018124,15,5,0,1052.7753791613,0,0,0.071898296264,0,0,0,41.3, -0.2, 2.7,0,0,1024,1024,1024,1024,0,0,0,0,45.9,0,0,97,3.964,3.937,3.934,0,0,0,0,63.86,1052.7753791613,0,41,Motors_Started,
400,2025-01-13 05:17:48,37.0152452580051,140.149074769672,0,,,1052.7753791613,0.328084,0,0.0845144384,0.087962929324,15,5,0,1052.7753791613,0,0,0.0845144384,0,0,0,41.3, -0.2, 2.7,0,0,1024,1024,1024,1024,0,0,0,0,45.9,0,0,97,3.964,3.937,3.934,0,0,0,0,63.86,1052.7753791613,0,41,Motors_Started,
500,2025-01-13 05:17:48,37.0152455409272,140.149074692013,0,,,1052.7753791613,0.328084,0,0.141750988788,0.19363681722,15,5,0,1052.7753791613,0,0,0.141750988788,0,0,0,41.3, -0.2, 2.7,0,0,1024,1024,1024,1024,0,0,0,0,45.9,0,0,97,3.964,3.937,3.934,0,0,0,0,63.86,1052.7753791613,0,41,Motors_Started,
600,2025-01-13 05:17:48,37.0152455765648,140.149074640256,0,,,1052.7753791613,0.328084,0,0.161660438244,0.213546922844,15,5,0,1052.7753791613,0,0,0.161660438244,0,0,0,41.3, -0.2, 2.7,0,0,1024,1024,1024,1024,0,0,0,0,45.9,0,0,97,3.964,3.937,3.934,0,0,0,0,63.86,1052.7753791613,0,41,Motors_Started,
700,2025-01-13 05:17:48,37.0152456683037,140.149074725716,0,,,1052.7753791613,0.328084,0,0.170128942452,0.255261819192,15,5,0,1052.7753791613,0,0,0.170128942452,0,0,0,41.3, -0.2, 2.8,0,0,1024,1024,1024,1024,0,0,0,0,45.9,0,0,97,3.964,3.937,3.934,0,0,0,0,63.86,1052.7753791613,0,41,Motors_Started,
800,2025-01-13 05:17:48,37.0152457124386,140.149074683172,0,,,1052.7753791613,0.328084,0,0.190425531028,0.275582029816,15,5,0,1052.7753791613,0,0,0.190425531028,0,0,0,41.3, -0.3, 2.7,0,0,1024,1024,1024,1024,0,0,0,0,45.9,0,0,97,3.964,3.937,3.934,0,0,0,0,63.86,1052.7753791613,0,41,Motors_Started,
900,2025-01-13 05:17:49,37.0152459450253,140.149074602251,0,,,1052.7753791613,0.328084,0,0.275041347384,0.36365486728,15,5,0,1052.7753791613,0,0,0.275041347384,0,0,0,41.3, -0.3, 2.7,0,0,1024,1024,1024,1024,0,0,0,0,45.9,0,0,97,3.964,3.937,3.934,0,0,0,0,63.86,1052.7753791613,0,41,Motors_Started,
1000,2025-01-13 05:17:49,37.0152460104462,140.149074553996,0,,,1052.7753791613,0.328084,0,0.302731965068,0.3913549994,15,5,0,1052.7753791613,0,0,0.302731965068,0,0,0,41.3, -0.2, 2.8,0,0,1024,1024,1024,1024,0,0,0,0,45.9,0,0,97,3.964,3.937,3.934,0,0,0,0,63.86,1052.7753791613,0,41,Motors_Started,
1100,2025-01-13 05:17:49,37.0152458983335,140.149074643147,0,,,1052.7753791613,0.328084,0,0.254381241736,0.43980972536,15,5,0,1052.7753791613,0,0,0.302731965068,0,0,0,41.2, -0.3, 2.9,0,0,1024,1024,1024,1024,0,0,0,0,45.9,0,0,97,3.964,3.937,3.934,0,0,0,0,63.86,1052.7753791613,0,41,Motors_Started,
1200,2025-01-13 05:17:49,37.0152459501823,140.149074612496,0,,,1052.7753791613,0.328084,0,0.275271662352,0.4607283612,15,5,0,1052.7753791613,0,0,0.302731965068,0,0,0,41, -0.4, 3.2,0,0,1024,1024,1024,1024,0,0,0,0,45.9,0,0,97,3.964,3.937,3.934,0,0,0,0,63.86,1052.7753791613,0,41,Motors_Started,
1300,2025-01-13 05:17:49,37.0152458539901,140.149074541359,0,,,1052.7753791613,0.328084,0,0.256460310044,0.50148623652,15,5,11.861,1052.7753791613,0,0,0.302731965068,0,0,0,40.9, -0.4, 3.3,0,0,1024,1024,1024,1024,0,0,0,0,45.9,0,0,97,3.964,3.937,3.934,0,0,0,3.063,63.86,1052.7753791613,0,41,Motors_Started,
1400,2025-01-13 05:17:49,37.0152458963954,140.149074497469,0,,,1052.7753791613,0.328084,0,0.276493775252,0.5215551348,15,5,11.861,1052.7753791613,0,0,0.302731965068,0,0,0,40.9, -0.4, 3,0,0,1024,1024,1024,1024,0,0,0,0,45.9,0,0,97,3.964,3.937,3.934,0,0,0,3.063,63.86,1052.7753791613,0,41,Motors_Started,
1500,2025-01-13 05:17:49,37.0152461192812,140.149074421949,0,,,1052.7753791613,0.328084,0,0.35640421088,0.60580054432,15,5,11.861,1052.7753791613,0,0,0.35640421088,0,0,0,40.9, -0.3, 3,0,0,1024,1024,1024,1024,0,0,0,0,45.9,0,0,97,3.964,3.937,3.934,0,0,0,3.063,63.86,1052.7753791613,0,11,AutoTakeoff,
1600,2025-01-13 05:17:49,37.0152461799013,140.149074375556,0,,,1052.7753791613,0.328084,0,0.38232284688,0.63171918032,15,5,11.861,1052.7753791613,0,0,0.38232284688,0,0,0,40.9, -0.3, 3,0,0,1024,1024,1024,1024,0,0,0,0,45.9,0,0,97,3.964,3.937,3.934,0,0,0,3.063,63.86,1052.7753791613,0,11,AutoTakeoff,
1700,2025-01-13 05:17:49,37.0152460793541,140.149074443995,0,,,1052.7753791613,0.328084,0,0.34062665132,0.67347115016,15,5,11.861,1052.7753791613,0,0,0.38232284688,0,0,0,40.9, -0.4, 3,0,0,1024,1024,1024,1024,0,0,0,0,45.9,0,0,97,3.964,3.937,3.934,0,0,0,3.063,63.86,1052.7753791613,0,11,AutoTakeoff,
1800,2025-01-13 05:17:49,37.015246127906,140.149074408136,0,,,1052.7753791613,0.328084,0,0.3611876756,0.69403545528,15,5,11.861,1052.7753791613,0,0,0.38232284688,0,0,0,40.8, -0.4, 3.1,0,0,1024,1024,1024,1024,0,0,0,0,45.9,0,0,97,3.964,3.937,3.934,0,0,0,3.063,63.86,1052.7753791613,0,11,AutoTakeoff,
1900,2025-01-13 05:17:50,37.0152460360914,140.149074638987,0,,,1052.7753791613,0.328084,0,0.300055455796,0.76916997212,15,5,11.861,1052.7753791613,0,0,0.38232284688,0,0,0,40.8, -0.5, 3.3,0,0,1024,1024,1024,1024,0,0,0,0,45.9,0,0,97,3.964,3.937,3.934,0,0,0,3.063,63.86,1052.7753791613,0,11,AutoTakeoff,
2000,2025-01-13 05:17:50,37.0152460699216,140.14907463528,0,,,1052.7753791613,0.328084,0,0.311797254072,0.78155842396,15,5,11.861,1052.7753791613,0,0,0.38232284688,0,0,0,40.7, -0.9, 3.4,0,0,1024,1024,1024,1024,0,0,0,0,45.9,0,0,97,3.964,3.937,3.934,0,0,0,3.063,63.86,1052.7753791613,0,11,AutoTakeoff,
2100,2025-01-13 05:17:50,37.0152461495006,140.149074681501,0,,,1052.7753791613,0.328084,0,0.33400919704,0.813566299,15,5,11.861,1052.7753791613,0,0,0.38232284688,0,0,0,40.5, -1.8, 3.3,0,0,1024,1024,1024,1024,0,0,0,0,45.9,0,0,97,3.964,3.937,3.934,0,0,0,3.063,63.86,1052.7753791613,0,11,AutoTakeoff,
2200,2025-01-13 05:17:50,37.0152462044278,140.149074691201,0,,,1052.7753791613,0.328084,0,0.3521325572,0.83380252012,15,5,11.861,1052.7753791613,0,0,0.38232284688,0,0,0,40.2, -3.4, 2.4,0,0,1024,1024,1024,1024,0,0,0,0,45.9,0,0,97,3.964,3.937,3.934,0,0,0,3.063,63.86,1052.7753791613,0,11,AutoTakeoff,
2300,2025-01-13 05:17:50,37.0152461671436,140.149074719105,0,,,1052.7753791613,0.328084,0,0.33672245172,0.84964897732,15,5,11.981,1052.7753791613,0,0,0.38232284688,0,0,0,39.7, -4.9, 0.5,0,0,1024,1024,1024,1024,0,0,0,0,45.8,0,0,97,3.956,3.925,3.913,0,0,0,3.346,63.68,1052.7753791613,0,11,AutoTakeoff,
2400,2025-01-13 05:17:50,37.0152462829166,140.149074770756,0,,,1052.7753791613,0.328084,0.223694,0.37365814844,0.8944882176,15,5,11.981,1052.7753791613,0,0.223694,0.38232284688,0.223694,0,0,39.1, -4.5, -1.4,0,0,1024,1024,1024,1024,0,0,0,0,45.8,0,0,97,3.956,3.925,3.913,0,0,0,3.346,63.68,1052.7753791613,0,11,AutoTakeoff,
2500,2025-01-13 05:17:50,37.0152463712557,140.149074816901,0,,,1052.7753791613,0.328084,0.447388,0.4025754722,0.9294127594,15,5,11.981,1052.7753791613,0,0.447388,0.4025754722,0.447388,0,-0.223694,38, -3.5, -2,0,0,1024,1024,1024,1024,0,0,0,0,45.6,0,0,97,3.956,3.925,3.913,0,0,0,3.346,63.68,1052.7753791613,0,11,AutoTakeoff,
2600,2025-01-13 05:17:50,37.015246627734,140.149074870325,0,,,1052.7753791613,0.328084,0.447388,0.49302166932,1.02427168632,15,5,11.981,1052.7753791613,0,0.447388,0.49302166932,0.447388,0,-0.671082,37.9, -1.1, -1.4,0,0,1024,1024,1024,1024,0,0,0,0,45.4,0,0,97,3.956,3.925,3.913,0,0,0,3.346,63.68,1052.7753791613,0,11,AutoTakeoff,
2700,2025-01-13 05:17:50,37.0152468809019,140.149074847485,0,,,1052.7753791613,0.328084,0.671082,0.58556760404,1.116879957,15,5,11.981,1052.7753791613,0,0.671082,0.58556760404,0.671082,0,-0.894776,38.1, 1.5, 1.1,0,0,1024,1024,1024,1024,0,0,0,0,45.2,0,0,97,3.956,3.925,3.913,0,0,0,3.346,63.68,1052.7753791613,0,11,AutoTakeoff,
2800,2025-01-13 05:17:50,37.0152471573088,140.149074832951,0.328084,,,1053.1034631613,0.328084,0.447388,0.6863353238,1.2178149996,15,5,11.981,1053.1034631613,0.328084,0.671082,0.6863353238,0.447388,0,-0.894776,38.3, 2.4, 2.7,0,0,1024,1024,1024,1024,0,0,0,0,45,0,0,97,3.956,3.925,3.913,0,0,0,3.346,63.68,1053.1034631613,0.328084,11,AutoTakeoff,
2900,2025-01-13 05:17:51,37.0152472962483,140.149074670553,0.328084,,,1053.1034631613,0.328084,0.447388,0.74251314712,1.287155553,15,5,11.981,1053.1034631613,0.328084,0.671082,0.74251314712,0.447388,0,-1.11847,38.2, 2, 2.3,0,0,1024,1024,1024,1024,0,0,0,0,44.9,0,0,97,3.956,3.925,3.913,0,0,0,3.346,63.68,1053.1034631613,0.328084,11,AutoTakeoff,
3000,2025-01-13 05:17:51,37.0152474508724,140.149074640075,0.656168,,,1053.4315471613,0.984252,0.223694,0.799622729,1.34426513488,15,5,11.981,1053.4315471613,0.656168,0.671082,0.799622729,0.223694,0,-1.11847,38.1, 1.5, 1,0,0,1024,1024,1024,1024,0,0,0,0,44.8,0,0,97,3.956,3.925,3.913,0,0,0,3.346,63.68,1053.4315471613,0.656168,11,AutoTakeoff,
3100,2025-01-13 05:17:51,37.0152470600997,140.149074715913,0.656168,,,1053.4315471613,0.984252,0.223694,0.65534779,1.48854007388,15,5,11.981,1053.4315471613,0.656168,0.671082,0.799622729,0.223694,0,-1.11847,38.3, 1.1, 1,0,0,1024,1024,1024,1024,0,0,0,0,44.7,0,0,97,3.956,3.925,3.913,0,0,0,3.346,63.68,1053.4315471613,0.656168,11,AutoTakeoff,
3200,2025-01-13 05:17:51,37.0152471162241,140.149074644431,0.984252,,,1053.7596311613,1.312336,0.223694,0.67897639968,1.51774611156,15,5,11.981,1053.7596311613,0.984252,0.671082,0.799622729,0.223694,0,-1.11847,38.3, 0.7, 1.7,0,0,1024,1024,1024,1024,0,0,0,0,44.6,0,0,97,3.956,3.925,3.913,0,0,0,3.346,63.68,1053.7596311613,0.984252,11,AutoTakeoff,
3300,2025-01-13 05:17:51,37.015247521364,140.149074464707,0.984252,,,1053.7596311613,1.312336,0,0.8341207616,1.6745571402,15,5,11.436,1053.7596311613,0.984252,0.671082,0.8341207616,0,0,-1.11847,38.3, 0.5, 2.2,0,0,1024,1024,1024,1024,0,0,0,0,44.5,0,0,97,3.818,3.769,3.765,0,0,0,7.6,63.86,1053.7596311613,0.984252,11,AutoTakeoff,
3400,2025-01-13 05:17:51,37.0152475617589,140.149074383209,1.312336,,,1054.0877151613,1.64042,0,0.85369425304,1.70250333532,15,5,11.436,1054.0877151613,1.312336,0.671082,0.85369425304,0,0,-1.11847,38.4, 0.5, 2,0,0,1024,1140,1024,1024,0,18,0,0,44.4,0,0,97,3.818,3.769,3.765,0,0,0,7.6,63.86,1054.0877151613,1.312336,11,AutoTakeoff,
3500,2025-01-13 05:17:51,37.0152475512593,140.149074457534,1.312336,,,1054.0877151613,1.64042,0,0.84522312416,1.724491525,15,5,11.436,1054.0877151613,1.312336,0.671082,0.85369425304,0,0,-1.11847,38.4, 0, 1.7,0,0,1024,1204,1024,1024,0,27,0,0,44.4,0,0,97,3.818,3.769,3.765,0,0,0,7.6,63.86,1054.0877151613,1.312336,11,AutoTakeoff,
3600,2025-01-13 05:17:51,37.0152475540322,140.14907439669,1.64042,,,1054.4157991613,1.968504,0,0.85005252064,1.74224743108,16,5,11.436,1054.4157991613,1.64042,0.671082,0.85369425304,0,0,-0.894776,38.4, -0.3, 2.2,0,0,1024,1260,1024,1024,0,36,0,0,44.3,0,0,97,3.818,3.769,3.765,0,0,0,7.6,63.86,1054.4157991613,1.64042,11,AutoTakeoff,
3700,2025-01-13 05:17:51,37.0152479613166,140.149074252397,1.64042,,,1054.4157991613,1.968504,0,1.00433730248,1.89667328904,16,5,11.436,1054.4157991613,1.64042,0.671082,1.00433730248,0,0,-0.894776,38.4, -0.3, 4.2,0,0,1024,1328,1024,1024,0,46,0,0,44.3,0,0,97,3.818,3.769,3.765,0,0,0,7.6,63.86,1054.4157991613,1.64042,11,AutoTakeoff,
3800,2025-01-13 05:17:51,37.0152479751831,140.149074224231,1.968504,,,1054.7438831613,2.296588,0,1.01119425808,1.9063156778,15,5,11.436,1054.7438831613,1.968504,0.671082,1.01119425808,0,0,-0.894776,38.3, -0.2, 6.3,0,0,1024,1338,1024,1024,0,48,0,0,44.2,0,0,97,3.818,3.769,3.765,0,0,0,7.6,63.86,1054.7438831613,1.968504,11,AutoTakeoff,
3900,2025-01-13 05:17:52,37.0152476355248,140.149074328441,1.968504,,,1054.7438831613,2.296588,0,0.88360567132,2.03390426456,15,5,11.436,1054.7438831613,1.968504,0.671082,1.01119425808,0,0,-0.894776,38.3, -0.1, 8.5,0,0,1024,1339,1024,1024,0,48,0,0,44.2,0,0,97,3.818,3.769,3.765,0,0,0,7.6,63.86,1054.7438831613,1.968504,11,AutoTakeoff,
4000,2025-01-13 05:17:52,37.0152475099264,140.149074478774,2.296588,,,1055.0719671613,2.624672,0.3131716,0.82919293992,2.09729009336,15,5,11.436,1055.0719671613,2.296588,0.671082,1.01119425808,-0.223694,0.223694,-0.894776,38.2, 0, 10,0,0,1024,1339,1024,1024,0,48,0,0,44.2,0,0,97,3.818,3.769,3.765,0,0,0,7.6,63.86,1055.0719671613,2.296588,11,AutoTakeoff,
4100,2025-01-13 05:17:52,37.0152478874566,140.149074458861,2.296588,,,1055.0719671613,2.624672,0.8052984,0.96549215688,2.235154271,15,5,11.436,1055.0719671613,2.296588,0.8052984,1.01119425808,-0.447388,0.671082,-0.894776,38.2, 0.1, 10.6,0,0,1024,1339,1024,1024,0,48,0,0,44.1,0,0,97,3.818,3.769,3.765,0,0,0,7.6,63.86,1055.0719671613,2.296588,11,AutoTakeoff,
4200,2025-01-13 05:17:52,37.0152476423469,140.149074845974,2.624672,,,1055.4000511613,2.952756,1.11847,0.86237863652,2.3790847218,16,5,11.436,1055.4000511613,2.624672,1.11847,1.01119425808,-0.671082,0.894776,-0.894776,38.2, 0, 10.7,0,0,1024,1335,1024,1024,0,47,0,0,44.1,0,0,97,3.818,3.769,3.765,0,0,0,7.6,63.86,1055.4000511613,2.624672,11,AutoTakeoff,"ホームポイントを更新。RTH高度が 100mに調整されました。 (Code: 3000001)"
4300,2025-01-13 05:17:52,37.0152470514443,140.149075739403,2.624672,,,1055.4000511613,2.952756,1.4316416,0.67446524468,2.71705389272,16,5,11.347,1055.4000511613,2.624672,1.4316416,1.01119425808,-0.894776,1.11847,-1.11847,38.2, -0.2, 10.8,0,0,1024,1326,1024,1024,0,46,0,0,44,0,0,97,3.807,3.754,3.75,0,0,0,10.491,63.86,1055.4000511613,2.624672,11,AutoTakeoff,
4400,2025-01-13 05:17:52,37.0152466165203,140.14907643499,2.952756,,,1055.7281351613,3.28084,1.4316416,0.63012141124,2.97442922904,16,5,11.347,1055.7281351613,2.952756,1.4316416,1.01119425808,-1.11847,1.342164,-0.894776,38.3, -0.1, 10.6,0,0,1024,1316,1024,1024,0,44,0,0,44,0,0,97,3.807,3.754,3.75,0,0,0,10.491,63.86,1055.7281351613,2.952756,11,AutoTakeoff,
4500,2025-01-13 05:17:52,37.0152466334948,140.149077024528,2.952756,,,1055.7281351613,3.28084,2.0579848,0.75525592968,3.14628618992,16,5,11.347,1055.7281351613,2.952756,2.0579848,1.01119425808,-1.342164,1.565858,-0.894776,38.3, 0.2, 9.9,0,0,1024,1254,1024,1024,0,35,0,0,44,0,0,97,3.807,3.754,3.75,0,0,0,10.491,63.86,1055.7281351613,2.952756,11,AutoTakeoff,
4600,2025-01-13 05:17:52,37.0152460901062,140.149077941419,3.28084,,,1056.0562191613,3.608924,2.0579848,0.8899606584,3.4789371192,18,5,11.347,1056.0562191613,3.28084,2.0579848,1.01119425808,-1.565858,1.789552,-0.894776,38.3, 0.3, 8.8,0,0,1024,1203,1024,1024,0,27,0,0,43.9,0,0,97,3.807,3.754,3.75,0,0,0,10.491,63.86,1056.0562191613,3.28084,11,AutoTakeoff,
4700,2025-01-13 05:17:52,37.0152456468149,140.149078550781,3.28084,,,1056.0562191613,3.608924,2.5501116,1.0261155184,3.7190946072,18,5,11.347,1056.0562191613,3.28084,2.5501116,1.0261155184,-1.565858,2.013246,-0.894776,38.4, 0.1, 6.7,0,0,1024,1196,1024,1024,0,26,0,0,43.9,0,0,97,3.807,3.754,3.75,0,0,0,10.491,63.86,1056.0562191613,3.28084,6,P-GPS,
4800,2025-01-13 05:17:52,37.0152450103487,140.149079570315,3.608924,,,1056.3843031613,3.608924,2.684328,1.31839571148,4.0960959316,18,5,11.347,1056.3843031613,3.608924,2.684328,1.31839571148,-1.789552,2.013246,-0.671082,38.9, 0, 4.5,0,0,1024,1169,1024,1024,0,22,0,0,43.9,0,0,97,3.807,3.754,3.75,0,0,0,10.491,63.86,1056.3843031613,3.608924,6,P-GPS,
4900,2025-01-13 05:17:52,37.0152445038904,140.149080718175,3.608924,,,1056.3843031613,3.937008,2.684328,1.67341868872,4.4781497496,18,5,11.347,1056.3843031613,3.608924,2.684328,1.67341868872,-1.789552,2.013246,-0.447388,38.9, -0.1, 3.2,0,0,1021,1123,1024,1024,-0,15,0,0,43.9,0,0,97,3.807,3.754,3.75,0,0,0,10.491,63.86,1056.3843031613,3.608924,6,P-GPS,
5000,2025-01-13 05:17:53,37.0152438658583,140.149081749074,3.608924,,,1056.3843031613,3.937008,2.684328,2.01688326664,4.8581366384,18,5,11.347,1056.3843031613,3.608924,2.684328,2.01688326664,-1.789552,2.013246,-0.223694,38.7, -0.3, 2.9,0,0,1021,1123,1024,1024,-0,15,0,0,43.9,0,0,97,3.807,3.754,3.75,0,0,0,10.491,63.86,1056.3843031613,3.608924,6,P-GPS,
5100,2025-01-13 05:17:53,37.0152434492054,140.149083169048,3.608924,,,1056.3843031613,3.937008,2.684328,2.4560532282,5.2988518756,18,5,11.347,1056.3843031613,3.608924,2.684328,2.4560532282,-1.789552,2.013246,0,38.8, -0.4, 1.7,0,0,1018,1126,1024,1024,-1,15,0,0,43.9,0,0,97,3.807,3.754,3.75,0,0,0,10.491,63.86,1056.3843031613,3.608924,6,P-GPS,
5200,2025-01-13 05:17:53,37.0152428454401,140.149084207868,3.608924,,,1056.3843031613,3.937008,2.684328,2.81026255712,5.6731629112,17,5,11.347,1056.3843031613,3.608924,2.684328,2.81026255712,-1.565858,2.013246,0,38.8, -0.3, 0.4,0,0,1024,1125,1024,1024,0,15,0,0,43.9,0,0,97,3.807,3.754,3.75,0,0,0,10.491,63.86,1056.3843031613,3.608924,6,P-GPS,
5300,2025-01-13 05:17:53,37.0152420100644,140.149085604145,3.608924,,,1056.3843031613,3.937008,2.3711564,3.2965224152,6.1814634524,17,5,11.291,1056.3843031613,3.608924,2.684328,3.2965224152,-1.565858,1.789552,0,38.6, -0.5, 0.3,0,0,1024,1109,1024,1024,0,13,0,0,43.9,0,0,97,3.829,3.778,3.772,0,0,0,10.708,63.86,1056.3843031613,3.608924,6,P-GPS,
5400,2025-01-13 05:17:53,37.0152414434651,140.14908659843,3.608924,,,1056.3843031613,3.937008,2.3711564,3.6424541848,6.5373033588,17,5,11.291,1056.3843031613,3.608924,2.684328,3.6424541848,-1.565858,1.789552,0,38.6, -0.9, 0.3,0,0,1024,1024,1024,1024,0,0,0,0,43.9,0,0,97,3.829,3.778,3.772,0,0,0,10.708,63.86,1056.3843031613,3.608924,6,P-GPS,
5500,2025-01-13 05:17:53,37.015240413394,140.149087904477,3.608924,,,1056.3843031613,3.937008,2.3711564,4.1431103688,7.0721130872,17,5,11.291,1056.3843031613,3.608924,2.684328,4.1431103688,-1.342164,1.789552,0,38.7, -0.4, -0.2,0,0,1024,1024,1024,1024,0,0,0,0,43.9,0,0,97,3.829,3.778,3.772,0,0,0,10.708,63.86,1056.3843031613,3.608924,6,P-GPS,"ビジョンセンサーが遮られています。慎重に飛行してください (Code: 180038)"
5600,2025-01-13 05:17:53,37.0152398644531,140.149088871642,3.608924,,,1056.3843031613,3.937008,2.23694,4.4839568364,7.4177823896,17,5,11.291,1056.3843031613,3.608924,2.684328,4.4839568364,-1.342164,1.789552,0,38.5, -0.1, -4.9,0,0,1024,1024,1024,1024,0,0,0,0,43.9,0,0,97,3.829,3.778,3.772,0,0,0,10.708,63.86,1056.3843031613,3.608924,6,P-GPS,
5700,2025-01-13 05:17:53,37.0152394893311,140.149089259504,3.608924,,,1056.3843031613,3.937008,1.7448132,4.6462927996,7.5952758336,17,5,11.291,1056.3843031613,3.608924,2.684328,4.6462927996,-1.11847,1.342164,0,37.9, -0.5, -8.3,0,0,1024,1024,1075,1024,0,0,8,0,43.9,0,0,97,3.829,3.778,3.772,0,0,0,10.708,63.86,1056.3843031613,3.608924,6,P-GPS,
5800,2025-01-13 05:17:53,37.0152391225399,140.149089924857,3.608924,,,1056.3843031613,3.937008,1.4316416,4.8798886076,7.8308073372,17,5,11.291,1056.3843031613,3.608924,2.684328,4.8798886076,-0.894776,1.11847,0,37.1, -0.7, -7,0,0,1024,1024,1052,1024,0,0,4,0,43.9,0,0,97,3.829,3.778,3.772,0,0,0,10.708,63.86,1056.3843031613,3.608924,6,P-GPS,
5900,2025-01-13 05:17:53,37.0152387707448,140.149090571802,3.608924,,,1056.3843031613,3.937008,1.11847,5.1063649928,8.0588585256,17,5,11.291,1056.3843031613,3.608924,2.684328,5.1063649928,-0.671082,0.894776,0,36.8, -0.3, -5,0,0,1024,1024,1024,1024,0,0,0,0,43.9,0,0,97,3.829,3.778,3.772,0,0,0,10.708,63.86,1056.3843031613,3.608924,6,P-GPS,
6000,2025-01-13 05:17:54,37.0152385824207,140.14909099324,3.608924,,,1056.3843031613,4.593176,0.8052984,5.2470146036,8.1995409448,17,5,11.291,1056.3843031613,3.608924,2.684328,5.2470146036,-0.447388,0.671082,0,37.1, 0, -3.9,0,0,1024,1024,1024,1024,0,0,0,0,43.9,0,0,97,3.829,3.778,3.772,0,0,0,10.708,63.86,1056.3843031613,3.608924,6,P-GPS,
6100,2025-01-13 05:17:54,37.0152378950377,140.149091450224,3.608924,,,1056.3843031613,4.92126,0.4921268,5.4840224852,8.4834648384,17,5,11.291,1056.3843031613,3.608924,2.684328,5.4840224852,-0.223694,0.447388,0,37.5, -0.1, -2.8,0,0,1024,1024,1024,1024,0,0,0,0,43.9,0,0,97,3.829,3.778,3.772,0,0,0,10.708,63.86,1056.3843031613,3.608924,6,P-GPS,
6200,2025-01-13 05:17:54,37.0152377602769,140.149091714886,3.608924,,,1056.3843031613,5.249344,0.3131716,5.5753282624,8.5749346576,19,5,11.291,1056.3843031613,3.608924,2.684328,5.5753282624,-0.223694,0.223694,0,37.8, 0, -2.1,0,0,1024,1024,1024,1024,0,0,0,0,43.9,0,0,97,3.829,3.778,3.772,0,0,0,10.708,63.86,1056.3843031613,3.608924,6,P-GPS,
6300,2025-01-13 05:17:54,37.0152373102194,140.149092309344,3.608924,,,1056.3843031613,5.249344,0.3131716,5.8071852252,8.8135829592,19,5,11.291,1056.3843031613,3.608924,2.684328,5.8071852252,-0.223694,0.223694,0,38.1, 0, -1.7,0,0,1024,1024,1024,1024,0,0,0,0,43.9,0,0,97,3.796,3.742,3.741,0,0,0,9.941,63.86,1056.3843031613,3.608924,6,P-GPS,
6400,2025-01-13 05:17:54,37.0152372076762,140.14909250256,3.608924,,,1056.3843031613,5.249344,0,5.874672104,8.8811682632,19,5,11.291,1056.3843031613,3.608924,2.684328,5.874672104,0,0,0,38.2, 0, -0.9,0,0,1024,1024,1032,1024,0,0,1,0,43.9,0,0,97,3.796,3.742,3.741,0,0,0,9.941,63.86,1056.3843031613,3.608924,6,P-GPS,
6500,2025-01-13 05:17:54,37.0152371285374,140.149092652677,3.608924,,,1056.3843031613,5.249344,0,5.9269686936,8.933563278,19,5,11.291,1056.3843031613,3.608924,2.684328,5.9269686936,0,0,0,38.3, 0, -0.4,0,0,1024,1024,1040,1264,0,0,2,36,43.9,0,0,97,3.796,3.742,3.741,0,0,0,9.941,63.86,1056.3843031613,3.608924,6,P-GPS,
6600,2025-01-13 05:17:54,37.0152367953818,140.149092651157,3.608924,,,1056.3843031613,5.249344,0,5.9885500604,9.0551184,18,5,11.291,1056.3843031613,3.608924,2.684328,5.9885500604,0,0,0,38.6, 0.1, -0.1,0,0,1024,1024,1024,1468,0,0,0,67,44.1,0,0,97,3.796,3.742,3.741,0,0,0,9.941,63.86,1056.3843031613,3.608924,6,P-GPS,
6700,2025-01-13 05:17:54,37.0152367126119,140.149092738984,3.608924,,,1056.3843031613,5.249344,0,6.02608287,9.0946853304,18,5,11.291,1056.3843031613,3.608924,2.684328,6.02608287,0,0,0,39.3, 0, 0,0,0,1024,1024,1027,1565,0,0,0,82,44.9,0,0,97,3.796,3.742,3.741,0,0,0,9.941,63.86,1056.3843031613,3.608924,6,P-GPS,
6800,2025-01-13 05:17:54,37.0152369683233,140.149092193367,3.608924,,,1056.3843031613,5.249344,0,5.8417980872,9.2790029216,17,5,11.291,1056.3843031613,3.608924,2.684328,6.02608287,0,0,0,40.5, -0.2, 0.1,0,0,1024,1024,1024,1684,0,0,0,100,46.5,0,0,97,3.796,3.742,3.741,0,0,0,9.941,63.86,1056.3843031613,3.608924,6,P-GPS,
6900,2025-01-13 05:17:55,37.0152368644936,140.149091884632,3.608924,,,1056.3843031613,4.92126,0,5.7851379804,9.3766079116,17,5,11.291,1056.3843031613,3.608924,2.684328,6.02608287,0,0,0,42.5, -0.7, 0.5,0,0,1024,1024,1024,1684,0,0,0,100,48.9,0,0,97,3.796,3.742,3.741,0,0,0,9.941,63.86,1056.3843031613,3.608924,6,P-GPS,
7000,2025-01-13 05:17:55,37.0152368216671,140.149091849903,3.608924,,,1056.3843031613,4.92126,0,5.7849083216,9.3952102744,17,5,11.291,1056.3843031613,3.608924,2.684328,6.02608287,0,0,0,44.9, -0.8, 0.4,0,0,1024,1024,1024,1684,0,0,0,100,51.7,0,0,97,3.796,3.742,3.741,0,0,0,9.941,63.86,1056.3843031613,3.608924,6,P-GPS,
7100,2025-01-13 05:17:55,37.0152369924989,140.14909160511,3.608924,,,1056.3843031613,4.92126,0,5.6913387648,9.4899281252,17,5,11.291,1056.3843031613,3.608924,2.684328,6.02608287,0,0,0,47.7, -0.4, 0.1,0,0,1024,1024,1024,1684,0,0,0,100,54.8,0,0,97,3.796,3.742,3.741,0,0,0,9.941,63.86,1056.3843031613,3.608924,6,P-GPS,
7200,2025-01-13 05:17:55,37.0152369873016,140.149091551169,3.608924,,,1056.3843031613,4.92126,0,5.6790684232,9.505741774,18,5,11.291,1056.3843031613,3.608924,2.684328,6.02608287,0,0,0,50.8, -0.2, 0.3,0,0,1024,1024,1024,1684,0,0,0,100,58,0,0,97,3.796,3.742,3.741,0,0,0,9.941,63.86,1056.3843031613,3.608924,6,P-GPS,
7300,2025-01-13 05:17:55,37.0152369911644,140.149091490701,3.608924,,,1056.3843031613,4.92126,0,5.6634188164,9.5234255016,18,5,11.278,1056.3843031613,3.608924,2.684328,6.02608287,0,0,0,54, -0.3, 0.7,0,0,1024,1024,1024,1684,0,0,0,100,61.2,0,0,97,3.791,3.737,3.735,0,0,0,10.562,64.04,1056.3843031613,3.608924,6,P-GPS,
7400,2025-01-13 05:17:55,37.0152371355487,140.14909121709,3.608924,,,1056.3843031613,4.92126,0,5.5678807556,9.6189635624,19,5,11.278,1056.3843031613,3.608924,2.684328,6.02608287,0,0,0,57.3, -0.4, 1,0,0,1024,1024,1024,1684,0,0,0,100,64.4,0,0,97,3.791,3.737,3.735,0,0,0,10.562,64.04,1056.3843031613,3.608924,6,P-GPS,
7500,2025-01-13 05:17:55,37.0152371537102,140.14909114774,3.608924,,,1056.3843031613,4.92126,0,5.5472770804,9.6402234056,19,5,11.278,1056.3843031613,3.608924,2.684328,6.02608287,0,0,0,60.4, -0.4, 0.7,0,0,1024,1024,1024,1684,0,0,0,100,67.6,0,0,97,3.791,3.737,3.735,0,0,0,10.562,64.04,1056.3843031613,3.608924,6,P-GPS,
7600,2025-01-13 05:17:55,37.015237231942,140.149090752605,3.608924,,,1056.3843031613,4.593176,0,5.434875502,9.7588257716,17,5,11.278,1056.3843031613,3.608924,2.684328,6.02608287,0,0,0,63.7, -0.2, 0.3,0,0,1024,1024,1024,1684,0,0,0,100,70.8,0,0,97,3.791,3.737,3.735,0,0,0,10.562,64.04,1056.3843031613,3.608924,6,P-GPS,
7700,2025-01-13 05:17:55,37.0152372713949,140.149090650733,3.608924,,,1056.3843031613,4.593176,0,5.4020999104,9.7917982136,17,5,11.278,1056.3843031613,3.608924,2.684328,6.02608287,0,0,0,66.8, 0.1, 0.8,0,0,1024,1024,1024,1684,0,0,0,100,74,0,0,97,3.791,3.737,3.735,0,0,0,10.562,64.04,1056.3843031613,3.608924,6,P-GPS,
7800,2025-01-13 05:17:55,37.0152373172712,140.149090482054,3.608924,,,1056.3843031613,4.593176,0,5.3517390164,9.8437339108,17,5,11.278,1056.3843031613,3.608924,2.684328,6.02608287,0,0,0,70, 0, 0.9,0,0,1024,1024,1024,1684,0,0,0,100,77.2,0,0,97,3.791,3.737,3.735,0,0,0,10.562,64.04,1056.3843031613,3.608924,6,P-GPS,
7900,2025-01-13 05:17:56,37.0152373531947,140.149090317179,3.608924,,,1056.3843031613,4.593176,0,5.3043308784,9.8935042536,17,5,11.278,1056.3843031613,3.608924,2.684328,6.02608287,0,0,0,73.3, 0, 1.1,0,0,1024,1024,1024,1684,0,0,0,100,80.4,0,0,97,3.791,3.737,3.735,0,0,0,10.562,64.04,1056.3843031613,3.608924,6,P-GPS,
8000,2025-01-13 05:17:56,37.0152373981389,140.149090185107,3.608924,,,1056.3843031613,4.593176,0,5.263123528,9.9353349636,18,5,11.278,1056.3843031613,3.608924,2.684328,6.02608287,0,0,0,76.5, 0.2, 1.3,0,0,1024,1024,1024,1684,0,0,0,100,83.6,0,0,97,3.791,3.737,3.735,0,0,0,10.562,64.04,1056.3843031613,3.608924,6,P-GPS,
8100,2025-01-13 05:17:56,37.0152372425563,140.149090054144,3.608924,,,1056.3843031613,4.593176,0,5.2626642104,10.0037404776,18,5,11.278,1056.3843031613,3.608924,2.684328,6.02608287,0,0,0,79.7, 0.1, 1.1,0,0,1024,1024,1024,1684,0,0,0,100,86.8,0,0,97,3.791,3.737,3.735,0,0,0,10.562,64.04,1056.3843031613,3.608924,6,P-GPS,
8200,2025-01-13 05:17:56,37.0152372553617,140.149089910252,3.608924,,,1056.3843031613,4.593176,0,5.2252954428,10.0458992716,18,5,11.278,1056.3843031613,3.608924,2.684328,6.02608287,0,0,0,83, -0.1, 0.9,0,0,1024,1024,1024,1684,0,0,0,100,90,0,0,97,3.791,3.737,3.735,0,0,0,10.562,64.04,1056.3843031613,3.608924,6,P-GPS,
8300,2025-01-13 05:17:56,37.0152373942305,140.149089972904,3.608924,,,1056.3843031613,4.593176,0,5.212270508,10.0997706644,18,5,11.264,1056.3843031613,3.608924,2.684328,6.02608287,0,0,0,86.1, -0.1, 0.8,0,0,1024,1024,1024,1684,0,0,0,100,93.2,0,0,97,3.791,3.738,3.735,0,0,0,10.537,64.22,1056.3843031613,3.608924,6,P-GPS,
8400,2025-01-13 05:17:56,37.0152374074913,140.149089849109,3.608924,,,1056.3843031613,4.593176,0,5.1795605332,10.13615518,18,5,11.264,1056.3843031613,3.608924,2.684328,6.02608287,0,0,0,89.5, 0, 0.6,0,0,1024,1024,1024,1684,0,0,0,100,96.4,0,0,97,3.791,3.738,3.735,0,0,0,10.537,64.22,1056.3843031613,3.608924,6,P-GPS,
8500,2025-01-13 05:17:56,37.0152374187168,140.149089725651,3.608924,,,1056.3843031613,4.593176,0,5.1473754928,10.1723428452,18,5,11.264,1056.3843031613,3.608924,2.684328,6.02608287,0,0,0,92.6, 0, 0.4,0,0,1024,1024,1024,1684,0,0,0,100,99.6,0,0,97,3.791,3.738,3.735,0,0,0,10.537,64.22,1056.3843031613,3.608924,6,P-GPS,
8600,2025-01-13 05:17:56,37.0152373937866,140.149089648741,3.608924,,,1056.3843031613,4.593176,0,5.1338912404,10.196522636,17,5,11.264,1056.3843031613,3.608924,2.684328,6.02608287,0,0,0,95.9, 0, 0.4,0,0,1024,1024,1024,1684,0,0,0,100,102.8,0,0,97,3.791,3.738,3.735,0,0,0,10.537,64.22,1056.3843031613,3.608924,6,P-GPS,
8700,2025-01-13 05:17:56,37.0152374207175,140.149089551517,3.608924,,,1056.3843031613,4.593176,0,5.1049542316,10.2265095136,17,5,11.264,1056.3843031613,3.608924,2.684328,6.02608287,0,0,0,99.1, -0.1, 0.7,0,0,1024,1024,1024,1684,0,0,0,100,106,0,0,97,3.791,3.738,3.735,0,0,0,10.537,64.22,1056.3843031613,3.608924,6,P-GPS,
8800,2025-01-13 05:17:56,37.0152374306386,140.149089416668,3.608924,,,1056.3843031613,4.593176,0,5.0704397948,10.2659452104,17,5,11.264,1056.3843031613,3.608924,2.684328,6.02608287,0,0,0,102.2, -0.1, 0.6,0,0,1024,1024,1024,1684,0,0,0,100,109.2,0,0,97,3.791,3.738,3.735,0,0,0,10.537,64.22,1056.3843031613,3.608924,6,P-GPS,
8900,2025-01-13 05:17:57,37.0152374801923,140.149089343421,3.608924,,,1056.3843031613,4.593176,0,5.0426182716,10.2939307756,17,5,11.264,1056.3843031613,3.608924,2.684328,6.02608287,0,0,0,105.5, -0.2, 0.5,0,0,1024,1024,1024,1684,0,0,0,100,112.4,0,0,97,3.791,3.738,3.735,0,0,0,10.537,64.22,1056.3843031613,3.608924,6,P-GPS,"ホームポイントを更新。RTH高度が 100mに調整されました。 (Code: 3000001)"
9000,2025-01-13 05:17:57,37.0152374936541,140.149089200638,3.608924,,,1056.3843031613,4.593176,0,5.005577588,10.3358271024,17,5,11.264,1056.3843031613,3.608924,2.684328,6.02608287,0,0,0,108.6, -0.4, 0.6,0,0,1024,1024,1024,1684,0,0,0,100,115.6,0,0,97,3.791,3.738,3.735,0,0,0,10.537,64.22,1056.3843031613,3.608924,6,P-GPS,
9100,2025-01-13 05:17:57,37.0152373836148,140.149089288465,3.608924,,,1056.3843031613,4.593176,0,5.0494752272,10.3834320908,17,5,11.264,1056.3843031613,3.608924,2.684328,6.02608287,0,0,0,111.8, -0.6, 0.5,0,0,1024,1024,1024,1024,0,0,0,0,118.8,0,0,97,3.791,3.738,3.735,0,0,0,10.537,64.22,1056.3843031613,3.608924,6,P-GPS,
9200,2025-01-13 05:17:57,37.0152373795039,140.149089160221,3.608924,,,1056.3843031613,4.593176,0,5.0196852,10.4208008584,17,5,11.264,1056.3843031613,3.608924,2.684328,6.02608287,0,0,0,114.6, -0.6, 0,0,0,1024,1024,1024,1024,0,0,0,0,121.8,0,0,97,3.791,3.738,3.735,0,0,0,10.537,64.22,1056.3843031613,3.608924,6,P-GPS,
9300,2025-01-13 05:17:57,37.0152375902149,140.149089101579,3.608924,,,1056.3843031613,4.265092,0,4.9618111824,10.4995738268,17,5,11.247,1056.3843031613,3.608924,2.684328,6.02608287,0,0,0,116.6, -0.8, -0.1,0,0,1024,1024,1024,1024,0,0,0,0,123.6,0,0,97,3.786,3.735,3.731,0,0,0,10.495,64.22,1056.3843031613,3.608924,6,P-GPS,
9400,2025-01-13 05:17:57,37.0152376214516,140.149088990111,3.608924,,,1056.3843031613,4.265092,0,4.9286090816,10.5339898384,17,5,11.247,1056.3843031613,3.608924,2.684328,6.02608287,0,0,0,118.1, -1, 0.2,0,0,1024,1024,1024,1024,0,0,0,0,124.4,0,0,97,3.786,3.735,3.731,0,0,0,10.495,64.22,1056.3843031613,3.608924,6,P-GPS,
9500,2025-01-13 05:17:57,37.0152375164785,140.149089122823,3.608924,,,1056.3843031613,4.265092,0,4.9821851988,10.5883861656,17,5,11.247,1056.3843031613,3.608924,2.684328,6.02608287,0,0,0,118.9, -0.9, 0.4,0,0,1024,1024,1024,1024,0,0,0,0,124.5,0,0,97,3.786,3.735,3.731,0,0,0,10.495,64.22,1056.3843031613,3.608924,6,P-GPS,
9600,2025-01-13 05:17:57,37.0152375382385,140.149089041113,3.608924,,,1056.3843031613,4.265092,0,4.9581038332,10.6134845916,17,5,11.247,1056.3843031613,3.608924,2.684328,6.02608287,0,0,0,118.9, -0.7, 0.2,0,0,1037,1024,1024,1024,2,0,0,0,124.5,0,0,97,3.786,3.735,3.731,0,0,0,10.495,64.22,1056.3843031613,3.608924,6,P-GPS,
9700,2025-01-13 05:17:57,37.0152377290596,140.149089134477,3.608924,,,1056.3843031613,4.265092,0,4.941273124,10.6882549352,17,5,11.247,1056.3843031613,3.608924,2.684328,6.02608287,0,0,0,118.9, -0.7, 0.5,0,0,1148,1024,1024,1024,19,0,0,0,124.5,0,0,97,3.786,3.735,3.731,0,0,0,10.495,64.22,1056.3843031613,3.608924,6,P-GPS,
9800,2025-01-13 05:17:57,37.015237772831,140.149089074228,3.608924,,,1056.3843031613,4.265092,0,4.917815118,10.7119754084,17,5,11.247,1056.3843031613,3.608924,2.684328,6.02608287,0,0,0,118.9, -0.8, 0.9,0,0,1306,1024,1024,1024,43,0,0,0,124.5,0,0,97,3.786,3.735,3.731,0,0,0,10.495,64.22,1056.3843031613,3.608924,6,P-GPS,
9900,2025-01-13 05:17:58,37.0152380262805,140.1490892366,3.608924,,,1056.3843031613,4.265092,0,4.9066274536,10.8158468028,17,5,11.247,1056.3843031613,3.608924,2.684328,6.02608287,0,0,0,119, -2.6, 0.8,0,0,1400,1024,1024,1024,57,0,0,0,124.5,0,0,97,3.786,3.735,3.731,0,0,0,10.495,64.22,1056.3843031613,3.608924,6,P-GPS,
10000,2025-01-13 05:17:58,37.0152380705289,140.149089208533,3.608924,,,1056.3843031613,4.265092,0,4.8910434636,10.8339242312,17,5,11.247,1056.3843031613,3.608924,2.684328,6.02608287,0,0,0,119, -7.8, 0.4,0,0,1473,1024,1024,1024,68,0,0,0,124.5,0,0,97,3.786,3.735,3.731,0,0,0,10.495,64.22,1056.3843031613,3.608924,6,P-GPS,
10100,2025-01-13 05:17:58,37.0152380536222,140.149089258654,3.608924,,,1056.3843031613,4.265092,0.223694,4.9066930704,10.8497706884,17,5,11.247,1056.3843031613,3.608924,2.684328,6.02608287,0,0.223694,0,118.9, -13.4, 0.6,0,0,1507,1024,1024,1024,73,0,0,0,124.5,0,0,97,3.786,3.735,3.731,0,0,0,10.495,64.22,1056.3843031613,3.608924,6,P-GPS,
10200,2025-01-13 05:17:58,37.0152379673277,140.149089518499,3.608924,,,1056.3843031613,3.937008,0.7158208,4.9874673512,10.93175888,17,5,11.247,1056.3843031613,3.608924,2.684328,6.02608287,-0.223694,0.671082,0,118.9, -16.5, 0.6,0,0,1529,1024,1024,1024,77,0,0,0,124.5,0,0,97,3.786,3.735,3.731,0,0,0,10.495,64.22,1056.3843031613,3.608924,6,P-GPS,
10300,2025-01-13 05:17:58,37.0152377656243,140.149090030717,3.608924,,,1056.3843031613,3.608924,1.2974252,5.1529201124,11.0981630848,17,5,11.233,1056.3843031613,3.608924,2.684328,6.02608287,-0.671082,1.11847,0,118.9, -17.2, 0.5,0,0,1534,1024,1024,1024,77,0,0,0,124.5,0,0,96,3.784,3.729,3.723,0,0,0,10.491,64.4,1056.3843031613,3.608924,6,P-GPS,
10400,2025-01-13 05:17:58,37.0152375747854,140.149090627355,3.608924,,,1056.3843031613,3.608924,1.9908766,5.3372377036,11.2854006236,17,5,11.233,1056.3843031613,3.608924,2.684328,6.02608287,-0.894776,1.789552,0,119, -17.3, 0.3,0,0,1534,1024,1024,1024,77,0,0,0,124.5,0,0,96,3.784,3.729,3.723,0,0,0,10.491,64.4,1056.3843031613,3.608924,6,P-GPS,
10500,2025-01-13 05:17:58,37.0152375824556,140.149091311491,3.608924,,,1056.3843031613,3.28084,2.6172198,5.5061681552,11.4847116536,17,5,11.233,1056.3843031613,3.608924,2.684328,6.02608287,-1.342164,2.23694,0,119.1, -17.8, 0.1,0,0,1530,1024,1024,1024,77,0,0,0,124.5,0,0,96,3.784,3.729,3.723,0,0,0,10.491,64.4,1056.3843031613,3.608924,6,P-GPS,
10600,2025-01-13 05:17:58,37.0152370541293,140.149092596261,3.608924,,,1056.3843031613,3.28084,3.3106712,5.9264765676,11.9057090424,17,5,11.233,1056.3843031613,3.608924,3.3106712,6.02608287,-1.565858,2.908022,0,119.1, -17.9, 0,0,0,1527,1024,1024,1024,76,0,0,0,124.5,0,0,96,3.784,3.729,3.723,0,0,0,10.491,64.4,1056.3843031613,3.608924,6,P-GPS,
10700,2025-01-13 05:17:58,37.0152365449887,140.149093523123,3.608924,,,1056.3843031613,3.608924,3.914645,6.253445082,12.2334649584,17,5,11.233,1056.3843031613,3.608924,3.914645,6.253445082,-2.013246,3.35541,0,119.1, -17.5, -0.2,0,0,1525,1024,1024,1024,76,0,0,0,124.5,0,0,96,3.784,3.729,3.723,0,0,0,10.491,64.4,1056.3843031613,3.608924,6,P-GPS,
10800,2025-01-13 05:17:58,37.0152357860128,140.149095282113,3.608924,,,1056.3843031613,3.937008,4.4067718,6.835466098,12.815945292,17,5,11.233,1056.3843031613,3.608924,4.4067718,6.835466098,-2.23694,3.802798,0,119.2, -17.6, -0.2,0,0,1514,1024,1024,1024,74,0,0,0,124.5,0,0,96,3.784,3.729,3.723,0,0,0,10.491,64.4,1056.3843031613,3.608924,6,P-GPS,
10900,2025-01-13 05:17:59,37.0152350480099,140.149097019178,3.608924,,,1056.3843031613,4.593176,5.1002232,7.4082351452,13.3891408484,17,5,11.233,1056.3843031613,3.608924,5.1002232,7.4082351452,-2.460634,4.47388,0,118.8, -17.5, -0.4,0,0,1507,1024,1024,1024,73,0,0,0,124.5,0,0,96,3.784,3.729,3.723,0,0,0,10.491,64.4,1056.3843031613,3.608924,6,P-GPS,
11000,2025-01-13 05:17:59,37.0152340989061,140.149099259488,3.608924,,,1056.3843031613,4.92126,5.6147194,8.146489762,14.1279860164,17,5,11.233,1056.3843031613,3.608924,5.6147194,8.146489762,-2.684328,4.921268,0,118.1, -17.3, -0.9,0,0,1419,1024,1024,1024,60,0,0,0,124.5,0,0,96,3.784,3.729,3.723,0,0,0,10.491,64.4,1056.3843031613,3.608924,6,P-GPS,
11100,2025-01-13 05:17:59,37.0152337245379,140.149101250653,3.608924,,,1056.3843031613,5.249344,6.1068462,8.718668258,14.723917794,17,5,11.233,1056.3843031613,3.608924,6.1068462,8.718668258,-2.908022,5.368656,0,118.1, -17.2, -0.8,0,0,1024,1024,1024,1024,0,0,0,0,124.5,0,0,96,3.784,3.729,3.723,0,0,0,10.491,64.4,1056.3843031613,3.608924,6,P-GPS,
11200,2025-01-13 05:17:59,37.0152326629501,140.149103942428,3.608924,,,1056.3843031613,4.92126,6.8002976,9.5924215668,15.5985241212,20,5,11.233,1056.3843031613,3.608924,6.8002976,9.5924215668,-3.131716,6.039738,0,118, -14, -0.3,0,0,1024,1024,1024,1024,0,0,0,0,124.5,0,0,96,3.784,3.729,3.723,0,0,0,10.491,64.4,1056.3843031613,3.608924,6,P-GPS,
11300,2025-01-13 05:17:59,37.0152314750315,140.149106888982,3.608924,,,1056.3843031613,4.92126,7.1134692,10.5535436448,16.5601383252,20,5,11.163,1056.3843031613,3.608924,7.1134692,10.5535436448,-3.35541,6.263432,0,117.8, 1.7, -0.1,0,0,1024,1024,1024,1024,0,0,0,0,124.5,0,0,96,3.75,3.693,3.691,0,0,0,11.19,64.58,1056.3843031613,3.608924,6,P-GPS,
11400,2025-01-13 05:17:59,37.0152303619325,140.149109791719,3.608924,,,1056.3843031613,5.249344,6.8002976,11.4905843572,17.4982289064,20,5,11.163,1056.3843031613,3.608924,7.1134692,11.4905843572,-3.131716,6.039738,-0.223694,117.4, 22, 0,0,0,1024,1024,1024,1024,0,0,0,0,124.5,0,0,96,3.75,3.693,3.691,0,0,0,11.19,64.58,1056.3843031613,3.608924,6,P-GPS,
11500,2025-01-13 05:17:59,37.0152294307758,140.149112301814,3.608924,,,1056.3843031613,5.249344,5.5028724,12.295604068,18.3045609532,20,5,11.163,1056.3843031613,3.608924,7.1134692,12.295604068,-2.460634,4.921268,0,117.7, 28.9, 0.6,0,0,1024,1024,1024,1024,0,0,0,0,124.5,0,0,96,3.75,3.693,3.691,0,0,0,11.19,64.58,1056.3843031613,3.608924,6,P-GPS,
11600,2025-01-13 05:17:59,37.0152291247248,140.149113861188,3.608924,,,1056.3843031613,5.249344,4.2054472,12.749508282,18.7723759288,20,5,11.163,1056.3843031613,3.608924,7.1134692,12.749508282,-1.789552,3.802798,0,117.6, 22.3, 0.9,0,0,1024,1024,1024,1024,0,0,0,0,124.5,0,0,96,3.75,3.693,3.691,0,0,0,11.19,64.58,1056.3843031613,3.608924,6,P-GPS,
11700,2025-01-13 05:17:59,37.0152287131835,140.149115241863,3.608924,,,1056.3843031613,5.249344,3.1988242,13.175689398,19.2017066512,20,5,11.163,1056.3843031613,3.608924,7.1134692,13.175689398,-1.342164,2.908022,0,117.7, 16.4, 0.8,0,0,1024,1024,1024,1024,0,0,0,0,124.5,0,0,96,3.75,3.693,3.691,0,0,0,11.19,64.58,1056.3843031613,3.608924,6,P-GPS,
11800,2025-01-13 05:17:59,37.0152282588672,140.149116659854,3.608924,,,1056.3843031613,5.577428,2.5053728,13.6188652652,19.646818214,20,5,11.163,1056.3843031613,3.608924,7.1134692,13.6188652652,-1.11847,2.23694,0,117.7, 13.8, 1.2,0,0,1024,1024,1024,1024,0,0,0,0,124.5,0,0,96,3.75,3.693,3.691,0,0,0,11.19,64.58,1056.3843031613,3.608924,6,P-GPS,
11900,2025-01-13 05:17:59,37.0152280934864,140.14911746284,3.608924,,,1056.3843031613,5.577428,2.5053728,13.854659236,19.8883864632,20,5,11.163,1056.3843031613,3.608924,7.1134692,13.854659236,-0.671082,1.789552,0,117.8, 11.8, 1.4,0,0,1024,1024,1024,1024,0,0,0,0,124.5,0,0,96,3.75,3.693,3.691,0,0,0,11.19,64.58,1056.3843031613,3.608924,6,P-GPS,
12000,2025-01-13 05:18:00,37.0152274355442,140.14912007342,3.608924,,,1056.3843031613,5.577428,1.4987498,14.6420280276,20.6858930504,20,5,11.163,1056.3843031613,3.608924,7.1134692,14.6420280276,-0.671082,1.342164,0,117.8, 10, 1.7,0,0,1024,1024,1024,1024,0,0,0,0,124.5,0,0,96,3.75,3.693,3.691,0,0,0,11.19,64.58,1056.3843031613,3.608924,6,P-GPS,
12100,2025-01-13 05:18:00,37.0152273943347,140.149120596538,3.608924,,,1056.3843031613,5.577428,1.2079476,14.7853023104,20.8390426616,20,5,11.163,1056.3843031613,3.608924,7.1134692,14.7853023104,-0.447388,1.11847,0,117.8, 8.2, 1.5,0,0,1024,853,1024,1024,0,-26,0,0,124.5,0,0,96,3.75,3.693,3.691,0,0,0,11.19,64.58,1056.3843031613,3.608924,6,P-GPS,
12200,2025-01-13 05:18:00,37.015227435436,140.14912105386,3.608924,,,1056.3843031613,5.577428,0.8052984,14.8983928652,20.973097784,19,5,11.163,1056.3843031613,3.608924,7.1134692,14.8983928652,-0.447388,0.671082,0,117.7, 6.1, 0.8,0,0,1024,662,1024,1024,0,-55,0,0,124.5,0,0,96,3.75,3.693,3.691,0,0,0,11.19,64.58,1056.3843031613,3.608924,6,P-GPS,
12300,2025-01-13 05:18:00,37.0152274707565,140.149121294345,3.608924,,,1056.3843031613,5.577428,0.4921268,14.9558403736,21.0443248204,19,5,11.075,1056.3843031613,3.608924,7.1134692,14.9558403736,-0.223694,0.447388,0,117.5, 3.9, -1.5,0,0,1024,615,1024,1024,0,-62,0,0,124.5,0,0,96,3.755,3.701,3.701,0,0,0,12.003,64.76,1056.3843031613,3.608924,6,P-GPS,
12400,2025-01-13 05:18:00,37.015227412112,140.149121584963,3.608924,,,1056.3843031613,5.249344,0.4921268,15.0414046808,21.1316607812,18,5,11.075,1056.3843031613,3.608924,7.1134692,15.0414046808,-0.223694,0.447388,0,116.9, 2.7, -7.6,0,0,1024,609,1024,1024,0,-63,0,0,124.5,0,0,96,3.755,3.701,3.701,0,0,0,12.003,64.76,1056.3843031613,3.608924,6,P-GPS,
12500,2025-01-13 05:18:00,37.015227582925,140.149121747649,3.608924,,,1056.3843031613,5.249344,0.4921268,15.0572839464,21.209974432,18,5,11.075,1056.3843031613,3.608924,7.1134692,15.0572839464,0,0.447388,0,115.7, 2.2, -12.1,0,0,1024,656,1024,1024,0,-56,0,0,124.5,0,0,96,3.755,3.701,3.701,0,0,0,12.003,64.76,1056.3843031613,3.608924,6,P-GPS,
12600,2025-01-13 05:18:00,37.0152274582366,140.149122706249,3.608924,,,1056.3843031613,5.249344,0.8052984,15.3292655824,21.4929140736,19,5,11.075,1056.3843031613,3.608924,7.1134692,15.3292655824,0.447388,0.671082,0,114.9, 1.9, -12.8,0,0,1024,656,1024,1024,0,-56,0,0,124.5,0,0,96,3.755,3.701,3.701,0,0,0,12.003,64.76,1056.3843031613,3.608924,6,P-GPS,
12700,2025-01-13 05:18:00,37.0152279542496,140.149123051805,3.608924,,,1056.3843031613,5.249344,1.11847,15.3450464228,21.7000006944,19,5,11.075,1056.3843031613,3.608924,7.1134692,15.3450464228,0.894776,0.671082,0,114.7, 1.3, -12.8,0,0,1024,723,1024,1024,0,-46,0,0,124.5,0,0,96,3.755,3.701,3.701,0,0,0,12.003,64.76,1056.3843031613,3.608924,6,P-GPS,
12800,2025-01-13 05:18:00,37.0152282844943,140.149123895135,3.608924,,,1056.3843031613,5.249344,1.6105968,15.520669788,21.9736227504,19,5,11.075,1056.3843031613,3.608924,7.1134692,15.520669788,1.342164,0.894776,0,114.5, 0.8, -12,0,0,1024,732,1024,1024,0,-44,0,0,124.5,0,0,96,3.755,3.701,3.701,0,0,0,12.003,64.76,1056.3843031613,3.608924,6,P-GPS,
12900,2025-01-13 05:18:00,37.0152283914881,140.14912450202,3.608924,,,1056.3843031613,5.249344,1.8119214,15.6675201864,22.15469231,19,5,11.075,1056.3843031613,3.608924,7.1134692,15.6675201864,1.565858,0.894776,0,114.5, 0.6, -10.1,0,0,1024,858,1024,1024,0,-25,0,0,124.5,0,0,96,3.755,3.701,3.701,0,0,0,12.003,64.76,1056.3843031613,3.608924,6,P-GPS,
13000,2025-01-13 05:18:01,37.0152292492129,140.149125095084,3.608924,,,1056.3843031613,5.249344,2.3040482,15.7072839672,22.512139828,19,5,11.075,1056.3843031613,3.608924,7.1134692,15.7072839672,2.013246,1.11847,0,114.4, 0.3, -8.9,0,0,1024,1024,1024,1024,0,0,0,0,124.5,0,0,96,3.755,3.701,3.701,0,0,0,12.003,64.76,1056.3843031613,3.608924,6,P-GPS,
13100,2025-01-13 05:18:01,37.0152300586073,140.14912529991,3.608924,,,1056.3843031613,5.249344,2.5053728,15.6554466952,22.8134193652,19,5,11.075,1056.3843031613,3.608924,7.1134692,15.7072839672,2.23694,1.11847,0,114.5, 0, 0.9,0,0,1024,1024,1024,1024,0,0,0,0,124.5,0,0,96,3.755,3.701,3.701,0,0,0,12.003,64.76,1056.3843031613,3.608924,6,P-GPS,
13200,2025-01-13 05:18:01,37.0152310238244,140.14912591369,3.608924,,,1056.3843031613,5.249344,2.5053728,15.702592366,23.2083668844,19,5,11.075,1056.3843031613,3.608924,7.1134692,15.7072839672,2.013246,1.11847,0,116, 0, 9.1,0,0,1024,1024,1076,1024,0,0,8,0,124.5,0,0,96,3.755,3.701,3.701,0,0,0,12.003,64.76,1056.3843031613,3.608924,6,P-GPS,
13300,2025-01-13 05:18:01,37.0152313544596,140.149126140048,3.608924,,,1056.3843031613,5.249344,1.8119214,15.7254270124,23.3458668888,19,5,11.17,1056.3843031613,3.608924,7.1134692,15.7254270124,1.565858,0.894776,0,117.6, 0, 8.7,0,0,1024,1024,1230,1024,0,0,31,0,124.5,0,0,96,3.761,3.703,3.702,0,0,0,10.871,64.76,1056.3843031613,3.608924,6,P-GPS,
13400,2025-01-13 05:18:01,37.0152319491046,140.149126523919,3.608924,,,1056.3843031613,5.249344,1.2974252,15.762959822,23.5899285764,20,5,11.17,1056.3843031613,3.608924,7.1134692,15.762959822,1.11847,0.671082,0,118.3, 0, 7.1,0,0,1024,1024,1311,1024,0,0,43,0,124.5,0,0,96,3.761,3.703,3.702,0,0,0,10.871,64.76,1056.3843031613,3.608924,6,P-GPS,
13500,2025-01-13 05:18:01,37.015232417559,140.149126812128,3.608924,,,1056.3843031613,5.249344,1.006623,15.7912078544,23.7803813384,20,5,11.17,1056.3843031613,3.608924,7.1134692,15.7912078544,0.894776,0.447388,-0.223694,118.5, 0, 5.6,0,0,1024,1024,1372,1024,0,0,53,0,124.5,0,0,96,3.761,3.703,3.702,0,0,0,10.871,64.76,1056.3843031613,3.608924,6,P-GPS,
13600,2025-01-13 05:18:01,37.0152327393991,140.149126751769,3.608924,,,1056.3843031613,5.577428,0.7158208,15.7398627084,23.8990821296,20,5,11.17,1056.3843031613,3.608924,7.1134692,15.7912078544,0.671082,0.223694,-0.894776,118.4, 0, 3.6,0,0,1024,1024,1372,1024,0,0,53,0,124.5,0,0,96,3.761,3.703,3.702,0,0,0,10.871,64.76,1056.3843031613,3.608924,6,P-GPS,
13700,2025-01-13 05:18:01,37.0152329818732,140.149126861029,3.937008,,,1056.7123871613,5.577428,0.7158208,15.7448823936,23.993111004,20,5,11.17,1056.7123871613,3.937008,7.1134692,15.7912078544,0.447388,0,-2.013246,118.1, 0, 2.1,0,0,1024,1024,1408,1024,0,0,58,0,124.5,0,0,96,3.761,3.703,3.702,0,0,0,10.871,64.76,1056.7123871613,3.937008,6,P-GPS,
13800,2025-01-13 05:18:02,37.0152333336613,140.1491267361,4.265092,,,1057.0404711613,5.905512,0.223694,15.6738193992,24.1265427668,21,5,11.17,1057.0404711613,4.265092,7.1134692,15.7912078544,0.223694,0,-2.908022,117.9, 0, 1.8,0,0,1024,1024,1414,1024,0,0,59,0,124.5,0,0,96,3.761,3.703,3.702,0,0,0,10.871,64.76,1057.0404711613,4.265092,6,P-GPS,
13900,2025-01-13 05:18:02,37.0152338859423,140.14912704906,4.593176,,,1057.3685551613,6.56168,0.223694,15.706857458,24.3477041912,21,5,11.17,1057.3685551613,4.593176,7.1134692,15.7912078544,0.223694,0,-3.802798,117.8, 0.2, 1.7,0,0,1024,1024,1423,1024,0,0,60,0,124.5,0,0,96,3.761,3.703,3.702,0,0,0,10.871,64.76,1057.3685551613,4.593176,6,P-GPS,
14000,2025-01-13 05:18:02,37.0152340357503,140.14912706577,5.249344,,,1058.0247231613,7.217848,0.223694,15.6971461716,24.402559836,21,5,11.17,1058.0247231613,5.249344,7.1134692,15.7912078544,0.223694,0,-4.47388,117.8, 0, 2.1,0,0,1024,1024,1420,1024,0,0,60,0,124.5,0,0,96,3.761,3.703,3.702,0,0,0,10.871,64.76,1058.0247231613,5.249344,6,P-GPS,
14100,2025-01-13 05:18:02,37.0152341387508,140.149127034099,5.905512,,,1058.6808911613,7.874016,0,15.678478192,24.441273748,21,5,11.17,1058.6808911613,5.905512,7.1134692,15.7912078544,0,0,-4.921268,117.9, -0.3, 1.1,0,0,1024,1024,1420,1024,0,0,60,0,124.5,0,0,96,3.761,3.703,3.702,0,0,0,10.871,64.76,1058.6808911613,5.905512,6,P-GPS,
14200,2025-01-13 05:18:02,37.015234182592,140.149127196788,6.889764,,,1059.6651431613,8.858268,0,15.7201120516,24.4912737496,20,5,11.17,1059.6651431613,6.889764,7.1134692,15.7912078544,0,0,-5.368656,117.6, -0.7, 0.1,0,0,1024,1024,1420,1024,0,0,60,0,124.5,0,0,96,3.761,3.703,3.702,0,0,0,10.871,64.76,1059.6651431613,6.889764,6,P-GPS,
14300,2025-01-13 05:18:02,37.0152342275544,140.14912714852,7.545932,,,1060.3213111613,9.514436,0,15.7022970904,24.5128944852,20,5,10.844,1060.3213111613,7.545932,7.1134692,15.7912078544,0,0,-5.368656,117.5, -0.9, 0,0,0,1024,1024,1420,1024,0,0,60,0,124.5,0,0,96,3.624,3.558,3.559,0,0,0,14.167,64.94,1060.3213111613,7.545932,6,P-GPS,
14400,2025-01-13 05:18:02,37.0152342972099,140.149127222354,8.530184,,,1061.3055631613,10.498688,0,15.7166015528,24.5461950112,20,5,10.844,1061.3055631613,8.530184,7.1134692,15.7912078544,0,0,-5.59235,117.4, -0.9, -0.2,0,0,1024,1024,1420,1024,0,0,60,0,124.5,0,0,96,3.624,3.558,3.559,0,0,0,14.167,64.94,1061.3055631613,8.530184,6,P-GPS,
14500,2025-01-13 05:18:02,37.0152343269828,140.149127179595,9.186352,,,1061.9617311613,11.154856,0,15.701772156,24.5626976364,20,5,10.844,1061.9617311613,9.186352,7.1134692,15.7912078544,0,0,-5.368656,117.4, -1.1, -0.4,0,0,1024,1024,1418,1024,0,0,60,0,124.5,0,0,96,3.624,3.558,3.559,0,0,0,14.167,64.94,1061.9617311613,9.186352,6,P-GPS,
14600,2025-01-13 05:18:02,37.0152343314968,140.149127626513,10.170604,,,1062.9459831613,12.139108,0,15.8272970944,24.692914176,21,5,10.844,1062.9459831613,10.170604,7.1134692,15.8272970944,0,0,-5.368656,117.4, -1.5, -0.4,0,0,1024,1024,1407,1024,0,0,58,0,124.5,0,0,96,3.624,3.558,3.559,0,0,0,14.167,64.94,1062.9459831613,10.170604,6,P-GPS,
14700,2025-01-13 05:18:02,37.0152343396829,140.14912763302,10.826772,,,1063.6021511613,12.795276,0,15.8283797716,24.6964574832,21,5,10.844,1063.6021511613,10.826772,7.1134692,15.8283797716,0,0,-5.144962,117.5, -2.1, -0.2,0,0,1024,1024,1403,1024,0,0,57,0,124.5,0,0,96,3.624,3.558,3.559,0,0,0,14.167,64.94,1063.6021511613,10.826772,6,P-GPS,
14800,2025-01-13 05:18:02,37.0152346510966,140.149127341077,11.811024,,,1064.5864031613,13.451444,0,15.71768423,24.8383866216,22,5,10.844,1064.5864031613,11.811024,7.1134692,15.8283797716,0,0,-5.144962,117.6, -1.8, -1.3,0,0,1024,1024,1403,1024,0,0,57,0,124.5,0,0,96,3.624,3.558,3.559,0,0,0,14.167,64.94,1064.5864031613,11.811024,6,P-GPS,
14900,2025-01-13 05:18:03,37.0152346179825,140.149127410245,12.467192,,,1065.2425711613,14.435696,0,15.7401907924,24.861877436,22,5,10.844,1065.2425711613,12.467192,7.1134692,15.8283797716,0,0,-4.921268,117.3, 0.2, -1,0,0,1024,1024,1381,1024,0,0,54,0,124.5,0,0,96,3.624,3.558,3.559,0,0,0,14.167,64.94,1065.2425711613,12.467192,6,P-GPS,
15000,2025-01-13 05:18:03,37.0152348944979,140.14912773999,13.12336,,,1065.8987391613,15.091864,0,15.8087931568,25.0011819024,22,5,10.844,1065.8987391613,13.12336,7.1134692,15.8283797716,0,0,-4.47388,117.2, 0.8, -0.4,0,0,1024,1024,1024,1024,0,0,0,0,124.5,0,0,96,3.624,3.558,3.559,0,0,0,14.167,64.94,1065.8987391613,13.12336,6,P-GPS,
15100,2025-01-13 05:18:03,37.015234841027,140.149127822236,13.779528,,,1066.5549071613,15.748032,0.223694,15.8367131052,25.0320874152,22,5,10.844,1066.5549071613,13.779528,7.1134692,15.8367131052,-0.223694,0,-4.250186,117.2, 0.6, -1.9,0,0,1024,1024,1024,1024,0,0,0,0,124.5,0,0,96,3.624,3.558,3.559,0,0,0,14.167,64.94,1066.5549071613,13.779528,6,P-GPS,
15200,2025-01-13 05:18:03,37.0152344250541,140.149127224698,14.435696,,,1067.2110751613,16.4042,0.223694,15.7054138884,25.2630257428,22,5,10.844,1067.2110751613,14.435696,7.1134692,15.8367131052,-0.223694,0,-3.579104,117.2, 0.3, -2.7,0,0,1024,1024,1024,1024,0,0,0,0,124.5,0,0,96,3.624,3.558,3.559,0,0,0,14.167,64.94,1067.2110751613,14.435696,6,P-GPS,
15300,2025-01-13 05:18:03,37.0152343211598,140.149127264561,14.76378,,,1067.5391591613,16.732284,0.223694,15.7262472224,25.30265829,22,5,11.078,1067.5391591613,14.76378,7.1134692,15.8367131052,-0.223694,0,-2.684328,117.1, 0.3, -2.9,0,0,1024,1024,1171,1024,0,0,22,0,124.5,0,0,96,3.749,3.69,3.682,0,0,0,13.621,64.94,1067.5391591613,14.76378,6,P-GPS,
15400,2025-01-13 05:18:03,37.0152346194762,140.149126890217,15.091864,,,1067.8672431613,17.060368,0.223694,15.5933075856,25.4567593448,22,5,11.078,1067.8672431613,15.091864,7.1134692,15.8367131052,-0.223694,0,-2.013246,116.9, 0.9, -2.4,0,0,1024,1024,1301,1024,0,0,42,0,124.5,0,0,96,3.749,3.69,3.682,0,0,0,13.621,64.94,1067.8672431613,15.091864,6,P-GPS,
15500,2025-01-13 05:18:03,37.0152345331738,140.149126920268,15.419948,,,1068.1953271613,17.388452,0.223694,15.6096461688,25.4894365112,22,5,11.078,1068.1953271613,15.419948,7.1134692,15.8367131052,-0.223694,0,-1.342164,116.7, 1, -3.3,0,0,1024,1024,1302,1024,0,0,42,0,124.5,0,0,96,3.749,3.69,3.682,0,0,0,13.621,64.94,1068.1953271613,15.419948,6,P-GPS,
15600,2025-01-13 05:18:03,37.0152341132606,140.149126633706,15.748032,,,1068.5234111613,17.716536,0.223694,15.5682747764,25.6639115824,22,5,11.078,1068.5234111613,15.748032,7.1134692,15.8367131052,-0.223694,0,-1.342164,116.4, 1.2, -2.8,0,0,1024,1024,1296,1024,0,0,41,0,124.5,0,0,96,3.749,3.69,3.682,0,0,0,13.621,64.94,1068.5234111613,15.748032,6,P-GPS,
15700,2025-01-13 05:18:03,37.0152340292351,140.149126651156,16.076116,,,1068.8514951613,18.04462,0.223694,15.5812340944,25.6949811372,22,5,11.078,1068.8514951613,16.076116,7.1134692,15.8367131052,-0.223694,0,-1.789552,116.5, 1.4, -2.1,0,0,1024,1024,1024,1024,0,0,0,0,124.5,0,0,96,3.749,3.69,3.682,0,0,0,13.621,64.94,1068.8514951613,16.076116,6,P-GPS,
15800,2025-01-13 05:18:03,37.0152342672882,140.149126036603,16.076116,,,1068.8514951613,18.372704,0.223694,15.3856960304,25.8939640832,22,5,11.078,1068.8514951613,16.076116,7.1134692,15.8367131052,-0.223694,0,-2.013246,116.8, 1.5, -2.5,0,0,1024,1024,1024,1024,0,0,0,0,124.5,0,0,96,3.749,3.69,3.682,0,0,0,13.621,64.94,1068.8514951613,16.076116,6,P-GPS,
15900,2025-01-13 05:18:04,37.0152342219634,140.149125913196,16.4042,,,1069.1795791613,18.700788,0,15.355315452,25.9335310136,22,5,11.078,1069.1795791613,16.4042,7.1134692,15.8367131052,0,0,-2.013246,116.7, 1.1, -3.8,0,0,1024,1024,1024,1024,0,0,0,0,124.5,0,0,96,3.749,3.69,3.682,0,0,0,13.621,64.94,1069.1795791613,16.4042,6,P-GPS,
16000,2025-01-13 05:18:04,37.0152344778728,140.149125554516,16.732284,,,1069.5076631613,19.028872,0,15.2300857892,26.07365569,22,5,11.078,1069.5076631613,16.732284,7.1134692,15.8367131052,0,0,-1.342164,116.5, 0.5, -4.5,0,0,1024,1024,1024,1024,0,0,0,0,124.5,0,0,96,3.749,3.69,3.682,0,0,0,13.621,64.94,1069.5076631613,16.732284,6,P-GPS,
16100,2025-01-13 05:18:04,37.0152344964561,140.149125369624,17.060368,,,1069.8357471613,19.028872,0,15.1763128216,26.127953592,22,5,11.078,1069.8357471613,17.060368,7.1134692,15.8367131052,0,0,-0.894776,116.4, -0.1, -4.5,0,0,1024,1024,1024,1024,0,0,0,0,124.5,0,0,96,3.749,3.69,3.682,0,0,0,13.621,64.94,1069.8357471613,17.060368,6,P-GPS,
16200,2025-01-13 05:18:04,37.0152345090734,140.14912551746,17.060368,,,1069.8357471613,19.356956,0,15.2167327704,26.17126068,22,5,11.078,1069.8357471613,17.060368,7.1134692,15.8367131052,0,0,-0.447388,116.3, -0.8, -4.8,0,0,1024,1024,1024,1024,0,0,0,0,124.5,0,0,96,3.749,3.69,3.682,0,0,0,13.621,64.94,1069.8357471613,17.060368,6,P-GPS,
16300,2025-01-13 05:18:04,37.0152345694515,140.149125368927,17.060368,,,1069.8357471613,19.356956,0,15.1692262072,26.219817112,22,5,11.042,1069.8357471613,17.060368,7.1134692,15.8367131052,0,0,0,116.1, -0.9, -4.7,0,0,1024,1024,1024,1024,0,0,0,0,124.5,0,0,96,3.771,3.744,3.758,0,0,0,10.322,65.12,1069.8357471613,17.060368,6,P-GPS,
16400,2025-01-13 05:18:04,37.0152342279813,140.149125605472,17.060368,,,1069.8357471613,19.356956,0,15.2682747668,26.362205568,22,5,11.042,1069.8357471613,17.060368,7.1134692,15.8367131052,0,0,0,116.1, -0.9, -4,0,0,1024,1024,1024,1024,0,0,0,0,124.5,0,0,96,3.771,3.744,3.758,0,0,0,10.322,65.12,1069.8357471613,17.060368,6,P-GPS,
16500,2025-01-13 05:18:04,37.0152342831596,140.149125506624,17.060368,,,1069.8357471613,19.356956,0,15.2351710912,26.3973433644,22,5,11.042,1069.8357471613,17.060368,7.1134692,15.8367131052,0,0,0,116.3, -1.2, -4.1,0,0,1024,1024,1024,1024,0,0,0,0,124.5,0,0,96,3.771,3.744,3.758,0,0,0,10.322,65.12,1069.8357471613,17.060368,6,P-GPS,
16600,2025-01-13 05:18:04,37.01523422187,140.149125332111,17.060368,,,1069.8357471613,19.356956,0,15.1920608536,26.4528879856,22,5,11.042,1069.8357471613,17.060368,7.1134692,15.8367131052,0,0,0.223694,116.4, -1.3, -4.1,0,0,1024,1024,1023,1024,0,0,-0,0,124.5,0,0,96,3.771,3.744,3.758,0,0,0,10.322,65.12,1069.8357471613,17.060368,6,P-GPS,
16700,2025-01-13 05:18:04,37.0152342766165,140.149125233901,17.060368,,,1069.8357471613,19.356956,0,15.1591868368,26.4877633148,22,5,11.042,1069.8357471613,17.060368,7.1134692,15.8367131052,0,0,0,116.5, -1.3, -4.3,0,0,1024,1024,1016,1024,0,0,-1,0,124.5,0,0,96,3.771,3.744,3.758,0,0,0,10.322,65.12,1069.8357471613,17.060368,6,P-GPS,
16800,2025-01-13 05:18:04,37.0152341200636,140.149124886889,17.060368,,,1069.8357471613,19.356956,0,15.0770674116,26.6038722424,22,5,11.042,1069.8357471613,17.060368,7.1134692,15.8367131052,0,0,0,116.6, -1.5, -3.8,0,0,1024,1024,1019,1024,0,0,-1,0,124.5,0,0,96,3.771,3.744,3.758,0,0,0,10.322,65.12,1069.8357471613,17.060368,6,P-GPS,
16900,2025-01-13 05:18:05,37.0152341813849,140.149124785567,17.060368,,,1069.8357471613,19.028872,0,15.0425857832,26.640912926,22,5,11.042,1069.8357471613,17.060368,7.1134692,15.8367131052,0,0,0,116.9, -2, -2.9,0,0,1024,1024,1019,1024,0,0,-1,0,124.5,0,0,96,3.771,3.744,3.758,0,0,0,10.322,65.12,1069.8357471613,17.060368,6,P-GPS,
17000,2025-01-13 05:18:05,37.0152343085863,140.149124629428,17.060368,,,1069.8357471613,19.028872,0,14.9863193772,26.7059063664,22,5,11.042,1069.8357471613,17.060368,7.1134692,15.8367131052,0,0,0,117.1, -1.5, -2.9,0,0,1024,1024,1017,1024,0,0,-1,0,124.5,0,0,96,3.771,3.744,3.758,0,0,0,10.322,65.12,1069.8357471613,17.060368,6,P-GPS,
17100,2025-01-13 05:18:05,37.0152343610912,140.149124560496,17.060368,,,1069.8357471613,19.028872,0,14.9618771192,26.7336622728,22,5,11.042,1069.8357471613,17.060368,7.1134692,15.8367131052,0,0,0,117.2, -1.1, -2.9,0,0,1024,1024,1024,1024,0,0,0,0,124.5,0,0,96,3.771,3.744,3.758,0,0,0,10.322,65.12,1069.8357471613,17.060368,6,P-GPS,
17200,2025-01-13 05:18:05,37.0152342762685,140.149124743795,17.060368,,,1069.8357471613,19.028872,0,15.0215884072,26.7953748732,22,5,11.042,1069.8357471613,17.060368,7.1134692,15.8367131052,0,0,0,117.2, -0.9, -2.2,0,0,1024,1024,1024,1024,0,0,0,0,124.5,0,0,96,3.771,3.744,3.758,0,0,0,10.322,65.12,1069.8357471613,17.060368,6,P-GPS,
17300,2025-01-13 05:18:05,37.0152343107211,140.149124721888,17.060368,,,1069.8357471613,19.028872,0,15.0120739712,26.8094824852,22,5,11.162,1069.8357471613,17.060368,7.1134692,15.8367131052,0,0,0,117.2, -0.8, -2.1,0,0,1024,1024,1024,1024,0,0,0,0,124.5,0,0,96,3.752,3.697,3.694,0,0,0,9.264,65.48,1069.8357471613,17.060368,6,P-GPS,
17400,2025-01-13 05:18:05,37.0152346541883,140.149124851286,17.060368,,,1069.8357471613,19.028872,0,15.0155516616,26.9403223844,22,5,11.162,1069.8357471613,17.060368,7.1134692,15.8367131052,0,0,0,117.3, -0.5, -2.1,0,0,1024,1024,1024,1024,0,0,0,0,124.5,0,0,96,3.752,3.697,3.694,0,0,0,9.264,65.48,1069.8357471613,17.060368,6,P-GPS,
17500,2025-01-13 05:18:05,37.0152347038593,140.149124856688,17.060368,,,1069.8357471613,19.028872,0,15.0124020552,26.9585310464,22,5,11.162,1069.8357471613,17.060368,7.1134692,15.8367131052,0,0,0,117.4, -0.3, -1.8,0,0,1024,1024,1024,1024,0,0,0,0,124.5,0,0,96,3.752,3.697,3.694,0,0,0,9.264,65.48,1069.8357471613,17.060368,6,P-GPS,
17600,2025-01-13 05:18:05,37.0152352007749,140.149124832071,17.060368,,,1069.8357471613,19.028872,0,14.9598758068,27.1399614984,23,5,11.162,1069.8357471613,17.060368,7.1134692,15.8367131052,0,0,0,117.4, -0.4, -1.8,0,0,1024,1024,1024,1024,0,0,0,0,124.5,0,0,96,3.752,3.697,3.694,0,0,0,9.264,65.48,1069.8357471613,17.060368,6,P-GPS,
17700,2025-01-13 05:18:05,37.0152352851649,140.149124842746,17.060368,,,1069.8357471613,19.028872,0,14.9553482476,27.1708998196,23,5,11.162,1069.8357471613,17.060368,7.1134692,15.8367131052,0,0,0,117.3, -0.1, -1.7,0,0,1024,1024,1024,1024,0,0,0,0,124.5,0,0,96,3.752,3.697,3.694,0,0,0,9.264,65.48,1069.8357471613,17.060368,6,P-GPS,
