time(millisecond),datetime(utc),latitude,longitude,height_above_takeoff(feet),height_above_ground_at_drone_location(feet),ground_elevation_at_drone_location(feet),altitude_above_seaLevel(feet),height_sonar(feet),speed(mph),distance(feet),mileage(feet),satellites,gpslevel,voltage(v),max_altitude(feet),max_ascent(feet),max_speed(mph),max_distance(feet), xSpeed(mph), ySpeed(mph), zSpeed(mph), compass_heading(degrees), pitch(degrees), roll(degrees),isPhoto,isVideo,rc_elevator,rc_aileron,rc_throttle,rc_rudder,rc_elevator(percent),rc_aileron(percent),rc_throttle(percent),rc_rudder(percent),gimbal_heading(degrees),gimbal_pitch(degrees),gimbal_roll(degrees),battery_percent,voltageCell1,voltageCell2,voltageCell3,voltageCell4,voltageCell5,voltageCell6,current(A),battery_temperature(f),altitude(feet),ascent(feet),flycStateRaw,flycState,message
0,2025-01-13 04:23:23,0,0,0,Available with any HD 360 subscription,Available with any HD 360 subscription,1050.4242839417,0.328084,0,0,0,0,0,0,1050.4242839417,0,0,0,0,0,0,107, -2.4, 0.9,0,0,1024,1024,1024,1024,0,0,0,0,107.7,0,0,98,3.884,3.878,3.899,0,0,0,0,54.68,1050.4242839417,0,41,Motors_Started,
100,2025-01-13 04:23:23,0,0,0,,,1050.4242839417,0.328084,0,0,0,0,0,0,1050.4242839417,0,0,0,0,0,0,107, -2.4, 0.9,0,0,1024,1024,1024,1024,0,0,0,0,107.7,0,0,98,3.884,3.878,3.899,0,0,0,0,54.68,1050.4242839417,0,41,Motors_Started,
200,2025-01-13 04:23:23,0,0,0,,,1050.4242839417,0.328084,0,0,0,0,0,0,1050.4242839417,0,0,0,0,0,0,107, -2.4, 0.8,0,0,1024,1024,1024,1024,0,0,0,0,107.7,0,0,98,3.884,3.878,3.899,0,0,0,0,54.68,1050.4242839417,0,41,Motors_Started,
300,2025-01-13 04:23:23,0,0,0,,,1050.4242839417,0.328084,0,0,0,0,0,0,1050.4242839417,0,0,0,0,0,0,106.9, -2.3, 1,0,0,1024,1024,1024,1024,0,0,0,0,107.7,0,0,98,3.884,3.878,3.899,0,0,0,0,54.68,1050.4242839417,0,41,Motors_Started,
400,2025-01-13 04:23:23,0,0,0,,,1050.4242839417,0.328084,0,0,0,0,0,0,1050.4242839417,0,0,0,0,0,0,107.1, -2.4, 0.8,0,0,1024,1024,1024,1024,0,0,0,0,107.7,0,0,98,3.884,3.878,3.899,0,0,0,0,54.68,1050.4242839417,0,41,Motors_Started,
500,2025-01-13 04:23:23,0,0,0,,,1050.4242839417,0.328084,0,0,0,0,0,0,1050.4242839417,0,0,0,0,0,0,106.9, -2.3, 1.1,0,0,1024,1024,1024,1024,0,0,0,0,107.7,0,0,98,3.884,3.878,3.899,0,0,0,0,54.68,1050.4242839417,0,41,Motors_Started,
600,2025-01-13 04:23:23,0,0,0,,,1050.4242839417,0.328084,0,0,0,0,0,0,1050.4242839417,0,0,0,0,0,0,107.3, -2.5, 0.8,0,0,1024,1024,1024,1024,0,0,0,0,107.7,0,0,98,3.884,3.878,3.899,0,0,0,0,54.68,1050.4242839417,0,41,Motors_Started,
700,2025-01-13 04:23:23,0,0,0,,,1050.4242839417,0.328084,0,0,0,0,0,0,1050.4242839417,0,0,0,0,0,0,107.3, -1.8, 1.1,0,0,1024,1024,1024,1024,0,0,0,0,107.7,0,0,98,3.884,3.878,3.899,0,0,0,0,54.68,1050.4242839417,0,41,Motors_Started,飛行中
800,2025-01-13 04:23:23,0,0,0,,,1050.4242839417,0.328084,0,0,0,0,0,0,1050.4242839417,0,0,0,0,0,0,106.6, -2.7, 1,0,0,1024,1024,1024,1024,0,0,0,0,107.7,0,0,98,3.884,3.878,3.899,0,0,0,0,54.68,1050.4242839417,0,41,Motors_Started,
900,2025-01-13 04:23:24,0,0,0,,,1050.4242839417,0.328084,0,0,0,0,0,0,1050.4242839417,0,0,0,0,0,0,107, -2.3, 0.8,0,0,1024,1024,1024,1024,0,0,0,0,107.7,0,0,98,3.884,3.878,3.899,0,0,0,0,54.68,1050.4242839417,0,41,Motors_Started,"Setting new Return-To-Home altitude to 100m (328 ft). Data Recorder File Index is 11. Setting new Maximum Flight Altitude to 30m (98 ft)"
1000,2025-01-13 04:23:24,0,0,0,,,1050.4242839417,0.328084,0,0,0,0,0,0,1050.4242839417,0,0,0,0,0,0,107, -2.6, 0.9,0,0,1024,1024,1024,1024,0,0,0,0,107.7,0,0,98,3.884,3.878,3.899,0,0,0,0,54.68,1050.4242839417,0,41,Motors_Started,
1100,2025-01-13 04:23:24,0,0,0,,,1050.4242839417,0.328084,0,0,0,0,0,11.775,1050.4242839417,0,0,0,0,0,0,107.3, -2.5, 1,0,0,1024,1024,1024,1024,0,0,0,0,107.7,0,0,98,3.884,3.878,3.899,0,0,0,2.468,54.68,1050.4242839417,0,41,Motors_Started,
1200,2025-01-13 04:23:24,0,0,0,,,1050.4242839417,0.328084,0,0,0,0,0,11.775,1050.4242839417,0,0,0,0,0,0,106.8, -2.8, 1.2,0,0,1024,1024,1024,1024,0,0,0,0,107.7,0,0,98,3.884,3.878,3.899,0,0,0,2.468,54.68,1050.4242839417,0,41,Motors_Started,
1300,2025-01-13 04:23:24,0,0,0,,,1050.4242839417,0.328084,0,0,0,0,0,11.775,1050.4242839417,0,0,0,0,0,0,106.4, -2.4, 1.9,0,0,1024,1024,1024,1024,0,0,0,0,107.7,0,0,98,3.884,3.878,3.899,0,0,0,2.468,54.68,1050.4242839417,0,41,Motors_Started,
1400,2025-01-13 04:23:24,0,0,0,,,1050.4242839417,0.328084,0,0,0,0,0,11.775,1050.4242839417,0,0,0,0,0,0,106.6, -2.6, 1.4,0,0,1024,1024,1024,1024,0,0,0,0,107.7,0,0,98,3.884,3.878,3.899,0,0,0,2.468,54.68,1050.4242839417,0,41,Motors_Started,
1500,2025-01-13 04:23:24,0,0,0,,,1050.4242839417,0.328084,0,0,0,0,0,11.775,1050.4242839417,0,0,0,0,0,0,106.6, -2.5, 1.3,0,0,1024,1024,1024,1024,0,0,0,0,107.7,0,0,98,3.884,3.878,3.899,0,0,0,2.468,54.68,1050.4242839417,0,11,AutoTakeoff,
1600,2025-01-13 04:23:24,0,0,0,,,1050.4242839417,0.328084,0,0,0,0,0,11.775,1050.4242839417,0,0,0,0,0,0,106.6, -2.4, 1.6,0,0,1024,1024,1024,1024,0,0,0,0,107.7,0,0,98,3.884,3.878,3.899,0,0,0,2.468,54.68,1050.4242839417,0,11,AutoTakeoff,
1700,2025-01-13 04:23:24,0,0,0,,,1050.4242839417,0.328084,0,0,0,0,0,11.775,1050.4242839417,0,0,0,0,0,0,106.6, -2.4, 1.7,0,0,1024,1024,1024,1024,0,0,0,0,107.7,0,0,98,3.884,3.878,3.899,0,0,0,2.468,54.68,1050.4242839417,0,11,AutoTakeoff,
1800,2025-01-13 04:23:25,0,0,0,,,1050.4242839417,0.328084,0,0,0,0,0,11.775,1050.4242839417,0,0,0,0,0,0,106.5, -2.4, 2.1,0,0,1024,1024,1024,1024,0,0,0,0,107.7,0,0,98,3.884,3.878,3.899,0,0,0,2.468,54.68,1050.4242839417,0,11,AutoTakeoff,
1900,2025-01-13 04:23:25,0,0,0,,,1050.4242839417,0.328084,0,0,0,0,0,11.775,1050.4242839417,0,0,0,0,0,0,106.5, -2.4, 2.4,0,0,1024,1024,1024,1024,0,0,0,0,107.7,0,0,98,3.884,3.878,3.899,0,0,0,2.468,54.68,1050.4242839417,0,11,AutoTakeoff,
2000,2025-01-13 04:23:25,0,0,0,,,1050.4242839417,0.328084,0,0,0,0,0,11.775,1050.4242839417,0,0,0,0,0,0,106.3, -2.4, 3.2,0,0,1024,1024,1024,1024,0,0,0,0,107.7,0,0,98,3.884,3.878,3.899,0,0,0,2.468,54.68,1050.4242839417,0,11,AutoTakeoff,
2100,2025-01-13 04:23:25,0,0,0,,,1050.4242839417,0.328084,0,0,0,0,0,11.702,1050.4242839417,0,0,0,0,0,0,106.1, -2.1, 4.1,0,0,1024,1024,1024,1024,0,0,0,0,107.7,0,0,98,3.923,3.91,3.924,0,0,0,3.637,54.68,1050.4242839417,0,11,AutoTakeoff,
2200,2025-01-13 04:23:25,0,0,0,,,1050.4242839417,0.328084,0,0,0,0,0,11.702,1050.4242839417,0,0,0,0,0,0,106.2, -2.3, 3.9,0,0,1024,1024,1024,1024,0,0,0,0,107.7,0,0,98,3.923,3.91,3.924,0,0,0,3.637,54.68,1050.4242839417,0,11,AutoTakeoff,
2300,2025-01-13 04:23:25,0,0,0,,,1050.4242839417,0.328084,0,0,0,0,0,11.702,1050.4242839417,0,0,0,0,0,0,106.1, -2.7, 3.4,0,0,1024,1024,1024,1024,0,0,0,0,107.7,0,0,98,3.923,3.91,3.924,0,0,0,3.637,54.68,1050.4242839417,0,11,AutoTakeoff,
2400,2025-01-13 04:23:25,0,0,0,,,1050.4242839417,0.328084,0.223694,0,0,0,0,11.702,1050.4242839417,0,0,0,-0.223694,0,0,105.6, -2.5, 2.2,0,0,1024,1024,1024,1024,0,0,0,0,107.6,0,0,98,3.923,3.91,3.924,0,0,0,3.637,54.68,1050.4242839417,0,11,AutoTakeoff,
2500,2025-01-13 04:23:25,0,0,0,,,1050.4242839417,0.328084,0.447388,0,0,0,0,11.702,1050.4242839417,0,0,0,-0.447388,0,-0.223694,104.7, -2.2, 0.5,0,0,1024,1024,1024,1024,0,0,0,0,107.6,0,0,98,3.923,3.91,3.924,0,0,0,3.637,54.68,1050.4242839417,0,11,AutoTakeoff,
2600,2025-01-13 04:23:25,0,0,0,,,1050.4242839417,0.328084,0.447388,0,0,0,0,11.702,1050.4242839417,0,0,0,-0.447388,0,-0.447388,104.4, -1.2, 0.1,0,0,1024,1024,1024,1024,0,0,0,0,107.5,0,0,98,3.923,3.91,3.924,0,0,0,3.637,54.68,1050.4242839417,0,11,AutoTakeoff,
2700,2025-01-13 04:23:25,0,0,0,,,1050.4242839417,0.328084,0.671082,0,0,0,0,11.702,1050.4242839417,0,0,0,-0.671082,0,-0.671082,104.5, 0.5, -2.4,0,0,1024,1024,1024,1024,0,0,0,0,107.3,0,0,98,3.923,3.91,3.924,0,0,0,3.637,54.68,1050.4242839417,0,11,AutoTakeoff,
2800,2025-01-13 04:23:26,0,0,0.328084,,,1050.7523679417,0.328084,0.671082,0,0,0,0,11.702,1050.7523679417,0.328084,0,0,-0.671082,0,-0.894776,104.3, 1.7, -4.1,0,0,1024,1024,1024,1024,0,0,0,0,107.2,0,0,98,3.923,3.91,3.924,0,0,0,3.637,54.68,1050.7523679417,0.328084,11,AutoTakeoff,
2900,2025-01-13 04:23:26,0,0,0.328084,,,1050.7523679417,0.328084,0.447388,0,0,0,0,11.702,1050.7523679417,0.328084,0,0,-0.447388,0,-0.894776,104.1, 1.5, -3.4,0,0,1024,1024,1024,1024,0,0,0,0,107.1,0,0,98,3.923,3.91,3.924,0,0,0,3.637,54.68,1050.7523679417,0.328084,11,AutoTakeoff,
3000,2025-01-13 04:23:26,0,0,0.328084,,,1050.7523679417,0.328084,0.447388,0,0,0,0,11.702,1050.7523679417,0.328084,0,0,-0.447388,0,-0.894776,104.3, 0.1, -2.8,0,0,1024,1024,1024,1024,0,0,0,0,106.9,0,0,98,3.923,3.91,3.924,0,0,0,3.637,54.68,1050.7523679417,0.328084,11,AutoTakeoff,
3100,2025-01-13 04:23:26,0,0,0.656168,,,1051.0804519417,0.656168,0.3131716,0,0,0,0,11.33,1051.0804519417,0.656168,0,0,-0.223694,-0.223694,-0.894776,104.4, -1, -3.3,0,0,1024,1024,1024,1024,0,0,0,0,106.8,0,0,98,3.668,3.657,3.685,0,0,0,5.531,54.68,1051.0804519417,0.656168,11,AutoTakeoff,
3200,2025-01-13 04:23:26,0,0,0.656168,,,1051.0804519417,0.984252,0.223694,0,0,0,0,11.33,1051.0804519417,0.656168,0,0,-0.223694,0,-0.894776,104.5, -0.7, -4.3,0,0,1024,1024,1024,1024,0,0,0,0,106.7,0,0,98,3.668,3.657,3.685,0,0,0,5.531,54.68,1051.0804519417,0.656168,11,AutoTakeoff,
3300,2025-01-13 04:23:26,0,0,0.984252,,,1051.4085359417,0.984252,0,0,0,0,0,11.33,1051.4085359417,0.984252,0,0,0,0,-0.894776,104.5, -0.4, -3.6,0,0,1024,1024,1024,1024,0,0,0,0,106.7,0,0,98,3.668,3.657,3.685,0,0,0,5.531,54.68,1051.4085359417,0.984252,11,AutoTakeoff,
3400,2025-01-13 04:23:26,0,0,0.984252,,,1051.4085359417,1.312336,0,0,0,0,0,11.33,1051.4085359417,0.984252,0,0,0,0,-0.894776,104.5, -0.7, -2.7,0,0,1024,1024,1024,1024,0,0,0,0,106.6,0,0,98,3.668,3.657,3.685,0,0,0,5.531,54.68,1051.4085359417,0.984252,11,AutoTakeoff,
3500,2025-01-13 04:23:26,0,0,1.312336,,,1051.7366199417,1.312336,0,0,0,0,0,11.33,1051.7366199417,1.312336,0,0,0,0,-0.894776,104.3, -2.2, -2.3,0,0,1024,1024,1024,1024,0,0,0,0,106.5,0,0,98,3.668,3.657,3.685,0,0,0,5.531,54.68,1051.7366199417,1.312336,11,AutoTakeoff,
3600,2025-01-13 04:23:26,0,0,1.312336,,,1051.7366199417,1.64042,0,0,0,0,0,11.33,1051.7366199417,1.312336,0,0,0,0,-0.894776,104.5, -2.9, -2.3,0,0,1024,1024,1024,1024,0,0,0,0,106.5,0,0,98,3.668,3.657,3.685,0,0,0,5.531,54.68,1051.7366199417,1.312336,11,AutoTakeoff,
3700,2025-01-13 04:23:26,0,0,1.312336,,,1051.7366199417,1.64042,0,0,0,0,0,11.33,1051.7366199417,1.312336,0,0,0,0,-0.894776,104.6, -2, -1.5,0,0,1024,1024,1024,1024,0,0,0,0,106.4,0,0,98,3.668,3.657,3.685,0,0,0,5.531,54.68,1051.7366199417,1.312336,11,AutoTakeoff,
3800,2025-01-13 04:23:27,0,0,1.64042,,,1052.0647039417,1.64042,0,0,0,0,0,11.33,1052.0647039417,1.64042,0,0,0,0,-0.894776,104.8, -1.6, -0.5,0,0,1024,1024,1024,1024,0,0,0,0,106.4,0,0,98,3.668,3.657,3.685,0,0,0,5.531,54.68,1052.0647039417,1.64042,11,AutoTakeoff,
3900,2025-01-13 04:23:27,0,0,1.64042,,,1052.0647039417,1.968504,0,0,0,0,0,11.33,1052.0647039417,1.64042,0,0,0,0,-0.894776,104.7, -1.7, -0.3,0,0,1024,1024,1024,1024,0,0,0,0,106.4,0,0,98,3.668,3.657,3.685,0,0,0,5.531,54.68,1052.0647039417,1.64042,11,AutoTakeoff,
4000,2025-01-13 04:23:27,0,0,1.968504,,,1052.3927879417,2.296588,0,0,0,0,0,11.33,1052.3927879417,1.968504,0,0,0,0,-1.11847,104.6, -1.5, -1.1,0,0,1024,1024,1024,1024,0,0,0,0,106.3,0,0,98,3.668,3.657,3.685,0,0,0,5.531,54.68,1052.3927879417,1.968504,11,AutoTakeoff,
4100,2025-01-13 04:23:27,0,0,1.968504,,,1052.3927879417,2.296588,0,0,0,0,0,10.941,1052.3927879417,1.968504,0,0,0,0,-1.11847,104.6, -1.2, -2,0,0,1024,1024,1052,1024,0,0,4,0,106.3,0,0,98,3.631,3.621,3.653,0,0,0,11.076,54.68,1052.3927879417,1.968504,11,AutoTakeoff,
4200,2025-01-13 04:23:27,0,0,2.296588,,,1052.7208719417,2.624672,0,0,0,0,0,10.941,1052.7208719417,2.296588,0,0,0,0,-1.11847,104.5, -0.7, -3,0,0,1024,1024,1071,1024,0,0,7,0,106.3,0,0,98,3.631,3.621,3.653,0,0,0,11.076,54.68,1052.7208719417,2.296588,11,AutoTakeoff,
4300,2025-01-13 04:23:27,0,0,2.296588,,,1052.7208719417,2.624672,0,0,0,0,0,10.941,1052.7208719417,2.296588,0,0,0,0,-1.11847,104.5, -1.2, -1.9,0,0,1024,1024,1082,1024,0,0,9,0,106.2,0,0,98,3.631,3.621,3.653,0,0,0,11.076,54.68,1052.7208719417,2.296588,11,AutoTakeoff,
4400,2025-01-13 04:23:27,0,0,2.624672,,,1053.0489559417,2.952756,0,0,0,0,0,10.941,1053.0489559417,2.624672,0,0,0,0,-1.11847,104.6, -1.9, -0.4,0,0,1024,1024,1102,1024,0,0,12,0,106.2,0,0,98,3.631,3.621,3.653,0,0,0,11.076,54.68,1053.0489559417,2.624672,11,AutoTakeoff,
4500,2025-01-13 04:23:27,0,0,2.952756,,,1053.3770399417,2.952756,0,0,0,0,0,10.941,1053.3770399417,2.952756,0,0,0,0,-1.11847,104.7, -1.5, -1.1,0,0,1024,1024,1111,1024,0,0,13,0,106.2,0,0,98,3.631,3.621,3.653,0,0,0,11.076,54.68,1053.3770399417,2.952756,11,AutoTakeoff,
4600,2025-01-13 04:23:27,0,0,2.952756,,,1053.3770399417,3.28084,0,0,0,0,0,10.941,1053.3770399417,2.952756,0,0,0,0,-1.11847,104.5, -0.5, -2.4,0,0,1024,1024,1117,1024,0,0,14,0,106.2,0,0,98,3.631,3.621,3.653,0,0,0,11.076,54.68,1053.3770399417,2.952756,11,AutoTakeoff,
4700,2025-01-13 04:23:27,0,0,3.28084,,,1053.7051239417,3.28084,0,0,0,0,0,10.941,1053.7051239417,3.28084,0,0,0,0,-1.11847,104.5, 0.2, -4,0,0,1024,1024,1118,1024,0,0,14,0,106.1,0,0,98,3.631,3.621,3.653,0,0,0,11.076,54.68,1053.7051239417,3.28084,11,AutoTakeoff,
4800,2025-01-13 04:23:28,0,0,3.28084,,,1053.7051239417,3.28084,0,0,0,0,0,10.941,1053.7051239417,3.28084,0,0,0,0,-1.11847,104.5, 0, -2.9,0,0,1024,1024,1121,1024,0,0,15,0,106.1,0,0,98,3.631,3.621,3.653,0,0,0,11.076,54.68,1053.7051239417,3.28084,11,AutoTakeoff,
4900,2025-01-13 04:23:28,0,0,3.608924,,,1054.0332079417,3.608924,0,0,0,0,0,10.941,1054.0332079417,3.608924,0,0,0,0,-1.11847,104.4, -1, -0.5,0,0,1024,1024,1024,1024,0,0,0,0,106.1,0,0,98,3.631,3.621,3.653,0,0,0,11.076,54.68,1054.0332079417,3.608924,6,P-GPS,
5000,2025-01-13 04:23:28,0,0,3.608924,,,1054.0332079417,3.937008,0,0,0,0,0,10.941,1054.0332079417,3.608924,0,0,0,0,-1.11847,104.3, -0.8, -0.2,0,0,1024,1024,1024,1024,0,0,0,0,106.1,0,0,98,3.631,3.621,3.653,0,0,0,11.076,54.68,1054.0332079417,3.608924,6,P-GPS,
5100,2025-01-13 04:23:28,0,0,3.937008,,,1054.3612919417,3.937008,0,0,0,0,0,10.91,1054.3612919417,3.937008,0,0,0,0,-0.671082,104.6, -0.6, -1.1,0,0,1024,1024,1024,1024,0,0,0,0,106.1,0,0,98,3.609,3.598,3.63,0,0,0,11.18,54.86,1054.3612919417,3.937008,6,P-GPS,
5200,2025-01-13 04:23:28,0,0,3.937008,,,1054.3612919417,3.937008,0,0,0,0,0,10.91,1054.3612919417,3.937008,0,0,0,0,-0.447388,105, -0.8, -1.2,0,0,1035,1024,1024,1024,2,0,0,0,106.1,0,0,98,3.609,3.598,3.63,0,0,0,11.18,54.86,1054.3612919417,3.937008,6,P-GPS,
5300,2025-01-13 04:23:28,0,0,3.937008,,,1054.3612919417,3.937008,0,0,0,0,0,10.91,1054.3612919417,3.937008,0,0,0,0,-0.223694,105.3, -1.4, -1.3,0,0,1035,1024,1024,1024,2,0,0,0,106.1,0,0,98,3.609,3.598,3.63,0,0,0,11.18,54.86,1054.3612919417,3.937008,6,P-GPS,
5400,2025-01-13 04:23:28,0,0,3.937008,,,1054.3612919417,3.937008,0,0,0,0,0,10.91,1054.3612919417,3.937008,0,0,0,0,0,105.3, -0.5, -0.2,0,0,1035,1024,1024,1024,2,0,0,0,106.1,0,0,98,3.609,3.598,3.63,0,0,0,11.18,54.86,1054.3612919417,3.937008,6,P-GPS,
5500,2025-01-13 04:23:28,0,0,3.937008,,,1054.3612919417,3.937008,0,0,0,0,0,10.91,1054.3612919417,3.937008,0,0,0,0,0,105.4, 0.5, -0.3,0,0,1057,1024,1024,1024,5,0,0,0,106.1,0,0,98,3.609,3.598,3.63,0,0,0,11.18,54.86,1054.3612919417,3.937008,6,P-GPS,
5600,2025-01-13 04:23:28,0,0,3.937008,,,1054.3612919417,3.937008,0,0,0,0,0,10.91,1054.3612919417,3.937008,0,0,0,0,0,105.4, -0.2, -2.5,0,0,1117,1024,1024,1024,14,0,0,0,106.1,0,0,98,3.609,3.598,3.63,0,0,0,11.18,54.86,1054.3612919417,3.937008,6,P-GPS,
5700,2025-01-13 04:23:28,0,0,3.937008,,,1054.3612919417,3.937008,0,0,0,0,0,10.91,1054.3612919417,3.937008,0,0,0,0,0,105.1, -0.7, -2,0,0,1187,1024,1024,1024,25,0,0,0,106.1,0,0,98,3.609,3.598,3.63,0,0,0,11.18,54.86,1054.3612919417,3.937008,6,P-GPS,
5800,2025-01-13 04:23:29,0,0,3.937008,,,1054.3612919417,3.937008,0,0,0,0,0,10.91,1054.3612919417,3.937008,0,0,0,0,0,105, -1.3, 0.2,0,0,1218,1024,1024,1024,29,0,0,0,106.1,0,0,98,3.609,3.598,3.63,0,0,0,11.18,54.86,1054.3612919417,3.937008,6,P-GPS,
5900,2025-01-13 04:23:29,0,0,3.937008,,,1054.3612919417,3.937008,0,0,0,0,0,10.91,1054.3612919417,3.937008,0,0,0,0,0,105.2, -2.2, 0.6,0,0,1237,1024,1024,1024,32,0,0,0,106.1,0,0,98,3.609,3.598,3.63,0,0,0,11.18,54.86,1054.3612919417,3.937008,6,P-GPS,
6000,2025-01-13 04:23:29,0,0,3.937008,,,1054.3612919417,3.937008,0,0,0,0,0,10.91,1054.3612919417,3.937008,0,0,0,0,0,105.1, -3.8, -0.4,0,0,1247,1024,1024,1024,34,0,0,0,106.1,0,0,98,3.609,3.598,3.63,0,0,0,11.18,54.86,1054.3612919417,3.937008,6,P-GPS,
6100,2025-01-13 04:23:29,0,0,3.937008,,,1054.3612919417,3.937008,0.223694,0,0,0,0,10.984,1054.3612919417,3.937008,0,0,0,0.223694,0,105, -5.3, -1.2,0,0,1247,1024,1024,1024,34,0,0,0,106.1,0,0,98,3.618,3.605,3.636,0,0,0,10.515,54.86,1054.3612919417,3.937008,6,P-GPS,
6200,2025-01-13 04:23:29,0,0,3.937008,,,1054.3612919417,3.937008,0.447388,0,0,0,0,10.984,1054.3612919417,3.937008,0,0,0,0.447388,0,105.2, -5.1, 0.4,0,0,1244,1024,1024,1024,33,0,0,0,106.1,0,0,98,3.618,3.605,3.636,0,0,0,10.515,54.86,1054.3612919417,3.937008,6,P-GPS,
6300,2025-01-13 04:23:29,0,0,3.937008,,,1054.3612919417,3.937008,0.447388,0,0,0,0,10.984,1054.3612919417,3.937008,0,0,0,0.447388,0,105.1, -5.2, 1.5,0,0,1244,1024,1024,1024,33,0,0,0,106.1,0,0,98,3.618,3.605,3.636,0,0,0,10.515,54.86,1054.3612919417,3.937008,6,P-GPS,
6400,2025-01-13 04:23:29,0,0,3.937008,,,1054.3612919417,3.937008,0.7158208,0,0,0,0,10.984,1054.3612919417,3.937008,0,0,-0.223694,0.671082,0,105.3, -6.8, -0.3,0,0,1244,1024,1024,1024,33,0,0,0,106.1,0,0,98,3.618,3.605,3.636,0,0,0,10.515,54.86,1054.3612919417,3.937008,6,P-GPS,
6500,2025-01-13 04:23:29,0,0,3.937008,,,1054.3612919417,3.937008,0.9171454,0,0,0,0,10.984,1054.3612919417,3.937008,0,0,-0.223694,0.894776,0,105.2, -7.3, -1.4,0,0,1244,1024,1024,1024,33,0,0,0,106.1,0,0,98,3.618,3.605,3.636,0,0,0,10.515,54.86,1054.3612919417,3.937008,6,P-GPS,
6600,2025-01-13 04:23:29,0,0,3.937008,,,1054.3612919417,3.937008,1.2079476,0,0,0,0,10.984,1054.3612919417,3.937008,0,0,-0.447388,1.11847,0,105.2, -4.7, -1.1,0,0,1238,1024,1024,1024,32,0,0,0,106.1,0,0,98,3.618,3.605,3.636,0,0,0,10.515,54.86,1054.3612919417,3.937008,6,P-GPS,
6700,2025-01-13 04:23:29,0,0,3.937008,,,1054.3612919417,3.937008,1.2079476,0,0,0,0,10.984,1054.3612919417,3.937008,0,0,-0.447388,1.11847,0,104.9, -3.3, -1.4,0,0,1217,1024,1024,1024,29,0,0,0,106.1,0,0,98,3.618,3.605,3.636,0,0,0,10.515,54.86,1054.3612919417,3.937008,6,P-GPS,
6800,2025-01-13 04:23:30,0,0,3.937008,,,1054.3612919417,3.937008,1.2079476,0,0,0,0,10.984,1054.3612919417,3.937008,0,0,-0.447388,1.11847,-0.223694,105.1, -5.4, -2.9,0,0,1197,1024,1024,1024,26,0,0,0,106.1,0,0,98,3.618,3.605,3.636,0,0,0,10.515,54.86,1054.3612919417,3.937008,6,P-GPS,
6900,2025-01-13 04:23:30,0,0,3.937008,,,1054.3612919417,3.937008,1.4092722,0,0,0,0,10.984,1054.3612919417,3.937008,0,0,-0.447388,1.342164,0,105.2, -7.3, -2.1,0,0,1210,1024,1024,1024,28,0,0,0,106.1,0,0,98,3.618,3.605,3.636,0,0,0,10.515,54.86,1054.3612919417,3.937008,6,P-GPS,
7000,2025-01-13 04:23:30,0,0,3.937008,,,1054.3612919417,3.937008,1.4092722,0,0,0,0,10.984,1054.3612919417,3.937008,0,0,-0.447388,1.342164,0,105.3, -5.9, -2.4,0,0,1218,1024,1024,1024,29,0,0,0,106.1,0,0,98,3.618,3.605,3.636,0,0,0,10.515,54.86,1054.3612919417,3.937008,6,P-GPS,
7100,2025-01-13 04:23:30,0,0,3.937008,,,1054.3612919417,3.937008,1.6329662,0,0,0,0,10.819,1054.3612919417,3.937008,0,0,-0.447388,1.565858,0,105.3, -4, -3.1,0,0,1222,1024,1024,1024,30,0,0,0,106.1,0,0,98,3.619,3.61,3.644,0,0,0,11.475,55.04,1054.3612919417,3.937008,6,P-GPS,
7200,2025-01-13 04:23:30,0,0,3.937008,,,1054.3612919417,3.937008,1.6329662,0,0,0,0,10.819,1054.3612919417,3.937008,0,0,-0.447388,1.565858,0,105.1, -4.6, -2.2,0,0,1213,1024,1024,1024,29,0,0,0,106.1,0,0,98,3.619,3.61,3.644,0,0,0,11.475,55.04,1054.3612919417,3.937008,6,P-GPS,
7300,2025-01-13 04:23:30,0,0,3.937008,,,1054.3612919417,3.937008,1.6329662,0,0,0,0,10.819,1054.3612919417,3.937008,0,0,-0.447388,1.565858,0,105.3, -6.4, -3.5,0,0,1186,1024,1024,1024,25,0,0,0,106.1,0,0,98,3.619,3.61,3.644,0,0,0,11.475,55.04,1054.3612919417,3.937008,6,P-GPS,
7400,2025-01-13 04:23:30,0,0,3.937008,,,1054.3612919417,3.937008,1.6329662,0,0,0,0,10.819,1054.3612919417,3.937008,0,0,-0.447388,1.789552,0,104.8, -7, -4.4,0,0,1186,1024,1024,1024,25,0,0,0,106.1,0,0,98,3.619,3.61,3.644,0,0,0,11.475,55.04,1054.3612919417,3.937008,6,P-GPS,
7500,2025-01-13 04:23:30,0,0,3.937008,,,1054.3612919417,3.937008,2.0356154,0,0,0,0,10.819,1054.3612919417,3.937008,0,0,-0.223694,2.013246,0,104.9, -5.4, -3.2,0,0,1191,1024,1024,1024,25,0,0,0,106.1,0,0,98,3.619,3.61,3.644,0,0,0,11.475,55.04,1054.3612919417,3.937008,6,P-GPS,
7600,2025-01-13 04:23:30,0,0,3.937008,,,1054.3612919417,3.937008,2.0356154,0,0,0,0,10.819,1054.3612919417,3.937008,0,0,-0.223694,2.013246,0,104.9, -4.3, -0.1,0,0,1190,1024,1024,1024,25,0,0,0,106.1,0,0,98,3.619,3.61,3.644,0,0,0,11.475,55.04,1054.3612919417,3.937008,6,P-GPS,
7700,2025-01-13 04:23:30,0,0,3.608924,,,1054.0332079417,3.937008,2.23694,0,0,0,0,10.819,1054.3612919417,3.937008,0,0,-0.223694,2.23694,0,105.3, -2.8, 2.2,0,0,1186,1024,1024,1024,25,0,0,0,106.1,0,0,98,3.619,3.61,3.644,0,0,0,11.475,55.04,1054.0332079417,3.608924,6,P-GPS,
7800,2025-01-13 04:23:30,0,0,3.608924,,,1054.0332079417,4.265092,2.23694,0,0,0,0,10.819,1054.3612919417,3.937008,0,0,-0.223694,2.23694,0,106, -1.7, 2.7,0,0,1182,1024,1024,1024,24,0,0,0,106.1,0,0,98,3.619,3.61,3.644,0,0,0,11.475,55.04,1054.0332079417,3.608924,6,P-GPS,
7900,2025-01-13 04:23:31,0,0,3.937008,,,1054.3612919417,4.92126,2.0579848,0,0,0,0,10.819,1054.3612919417,3.937008,0,0,-0.447388,2.013246,0,106.3, -1.8, 2.3,0,0,1191,1024,1024,1024,25,0,0,0,106.1,0,0,98,3.619,3.61,3.644,0,0,0,11.475,55.04,1054.3612919417,3.937008,6,P-GPS,
8000,2025-01-13 04:23:31,0,0,3.937008,,,1054.3612919417,5.249344,2.125093,0,0,0,0,10.819,1054.3612919417,3.937008,0,0,-0.671082,2.013246,0,106.2, -2.8, 0,0,0,1188,1024,1024,1024,25,0,0,0,106.1,0,0,98,3.619,3.61,3.644,0,0,0,11.475,55.04,1054.3612919417,3.937008,6,P-GPS,
8100,2025-01-13 04:23:31,0,0,3.937008,,,1054.3612919417,5.577428,2.125093,0,0,0,0,10.837,1054.3612919417,3.937008,0,0,-0.671082,2.013246,0,105.7, -3.2, -0.6,0,0,1189,1024,1024,1024,25,0,0,0,106.1,0,0,98,3.587,3.578,3.616,0,0,0,11.147,55.04,1054.3612919417,3.937008,6,P-GPS,
8200,2025-01-13 04:23:31,0,0,3.937008,,,1054.3612919417,5.577428,2.125093,0,0,0,0,10.837,1054.3612919417,3.937008,0,0,-0.671082,2.013246,0,105.6, -2.6, -2.4,0,0,1194,1024,1024,1024,26,0,0,0,106.1,0,0,98,3.587,3.578,3.616,0,0,0,11.147,55.04,1054.3612919417,3.937008,6,P-GPS,
8300,2025-01-13 04:23:31,0,0,3.937008,,,1054.3612919417,5.577428,2.125093,0,0,0,0,10.837,1054.3612919417,3.937008,0,0,-0.671082,2.013246,0,105.5, -2.1, -2.9,0,0,1191,1024,1024,1024,25,0,0,0,106.1,0,0,98,3.587,3.578,3.616,0,0,0,11.147,55.04,1054.3612919417,3.937008,6,P-GPS,
8400,2025-01-13 04:23:31,0,0,3.937008,,,1054.3612919417,5.249344,2.0579848,0,0,0,0,10.837,1054.3612919417,3.937008,0,0,-0.447388,2.013246,0,105.2, -2.4, -1.4,0,0,1186,1024,1024,1024,25,0,0,0,106.1,0,0,98,3.587,3.578,3.616,0,0,0,11.147,55.04,1054.3612919417,3.937008,6,P-GPS,
8500,2025-01-13 04:23:31,0,0,3.937008,,,1054.3612919417,5.249344,2.0579848,0,0,0,0,10.837,1054.3612919417,3.937008,0,0,-0.447388,2.013246,0,105, -2.4, 0.1,0,0,1168,1024,1024,1024,22,0,0,0,106.1,0,0,98,3.587,3.578,3.616,0,0,0,11.147,55.04,1054.3612919417,3.937008,6,P-GPS,
8600,2025-01-13 04:23:31,0,0,3.937008,,,1054.3612919417,5.249344,2.0579848,0,0,0,0,10.837,1054.3612919417,3.937008,0,0,-0.447388,2.013246,0,105, -2.6, -1.2,0,0,1168,1024,1024,1024,22,0,0,0,106.1,0,0,98,3.587,3.578,3.616,0,0,0,11.147,55.04,1054.3612919417,3.937008,6,P-GPS,
8700,2025-01-13 04:23:31,0,0,3.937008,,,1054.3612919417,5.249344,2.0579848,0,0,0,0,10.837,1054.3612919417,3.937008,0,0,-0.447388,2.013246,0,104.9, -2.3, -1.4,0,0,1177,1024,1024,1024,23,0,0,0,106.1,0,0,98,3.587,3.578,3.616,0,0,0,11.147,55.04,1054.3612919417,3.937008,6,P-GPS,
8800,2025-01-13 04:23:32,0,0,3.937008,,,1054.3612919417,4.92126,2.0579848,0,0,0,0,10.837,1054.3612919417,3.937008,0,0,-0.447388,2.013246,0,105.1, -2.2, -1.3,0,0,1189,1024,1024,1024,25,0,0,0,106.1,0,0,98,3.587,3.578,3.616,0,0,0,11.147,55.04,1054.3612919417,3.937008,6,P-GPS,
8900,2025-01-13 04:23:32,0,0,3.937008,,,1054.3612919417,4.92126,2.0579848,0,0,0,0,10.837,1054.3612919417,3.937008,0,0,-0.447388,2.013246,0,105.3, -3.4, -1.3,0,0,1247,1024,1024,1024,34,0,0,0,106.1,0,0,98,3.587,3.578,3.616,0,0,0,11.147,55.04,1054.3612919417,3.937008,6,P-GPS,
9000,2025-01-13 04:23:32,0,0,3.937008,,,1054.3612919417,4.92126,2.0579848,0,0,0,0,10.837,1054.3612919417,3.937008,0,0,-0.447388,2.013246,0,105.4, -4.3, -1.1,0,0,1268,1024,1024,1024,37,0,0,0,106.1,0,0,98,3.587,3.578,3.616,0,0,0,11.147,55.04,1054.3612919417,3.937008,6,P-GPS,
9100,2025-01-13 04:23:32,0,0,3.937008,,,1054.3612919417,5.249344,2.125093,0,0,0,0,10.807,1054.3612919417,3.937008,0,0,-0.671082,2.013246,0,105.2, -5.2, -0.1,0,0,1257,1024,1024,1024,35,0,0,0,106.1,0,0,98,3.606,3.596,3.631,0,0,0,11.561,55.4,1054.3612919417,3.937008,6,P-GPS,
9200,2025-01-13 04:23:32,0,0,3.937008,,,1054.3612919417,5.249344,2.125093,0,0,0,0,10.807,1054.3612919417,3.937008,0,0,-0.671082,2.013246,0,105.2, -6.5, -1.4,0,0,1256,1024,1024,1024,35,0,0,0,106.1,0,0,98,3.606,3.596,3.631,0,0,0,11.561,55.4,1054.3612919417,3.937008,6,P-GPS,
9300,2025-01-13 04:23:32,0,0,3.937008,,,1054.3612919417,5.249344,2.1922012,0,0,0,0,10.807,1054.3612919417,3.937008,0,0,-0.894776,2.013246,0,105.8, -7.8, -4.3,0,0,1255,1024,1024,1024,35,0,0,0,106.1,0,0,98,3.606,3.596,3.631,0,0,0,11.561,55.4,1054.3612919417,3.937008,6,P-GPS,
9400,2025-01-13 04:23:32,0,0,3.937008,,,1054.3612919417,5.249344,2.3264176,0,0,4,0,10.807,1054.3612919417,3.937008,0,0,-0.671082,2.23694,0,105.8, -8.2, -4.5,0,0,1255,1024,1024,1024,35,0,0,0,106.1,0,0,98,3.606,3.596,3.631,0,0,0,11.561,55.4,1054.3612919417,3.937008,6,P-GPS,
9500,2025-01-13 04:23:32,0,0,3.937008,,,1054.3612919417,5.249344,2.5501116,0,0,4,0,10.807,1054.3612919417,3.937008,0,0,-0.671082,2.460634,0.223694,105.6, -7.6, -2.8,0,0,1253,1024,1024,1024,35,0,0,0,106.1,0,0,98,3.606,3.596,3.631,0,0,0,11.561,55.4,1054.3612919417,3.937008,6,P-GPS,
9600,2025-01-13 04:23:32,0,0,3.937008,,,1054.3612919417,5.249344,2.8185444,0,0,4,0,10.807,1054.3612919417,3.937008,0,0,-0.894776,2.684328,0,105.2, -6.2, 0.3,0,0,1250,1024,1024,1024,34,0,0,0,106.1,0,0,98,3.606,3.596,3.631,0,0,0,11.561,55.4,1054.3612919417,3.937008,6,P-GPS,
9700,2025-01-13 04:23:32,0,0,3.937008,,,1054.3612919417,5.577428,2.8185444,0,0,4,0,10.807,1054.3612919417,3.937008,0,0,-0.894776,2.684328,0,105.6, -5, -1.4,0,0,1246,1024,1024,1024,34,0,0,0,106.1,0,0,98,3.606,3.596,3.631,0,0,0,11.561,55.4,1054.3612919417,3.937008,6,P-GPS,
9800,2025-01-13 04:23:33,0,0,3.937008,,,1054.3612919417,5.577428,2.908022,0,0,4,0,10.807,1054.3612919417,3.937008,0,0,-1.11847,2.684328,0,105.6, -4.8, -3.6,0,0,1246,1024,1024,1024,34,0,0,0,106.1,0,0,98,3.606,3.596,3.631,0,0,0,11.561,55.4,1054.3612919417,3.937008,6,P-GPS,
9900,2025-01-13 04:23:33,0,0,3.937008,,,1054.3612919417,5.577428,2.8185444,0,0,4,0,10.807,1054.3612919417,3.937008,0,0,-0.894776,2.684328,0,105.5, -4.7, -4.6,0,0,1240,1024,1024,1024,33,0,0,0,106.1,0,0,98,3.606,3.596,3.631,0,0,0,11.561,55.4,1054.3612919417,3.937008,6,P-GPS,
10000,2025-01-13 04:23:33,0,0,3.937008,,,1054.3612919417,5.577428,3.0422384,0,0,4,0,10.807,1054.3612919417,3.937008,0,0,-0.894776,2.908022,0,105.1, -3.7, -3.1,0,0,1219,1024,1024,1024,30,0,0,0,106.1,0,0,98,3.606,3.596,3.631,0,0,0,11.561,55.4,1054.3612919417,3.937008,6,P-GPS,
10100,2025-01-13 04:23:33,0,0,3.937008,,,1054.3612919417,5.577428,2.8185444,0,0,4,0,10.826,1054.3612919417,3.937008,0,0,-0.894776,2.684328,0,105.1, -4.5, -2.4,0,0,1203,1024,1024,1024,27,0,0,0,106.1,0,0,98,3.57,3.559,3.596,0,0,0,11.114,55.58,1054.3612919417,3.937008,6,P-GPS,
10200,2025-01-13 04:23:33,0,0,3.937008,,,1054.3612919417,5.577428,2.8185444,0,0,4,0,10.826,1054.3612919417,3.937008,0,0,-0.894776,2.684328,0,105.4, -5.9, -2.4,0,0,1189,1024,1024,1024,25,0,0,0,106.1,0,0,98,3.57,3.559,3.596,0,0,0,11.114,55.58,1054.3612919417,3.937008,6,P-GPS,
10300,2025-01-13 04:23:33,0,0,3.937008,,,1054.3612919417,5.577428,3.0422384,0,0,4,0,10.826,1054.3612919417,3.937008,0,0,-0.894776,2.908022,0,105.1, -4.9, -2.3,0,0,1145,1024,1024,1024,18,0,0,0,106.1,0,0,98,3.57,3.559,3.596,0,0,0,11.114,55.58,1054.3612919417,3.937008,6,P-GPS,
10400,2025-01-13 04:23:33,0,0,3.937008,,,1054.3612919417,5.577428,3.0422384,0,0,4,0,10.826,1054.3612919417,3.937008,0,0,-0.894776,2.908022,0,105, -2.5, -2.2,0,0,1024,1024,1024,1024,0,0,0,0,106.1,0,0,98,3.57,3.559,3.596,0,0,0,11.114,55.58,1054.3612919417,3.937008,6,P-GPS,
10500,2025-01-13 04:23:33,0,0,3.937008,,,1054.3612919417,5.577428,2.8185444,0,0,4,0,10.826,1054.3612919417,3.937008,0,0,-0.894776,2.684328,0,104.9, -1.3, -1.8,0,0,1024,1024,1024,1024,0,0,0,0,106.1,0,0,98,3.57,3.559,3.596,0,0,0,11.114,55.58,1054.3612919417,3.937008,6,P-GPS,
10600,2025-01-13 04:23:33,0,0,3.937008,,,1054.3612919417,5.577428,2.7738056,0,0,4,0,10.826,1054.3612919417,3.937008,0,0,-0.671082,2.684328,0,104.9, 3.5, -3.5,0,0,1024,1024,1024,1024,0,0,0,0,106.1,0,0,98,3.57,3.559,3.596,0,0,0,11.114,55.58,1054.3612919417,3.937008,6,P-GPS,
10700,2025-01-13 04:23:33,0,0,3.937008,,,1054.3612919417,5.577428,2.2816788,0,0,4,0,10.826,1054.3612919417,3.937008,0,0,-0.447388,2.23694,0,104.4, 9.9, -3.4,0,0,1024,1024,1024,1024,0,0,0,0,106.1,0,0,98,3.57,3.559,3.596,0,0,0,11.114,55.58,1054.3612919417,3.937008,6,P-GPS,
10800,2025-01-13 04:23:34,0,0,3.937008,,,1054.3612919417,5.577428,1.8119214,0,0,4,0,10.826,1054.3612919417,3.937008,0,0,-0.223694,1.789552,0,104.1, 10.6, -1.9,0,0,1024,1024,1024,1024,0,0,0,0,106.1,0,0,98,3.57,3.559,3.596,0,0,0,11.114,55.58,1054.3612919417,3.937008,6,P-GPS,
10900,2025-01-13 04:23:34,0,0,3.937008,,,1054.3612919417,5.577428,1.11847,0,0,4,0,10.826,1054.3612919417,3.937008,0,0,0,1.11847,0,104.2, 6.5, -1.5,0,0,1024,1024,1024,1024,0,0,0,0,106.1,0,0,98,3.57,3.559,3.596,0,0,0,11.114,55.58,1054.3612919417,3.937008,6,P-GPS,
11000,2025-01-13 04:23:34,0,0,3.937008,,,1054.3612919417,5.577428,0.894776,0,0,4,0,10.826,1054.3612919417,3.937008,0,0,0,0.894776,0,104.4, 2.4, 0,0,0,1024,1024,1024,1024,0,0,0,0,106.1,0,0,98,3.57,3.559,3.596,0,0,0,11.114,55.58,1054.3612919417,3.937008,6,P-GPS,
11100,2025-01-13 04:23:34,0,0,3.937008,,,1054.3612919417,5.577428,0.894776,0,0,4,0,10.778,1054.3612919417,3.937008,0,0,0,0.894776,0,104.5, 0.4, 3,0,0,1024,1024,1024,1024,0,0,0,0,106.1,0,0,98,3.606,3.592,3.622,0,0,0,11.766,55.76,1054.3612919417,3.937008,6,P-GPS,
11200,2025-01-13 04:23:34,0,0,3.937008,,,1054.3612919417,5.577428,0.671082,0,0,4,0,10.778,1054.3612919417,3.937008,0,0,0,0.671082,0,105.1, -0.3, 3,0,0,1024,1024,1024,1024,0,0,0,0,106.1,0,0,98,3.606,3.592,3.622,0,0,0,11.766,55.76,1054.3612919417,3.937008,6,P-GPS,
11300,2025-01-13 04:23:34,0,0,3.937008,,,1054.3612919417,5.577428,0.447388,0,0,4,0,10.778,1054.3612919417,3.937008,0,0,0,0.447388,0,105.5, 0.2, 0.1,0,0,1024,1107,1024,1024,0,13,0,0,106.1,0,0,98,3.606,3.592,3.622,0,0,0,11.766,55.76,1054.3612919417,3.937008,6,P-GPS,
11400,2025-01-13 04:23:34,0,0,3.937008,,,1054.3612919417,5.577428,0.447388,0,0,5,0,10.778,1054.3612919417,3.937008,0.447388,0,0,0.447388,0,105.3, 0.5, -1.3,0,0,1024,1138,1024,1024,0,17,0,0,106.1,0,0,98,3.606,3.592,3.622,0,0,0,11.766,55.76,1054.3612919417,3.937008,6,P-GPS,
11500,2025-01-13 04:23:34,0,0,3.937008,,,1054.3612919417,5.577428,0.447388,0,0,5,0,10.778,1054.3612919417,3.937008,0.447388,0,0,0.447388,0,105, 0.1, -1,0,0,1019,1230,1024,1024,-1,31,0,0,106.1,0,0,98,3.606,3.592,3.622,0,0,0,11.766,55.76,1054.3612919417,3.937008,6,P-GPS,
11600,2025-01-13 04:23:34,0,0,3.937008,,,1054.3612919417,5.577428,0.223694,0,0,5,0,10.778,1054.3612919417,3.937008,0.447388,0,0,0.223694,0,105.3, -0.3, 0.6,0,0,1023,1301,1024,1024,-0,42,0,0,106.1,0,0,98,3.606,3.592,3.622,0,0,0,11.766,55.76,1054.3612919417,3.937008,6,P-GPS,
11700,2025-01-13 04:23:34,0,0,3.937008,,,1054.3612919417,5.577428,0.3131716,0,0,5,0,10.778,1054.3612919417,3.937008,0.447388,0,-0.223694,0.223694,0,105.5, -0.1, 2.1,0,0,1024,1302,1024,1024,0,42,0,0,106.1,0,0,98,3.606,3.592,3.622,0,0,0,11.766,55.76,1054.3612919417,3.937008,6,P-GPS,
11800,2025-01-13 04:23:35,0,0,3.937008,,,1054.3612919417,5.577428,0.447388,0,0,5,0,10.778,1054.3612919417,3.937008,0.447388,0,-0.447388,0,0,105.5, -0.1, 3.8,0,0,1021,1301,1024,1024,-0,42,0,0,106.1,0,0,98,3.606,3.592,3.622,0,0,0,11.766,55.76,1054.3612919417,3.937008,6,P-GPS,
11900,2025-01-13 04:23:35,0,0,3.937008,,,1054.3612919417,5.577428,0.671082,0,0,5,0,10.778,1054.3612919417,3.937008,0.671082,0,-0.671082,0,0,105.6, 0.4, 4.8,0,0,1017,1303,1024,1024,-1,42,0,0,106.1,0,0,98,3.606,3.592,3.622,0,0,0,11.766,55.76,1054.3612919417,3.937008,6,P-GPS,
12000,2025-01-13 04:23:35,0,0,3.937008,,,1054.3612919417,5.577428,0.894776,0,0,5,0,10.778,1054.3612919417,3.937008,0.894776,0,-0.894776,0,0,105.8, 0.4, 4.3,0,0,1023,1314,1024,1024,-0,44,0,0,106.1,0,0,98,3.606,3.592,3.622,0,0,0,11.766,55.76,1054.3612919417,3.937008,6,P-GPS,
12100,2025-01-13 04:23:35,0,0,3.937008,,,1054.3612919417,5.577428,1.11847,0,0,5,0,10.799,1054.3612919417,3.937008,1.11847,0,-1.11847,0,0,105.9, 0, 3.6,0,0,1012,1314,1024,1024,-2,44,0,0,106.1,0,0,98,3.597,3.585,3.619,0,0,0,10.933,55.76,1054.3612919417,3.937008,6,P-GPS,
12200,2025-01-13 04:23:35,0,0,3.937008,,,1054.3612919417,5.577428,1.1408394,0,0,5,0,10.799,1054.3612919417,3.937008,1.1408394,0,-1.11847,-0.223694,0,105.9, -0.7, 2.3,0,0,1012,1314,1024,1024,-2,44,0,0,106.1,0,0,98,3.597,3.585,3.619,0,0,0,10.933,55.76,1054.3612919417,3.937008,6,P-GPS,
12300,2025-01-13 04:23:35,0,0,3.937008,,,1054.3612919417,5.577428,1.3645334,0,0,5,0,10.799,1054.3612919417,3.937008,1.3645334,0,-1.342164,-0.223694,0,105.9, -1.1, 2.9,0,0,1024,1312,1024,1024,0,44,0,0,106.1,0,0,98,3.597,3.585,3.619,0,0,0,10.933,55.76,1054.3612919417,3.937008,6,P-GPS,
12400,2025-01-13 04:23:35,0,0,3.937008,,,1054.3612919417,5.577428,1.3645334,0,0,5,0,10.799,1054.3612919417,3.937008,1.3645334,0,-1.342164,-0.223694,0,106, -1, 4.4,0,0,1021,1308,1024,1024,-0,43,0,0,106.1,0,0,98,3.597,3.585,3.619,0,0,0,10.933,55.76,1054.3612919417,3.937008,6,P-GPS,
12500,2025-01-13 04:23:35,0,0,3.937008,,,1054.3612919417,5.577428,1.6329662,0,0,5,0,10.799,1054.3612919417,3.937008,1.6329662,0,-1.565858,-0.447388,0,106.3, -2.3, 6.4,0,0,1020,1309,1024,1024,-1,43,0,0,106.1,0,0,98,3.597,3.585,3.619,0,0,0,10.933,55.76,1054.3612919417,3.937008,6,P-GPS,
12600,2025-01-13 04:23:35,0,0,3.937008,,,1054.3612919417,5.577428,1.8342908,0,0,5,0,10.799,1054.3612919417,3.937008,1.8342908,0,-1.789552,-0.447388,0,106.3, -3.5, 7.4,0,0,1022,1310,1024,1024,-0,43,0,0,106.1,0,0,98,3.597,3.585,3.619,0,0,0,10.933,55.76,1054.3612919417,3.937008,6,P-GPS,
12700,2025-01-13 04:23:35,0,0,3.937008,,,1054.3612919417,5.577428,2.2816788,0,0,5,0,10.799,1054.3612919417,3.937008,2.2816788,0,-2.23694,-0.447388,0,106.5, -2.5, 7.4,0,0,1024,1302,1024,1024,0,42,0,0,106.1,0,0,98,3.597,3.585,3.619,0,0,0,10.933,55.76,1054.3612919417,3.937008,6,P-GPS,
12800,2025-01-13 04:23:36,0,0,3.937008,,,1054.3612919417,5.577428,2.5053728,0,0,5,0,10.799,1054.3612919417,3.937008,2.5053728,0,-2.460634,-0.447388,0,107, -0.2, 6.7,0,0,1024,1262,1024,1024,0,36,0,0,106.1,0,0,98,3.597,3.585,3.619,0,0,0,10.933,55.76,1054.3612919417,3.937008,6,P-GPS,
12900,2025-01-13 04:23:36,0,0,3.937008,,,1054.3612919417,5.577428,2.7290668,0,0,5,0,10.799,1054.3612919417,3.937008,2.7290668,0,-2.684328,-0.447388,0,107.4, 0.9, 4.2,0,0,1024,1179,1024,1024,0,23,0,0,106.1,0,0,98,3.597,3.585,3.619,0,0,0,10.933,55.76,1054.3612919417,3.937008,6,P-GPS,
13000,2025-01-13 04:23:36,0,0,3.937008,,,1054.3612919417,5.577428,2.9751302,0,0,5,0,10.799,1054.3612919417,3.937008,2.9751302,0,-2.908022,-0.671082,0,107.4, -0.5, 2.2,0,0,1024,1024,1024,1024,0,0,0,0,106.1,0,0,98,3.597,3.585,3.619,0,0,0,10.933,55.76,1054.3612919417,3.937008,6,P-GPS,
13100,2025-01-13 04:23:36,0,0,3.937008,,,1054.3612919417,5.577428,2.9751302,0,0,5,0,10.813,1054.3612919417,3.937008,2.9751302,0,-2.908022,-0.671082,0,107.2, -1.7, -0.5,0,0,1024,1024,1024,1024,0,0,0,0,106.1,0,0,98,3.593,3.58,3.615,0,0,0,10.903,55.76,1054.3612919417,3.937008,6,P-GPS,
13200,2025-01-13 04:23:36,0,0,3.937008,,,1054.3612919417,5.577428,2.9751302,0,0,5,0,10.813,1054.3612919417,3.937008,2.9751302,0,-2.908022,-0.671082,0,106.9, -0.5, -8.1,0,0,1024,1024,1024,1024,0,0,0,0,106.1,0,0,98,3.593,3.58,3.615,0,0,0,10.903,55.76,1054.3612919417,3.937008,6,P-GPS,
13300,2025-01-13 04:23:36,0,0,3.937008,,,1054.3612919417,5.577428,2.7290668,0,0,5,0,10.813,1054.3612919417,3.937008,2.9751302,0,-2.684328,-0.447388,0,105.4, 1.8, -13.1,0,0,1024,1024,1024,1024,0,0,0,0,106.1,0,0,98,3.593,3.58,3.615,0,0,0,10.903,55.76,1054.3612919417,3.937008,6,P-GPS,
13400,2025-01-13 04:23:36,0,0,3.937008,,,1054.3612919417,5.577428,2.0579848,0,0,5,0,10.813,1054.3612919417,3.937008,2.9751302,0,-2.013246,-0.447388,0,104.1, 1.2, -12.7,0,0,1024,1024,1024,1024,0,0,0,0,106.1,0,0,98,3.593,3.58,3.615,0,0,0,10.903,55.76,1054.3612919417,3.937008,6,P-GPS,
13500,2025-01-13 04:23:36,0,0,3.937008,,,1054.3612919417,5.577428,1.6329662,0,0,5,0,10.813,1054.3612919417,3.937008,2.9751302,0,-1.565858,-0.447388,0,103.9, -1.3, -10.6,0,0,1024,1024,1083,1024,0,0,9,0,106.1,0,0,98,3.593,3.58,3.615,0,0,0,10.903,55.76,1054.3612919417,3.937008,6,P-GPS,
13600,2025-01-13 04:23:36,0,0,3.937008,,,1054.3612919417,5.577428,1.3645334,0,0,5,0,10.813,1054.3612919417,3.937008,2.9751302,0,-1.342164,-0.223694,0,103.8, -2.4, -9.3,0,0,1024,1024,1123,1024,0,0,15,0,106.1,0,0,98,3.593,3.58,3.615,0,0,0,10.903,55.76,1054.3612919417,3.937008,6,P-GPS,
13700,2025-01-13 04:23:36,0,0,3.937008,,,1054.3612919417,5.577428,1.11847,0,0,5,0,10.813,1054.3612919417,3.937008,2.9751302,0,-1.11847,0,0,103.7, -1.3, -8.6,0,0,1024,1024,1145,1024,0,0,18,0,106.1,0,0,98,3.593,3.58,3.615,0,0,0,10.903,55.76,1054.3612919417,3.937008,6,P-GPS,
13800,2025-01-13 04:23:37,0,0,3.937008,,,1054.3612919417,5.577428,0.894776,0,0,5,0,10.813,1054.3612919417,3.937008,2.9751302,0,-0.894776,0,0,103.3, 0.8, -7.9,0,0,1024,1024,1169,1024,0,0,22,0,106.1,0,0,98,3.593,3.58,3.615,0,0,0,10.903,55.76,1054.3612919417,3.937008,6,P-GPS,
13900,2025-01-13 04:23:37,0,0,3.937008,,,1054.3612919417,5.577428,0.671082,0,0,5,0,10.813,1054.3612919417,3.937008,2.9751302,0,-0.671082,0,-0.223694,103.1, 1.2, -8,0,0,1024,1024,1191,1024,0,0,25,0,106.1,0,0,98,3.593,3.58,3.615,0,0,0,10.903,55.76,1054.3612919417,3.937008,6,P-GPS,
14000,2025-01-13 04:23:37,0,0,3.937008,,,1054.3612919417,5.577428,0.223694,0,0,5,0,10.813,1054.3612919417,3.937008,2.9751302,0,-0.223694,0,-0.223694,102.7, 0.6, -6.6,0,0,1024,1024,1209,1024,0,0,28,0,106.1,0,0,98,3.593,3.58,3.615,0,0,0,10.903,55.76,1054.3612919417,3.937008,6,P-GPS,
14100,2025-01-13 04:23:37,0,0,3.937008,,,1054.3612919417,5.905512,0.223694,0,0,5,0,10.729,1054.3612919417,3.937008,2.9751302,0,-0.223694,0,-0.447388,102.8, -0.1, -4.8,0,0,1024,1024,1230,1024,0,0,31,0,106.1,0,0,97,3.559,3.543,3.574,0,0,0,11.504,55.94,1054.3612919417,3.937008,6,P-GPS,
14200,2025-01-13 04:23:37,0,0,4.265092,,,1054.6893759417,5.905512,0,0,0,5,0,10.729,1054.6893759417,4.265092,2.9751302,0,0,0,-0.894776,103.4, -1.2, -2.9,0,0,1024,1024,1245,1024,0,0,33,0,106.1,0,0,97,3.559,3.543,3.574,0,0,0,11.504,55.94,1054.6893759417,4.265092,6,P-GPS,
14300,2025-01-13 04:23:37,0,0,4.265092,,,1054.6893759417,6.233596,0,0,0,5,0,10.729,1054.6893759417,4.265092,2.9751302,0,0,0,-1.11847,104.2, -1.8, -1.6,0,0,1024,1024,1257,1024,0,0,35,0,106.1,0,0,97,3.559,3.543,3.574,0,0,0,11.504,55.94,1054.6893759417,4.265092,6,P-GPS,
14400,2025-01-13 04:23:37,0,0,4.593176,,,1055.0174599417,6.233596,0,0,0,5,0,10.729,1055.0174599417,4.593176,2.9751302,0,0,0,-1.342164,104.8, -1.8, -1.2,0,0,1024,1024,1256,1024,0,0,35,0,106.1,0,0,97,3.559,3.543,3.574,0,0,0,11.504,55.94,1055.0174599417,4.593176,6,P-GPS,
14500,2025-01-13 04:23:37,0,0,4.92126,,,1055.3455439417,6.56168,0,0,0,5,0,10.729,1055.3455439417,4.92126,2.9751302,0,0,0,-1.565858,105, -1.1, -1.4,0,0,1024,1024,1256,1024,0,0,35,0,106.1,0,0,97,3.559,3.543,3.574,0,0,0,11.504,55.94,1055.3455439417,4.92126,6,P-GPS,
14600,2025-01-13 04:23:37,0,0,4.92126,,,1055.3455439417,6.889764,0,0,0,5,0,10.729,1055.3455439417,4.92126,2.9751302,0,0,0,-1.789552,105.2, -0.8, -3.1,0,0,1024,1024,1240,1024,0,0,33,0,106.1,0,0,97,3.559,3.543,3.574,0,0,0,11.504,55.94,1055.3455439417,4.92126,6,P-GPS,
14700,2025-01-13 04:23:37,0,0,5.249344,,,1055.6736279417,7.217848,0,0,0,5,0,10.729,1055.6736279417,5.249344,2.9751302,0,0,0,-1.789552,105, -1.1, -4.5,0,0,1024,1024,1133,1024,0,0,17,0,106.1,0,0,97,3.559,3.543,3.574,0,0,0,11.504,55.94,1055.6736279417,5.249344,6,P-GPS,
14800,2025-01-13 04:23:37,0,0,5.577428,,,1056.0017119417,7.545932,0,0,0,5,0,10.729,1056.0017119417,5.577428,2.9751302,0,0,0,-1.789552,104.8, -2.2, -4,0,0,1024,1024,1024,1024,0,0,0,0,106.1,0,0,97,3.559,3.543,3.574,0,0,0,11.504,55.94,1056.0017119417,5.577428,6,P-GPS,
14900,2025-01-13 04:23:38,0,0,5.905512,,,1056.3297959417,7.545932,0,0,0,5,0,10.729,1056.3297959417,5.905512,2.9751302,0,0,0,-1.342164,104.8, -2.6, -3.1,0,0,1024,1024,1024,1024,0,0,0,0,106.1,0,0,97,3.559,3.543,3.574,0,0,0,11.504,55.94,1056.3297959417,5.905512,6,P-GPS,
15000,2025-01-13 04:23:38,0,0,5.905512,,,1056.3297959417,7.874016,0,0,0,5,0,10.729,1056.3297959417,5.905512,2.9751302,0,0,0,-0.894776,104.9, -2.5, -2.7,0,0,1024,1024,1024,1116,0,0,0,14,106.1,0,0,97,3.559,3.543,3.574,0,0,0,11.504,55.94,1056.3297959417,5.905512,6,P-GPS,
15100,2025-01-13 04:23:38,0,0,6.233596,,,1056.6578799417,7.874016,0,0,0,5,0,10.615,1056.6578799417,6.233596,2.9751302,0,0,0,-0.447388,105, -2.3, -1.8,0,0,1024,1024,1024,1299,0,0,0,42,106.1,0,0,97,3.626,3.64,3.679,0,0,0,13.062,56.3,1056.6578799417,6.233596,6,P-GPS,
15200,2025-01-13 04:23:38,0,0,6.233596,,,1056.6578799417,7.874016,0,0,0,5,0,10.615,1056.6578799417,6.233596,2.9751302,0,0,0,0,105.3, -2.1, -1.6,0,0,1024,1024,1024,1331,0,0,0,47,106.4,0,0,97,3.626,3.64,3.679,0,0,0,13.062,56.3,1056.6578799417,6.233596,6,P-GPS,
15300,2025-01-13 04:23:38,0,0,6.233596,,,1056.6578799417,7.874016,0,0,0,5,0,10.615,1056.6578799417,6.233596,2.9751302,0,0,0,0,105.8, -2.5, -2.8,0,0,1024,1024,1024,1324,0,0,0,45,107.1,0,0,97,3.626,3.64,3.679,0,0,0,13.062,56.3,1056.6578799417,6.233596,6,P-GPS,
15400,2025-01-13 04:23:38,0,0,6.233596,,,1056.6578799417,7.874016,0,0,0,5,0,10.615,1056.6578799417,6.233596,2.9751302,0,0,0,0,106.6, -2.6, -2.9,0,0,1024,1024,1024,1318,0,0,0,45,108.3,0,0,97,3.626,3.64,3.679,0,0,0,13.062,56.3,1056.6578799417,6.233596,6,P-GPS,
15500,2025-01-13 04:23:38,0,0,6.233596,,,1056.6578799417,7.874016,0,0,0,5,0,10.615,1056.6578799417,6.233596,2.9751302,0,0,0,0.223694,108, -2.1, -1.9,0,0,1024,1024,1024,1333,0,0,0,47,109.7,0,0,97,3.626,3.64,3.679,0,0,0,13.062,56.3,1056.6578799417,6.233596,6,P-GPS,
15600,2025-01-13 04:23:38,0,0,6.233596,,,1056.6578799417,7.545932,0,0,0,5,0,10.615,1056.6578799417,6.233596,2.9751302,0,0,0,0,109.2, -1.3, -1.7,0,0,1024,1024,1024,1321,0,0,0,45,111.1,0,0,97,3.626,3.64,3.679,0,0,0,13.062,56.3,1056.6578799417,6.233596,6,P-GPS,
15700,2025-01-13 04:23:38,0,0,6.233596,,,1056.6578799417,7.545932,0,0,0,5,0,10.615,1056.6578799417,6.233596,2.9751302,0,0,0,0,110.6, -1.4, -1.6,0,0,1024,1024,1024,1321,0,0,0,45,112.5,0,0,97,3.626,3.64,3.679,0,0,0,13.062,56.3,1056.6578799417,6.233596,6,P-GPS,
15800,2025-01-13 04:23:39,0,0,6.233596,,,1056.6578799417,7.545932,0,0,0,5,0,10.615,1056.6578799417,6.233596,2.9751302,0,0,0,0,112, -1.5, -1.1,0,0,1024,1024,1024,1323,0,0,0,45,113.9,0,0,97,3.626,3.64,3.679,0,0,0,13.062,56.3,1056.6578799417,6.233596,6,P-GPS,
15900,2025-01-13 04:23:39,0,0,5.905512,,,1056.3297959417,7.545932,0,0,0,5,0,10.615,1056.6578799417,6.233596,2.9751302,0,0,0,0,113.4, -1.1, -0.8,0,0,1024,1024,1024,1387,0,0,0,55,115.3,0,0,97,3.626,3.64,3.679,0,0,0,13.062,56.3,1056.3297959417,5.905512,6,P-GPS,
16000,2025-01-13 04:23:39,0,0,5.905512,,,1056.3297959417,7.545932,0,0,0,5,0,10.615,1056.6578799417,6.233596,2.9751302,0,0,0,0,115.2, -1, -1.5,0,0,1024,1024,1024,1332,0,0,0,47,116.8,0,0,97,3.626,3.64,3.679,0,0,0,13.062,56.3,1056.3297959417,5.905512,6,P-GPS,
16100,2025-01-13 04:23:39,0,0,5.905512,,,1056.3297959417,7.545932,0,0,0,5,0,10.868,1056.6578799417,6.233596,2.9751302,0,0,0,0,116.7, -0.3, -0.3,0,0,1024,1024,1024,1331,0,0,0,47,118.4,0,0,97,3.572,3.558,3.588,0,0,0,9.577,56.48,1056.3297959417,5.905512,6,P-GPS,
16200,2025-01-13 04:23:39,0,0,5.905512,,,1056.3297959417,7.545932,0,0,0,5,0,10.868,1056.6578799417,6.233596,2.9751302,0,0,0,0,118.3, -0.8, -0.1,0,0,1024,1024,1024,1422,0,0,0,60,119.9,0,0,97,3.572,3.558,3.588,0,0,0,9.577,56.48,1056.3297959417,5.905512,6,P-GPS,
16300,2025-01-13 04:23:39,0,0,5.905512,,,1056.3297959417,7.545932,0,0,0,5,0,10.868,1056.6578799417,6.233596,2.9751302,0,0,0,0,120.1, -2, -3.2,0,0,1024,1024,982,1604,0,0,-6,88,121.4,0,0,97,3.572,3.558,3.588,0,0,0,9.577,56.48,1056.3297959417,5.905512,6,P-GPS,
16400,2025-01-13 04:23:39,0,0,5.905512,,,1056.3297959417,7.545932,0,0,0,5,0,10.868,1056.6578799417,6.233596,2.9751302,0,0,0,0,121.7, -2.8, -4.4,0,0,1024,1024,965,1677,0,0,-9,99,123.2,0,0,97,3.572,3.558,3.588,0,0,0,9.577,56.48,1056.3297959417,5.905512,6,P-GPS,
16500,2025-01-13 04:23:39,0,0,5.905512,,,1056.3297959417,7.545932,0,0,0,5,0,10.868,1056.6578799417,6.233596,2.9751302,0,0,0,0,123.4, -0.8, -3.7,0,0,1024,1024,969,1679,0,0,-8,99,125.5,0,0,97,3.572,3.558,3.588,0,0,0,9.577,56.48,1056.3297959417,5.905512,6,P-GPS,
16600,2025-01-13 04:23:39,0,0,6.233596,,,1056.6578799417,7.545932,0,0,0,5,0,10.868,1056.6578799417,6.233596,2.9751302,0,0,0,0,125.8, 0.2, -3.3,0,0,1024,1024,977,1680,0,0,-7,99,128.4,0,0,97,3.572,3.558,3.588,0,0,0,9.577,56.48,1056.6578799417,6.233596,6,P-GPS,
16700,2025-01-13 04:23:39,0,0,6.233596,,,1056.6578799417,7.545932,0,0,0,5,0,10.868,1056.6578799417,6.233596,2.9751302,0,0,0,0,128.7, -0.5, -3.1,0,0,1024,1024,1024,1460,0,0,0,66,131.5,0,0,97,3.572,3.558,3.588,0,0,0,9.577,56.48,1056.6578799417,6.233596,6,P-GPS,
16800,2025-01-13 04:23:40,0,0,5.905512,,,1056.3297959417,7.545932,0,0,0,5,0,10.868,1056.6578799417,6.233596,2.9751302,0,0,0,0,131.7, -1.3, -3.6,0,0,1024,1024,1024,1460,0,0,0,66,134.6,0,0,97,3.572,3.558,3.588,0,0,0,9.577,56.48,1056.3297959417,5.905512,6,P-GPS,
16900,2025-01-13 04:23:40,0,0,5.905512,,,1056.3297959417,7.545932,0,0,0,5,0,10.868,1056.6578799417,6.233596,2.9751302,0,0,0,0,134.3, -0.7, -4.6,0,0,1024,1024,1024,1024,0,0,0,0,137.4,0,0,97,3.572,3.558,3.588,0,0,0,9.577,56.48,1056.3297959417,5.905512,6,P-GPS,
17000,2025-01-13 04:23:40,0,0,5.905512,,,1056.3297959417,7.545932,0,0,0,5,0,10.868,1056.6578799417,6.233596,2.9751302,0,0,0,0,136, -0.4, -3.6,0,0,1024,1024,1024,1024,0,0,0,0,138.9,0,0,97,3.572,3.558,3.588,0,0,0,9.577,56.48,1056.3297959417,5.905512,6,P-GPS,
17100,2025-01-13 04:23:40,0,0,5.905512,,,1056.3297959417,7.545932,0,0,0,5,0,10.731,1056.6578799417,6.233596,2.9751302,0,0,0,0,137.3, -0.1, -2.8,0,0,1024,1024,1024,1024,0,0,0,0,139.6,0,0,97,3.581,3.57,3.602,0,0,0,11.817,56.66,1056.3297959417,5.905512,6,P-GPS,
17200,2025-01-13 04:23:40,0,0,5.905512,,,1056.3297959417,7.545932,0,0,0,5,0,10.731,1056.6578799417,6.233596,2.9751302,0,0,0,0,138.1, -0.1, -2.3,0,0,1024,1024,1024,632,0,0,0,-59,139.6,0,0,97,3.581,3.57,3.602,0,0,0,11.817,56.66,1056.3297959417,5.905512,6,P-GPS,
17300,2025-01-13 04:23:40,0,0,5.905512,,,1056.3297959417,7.545932,0,0,0,5,0,10.731,1056.6578799417,6.233596,2.9751302,0,0,0,0,137.8, -1.1, -1.8,0,0,1024,1024,1024,364,0,0,0,-100,139.2,0,0,97,3.581,3.57,3.602,0,0,0,11.817,56.66,1056.3297959417,5.905512,6,P-GPS,
17400,2025-01-13 04:23:40,0,0,5.905512,,,1056.3297959417,7.545932,0,0,0,5,0,10.731,1056.6578799417,6.233596,2.9751302,0,0,0,0,136.6, -1.4, -1.5,0,0,1024,1024,1024,373,0,0,0,-99,137.6,0,0,97,3.581,3.57,3.602,0,0,0,11.817,56.66,1056.3297959417,5.905512,6,P-GPS,
17500,2025-01-13 04:23:40,0,0,5.905512,,,1056.3297959417,7.545932,0,0,0,5,0,10.731,1056.6578799417,6.233596,2.9751302,0,0,0,0,134.7, -1.4, -1.4,0,0,1024,1024,1024,460,0,0,0,-85,135,0,0,97,3.581,3.57,3.602,0,0,0,11.817,56.66,1056.3297959417,5.905512,6,P-GPS,
17600,2025-01-13 04:23:40,0,0,5.905512,,,1056.3297959417,7.545932,0,0,0,5,0,10.731,1056.6578799417,6.233596,2.9751302,0,0,0,0,132.2, -1.6, -1.8,0,0,1024,1024,1024,1024,0,0,0,0,132,0,0,97,3.581,3.57,3.602,0,0,0,11.817,56.66,1056.3297959417,5.905512,6,P-GPS,
17700,2025-01-13 04:23:40,0,0,5.905512,,,1056.3297959417,7.545932,0,0,0,5,0,10.731,1056.6578799417,6.233596,2.9751302,0,0,0,0,130.1, -0.9, -1.9,0,0,1024,1024,1024,1024,0,0,0,0,129.5,0,0,97,3.581,3.57,3.602,0,0,0,11.817,56.66,1056.3297959417,5.905512,6,P-GPS,
17800,2025-01-13 04:23:41,0,0,5.905512,,,1056.3297959417,7.545932,0,0,0,5,0,10.731,1056.6578799417,6.233596,2.9751302,0,0,0,0,128.3, -0.7, -0.9,0,0,1094,1024,1024,1024,11,0,0,0,128.2,0,0,97,3.581,3.57,3.602,0,0,0,11.817,56.66,1056.3297959417,5.905512,6,P-GPS,
17900,2025-01-13 04:23:41,0,0,5.905512,,,1056.3297959417,7.545932,0,0,0,5,0,10.731,1056.6578799417,6.233596,2.9751302,0,0,0,0,127.2, -1.1, -0.6,0,0,1354,1024,1024,1024,50,0,0,0,127.8,0,0,97,3.581,3.57,3.602,0,0,0,11.817,56.66,1056.3297959417,5.905512,6,P-GPS,
18000,2025-01-13 04:23:41,0,0,5.905512,,,1056.3297959417,7.545932,0,0,0,5,0,10.731,1056.6578799417,6.233596,2.9751302,0,0,0,0,127, -1.1, -1.2,0,0,1354,1024,1024,1024,50,0,0,0,127.8,0,0,97,3.581,3.57,3.602,0,0,0,11.817,56.66,1056.3297959417,5.905512,6,P-GPS,
18100,2025-01-13 04:23:41,0,0,5.905512,,,1056.3297959417,7.545932,0,0,0,5,0,10.744,1056.6578799417,6.233596,2.9751302,0,0,0,0,126.9, -5, -1.8,0,0,1462,1024,1024,1024,66,0,0,0,127.8,0,0,97,3.579,3.568,3.599,0,0,0,11.299,56.84,1056.3297959417,5.905512,6,P-GPS,
18200,2025-01-13 04:23:41,0,0,5.905512,,,1056.3297959417,7.545932,0,0,0,5,0,10.744,1056.6578799417,6.233596,2.9751302,0,0,0,0,127, -14.1, -1.7,0,0,1466,1024,1024,1024,67,0,0,0,127.8,0,0,97,3.579,3.568,3.599,0,0,0,11.299,56.84,1056.3297959417,5.905512,6,P-GPS,
18300,2025-01-13 04:23:41,0,0,5.905512,,,1056.3297959417,7.545932,0.6263432,0,0,5,0,10.744,1056.6578799417,6.233596,2.9751302,0,-0.447388,0.447388,0,127.2, -19.4, -2.2,0,0,1466,1024,1024,1024,67,0,0,0,127.8,0,0,97,3.579,3.568,3.599,0,0,0,11.299,56.84,1056.3297959417,5.905512,6,P-GPS,
18400,2025-01-13 04:23:41,0,0,5.905512,,,1056.3297959417,7.545932,1.2974252,0,0,5,0,10.744,1056.6578799417,6.233596,2.9751302,0,-0.671082,1.11847,0,127.3, -20.2, -1.6,0,0,1458,1024,1024,1024,66,0,0,0,127.8,0,0,97,3.579,3.568,3.599,0,0,0,11.299,56.84,1056.3297959417,5.905512,6,P-GPS,
18500,2025-01-13 04:23:41,0,0,5.905512,,,1056.3297959417,7.545932,2.1027236,0,0,5,0,10.744,1056.6578799417,6.233596,2.9751302,0,-1.11847,1.789552,0,127.4, -19.6, -2.3,0,0,1276,1024,1024,1024,38,0,0,0,127.8,0,0,97,3.579,3.568,3.599,0,0,0,11.299,56.84,1056.3297959417,5.905512,6,P-GPS,
18600,2025-01-13 04:23:41,0,0,5.905512,,,1056.3297959417,7.545932,2.908022,0,0,5,0,10.744,1056.6578799417,6.233596,2.9751302,0,-1.565858,2.460634,0,127.3, -17.2, -1.9,0,0,1024,1024,1024,1024,0,0,0,0,127.8,0,0,97,3.579,3.568,3.599,0,0,0,11.299,56.84,1056.3297959417,5.905512,6,P-GPS,
18700,2025-01-13 04:23:41,0,0,5.905512,,,1056.3297959417,7.545932,3.4225182,0,0,5,0,10.744,1056.6578799417,6.233596,3.4225182,0,-1.789552,2.908022,0,127.5, -6.5, -0.6,0,0,1024,1024,1024,1024,0,0,0,0,127.8,0,0,97,3.579,3.568,3.599,0,0,0,11.299,56.84,1056.3297959417,5.905512,6,P-GPS,
18800,2025-01-13 04:23:42,0,0,5.905512,,,1056.3297959417,7.545932,3.7133204,0,0,5,0,10.744,1056.6578799417,6.233596,3.7133204,0,-2.013246,3.131716,0,127.3, 11.5, 0.6,0,0,1024,1024,1024,1024,0,0,0,0,127.8,0,0,97,3.579,3.568,3.599,0,0,0,11.299,56.84,1056.3297959417,5.905512,6,P-GPS,
18900,2025-01-13 04:23:42,0,0,5.905512,,,1056.3297959417,7.545932,2.908022,0,0,5,0,10.744,1056.6578799417,6.233596,3.7133204,0,-1.565858,2.460634,0,127.3, 17.3, 0,0,0,1024,1024,1024,1024,0,0,0,0,127.8,0,0,97,3.579,3.568,3.599,0,0,0,11.299,56.84,1056.3297959417,5.905512,6,P-GPS,
19000,2025-01-13 04:23:42,0,0,5.905512,,,1056.3297959417,7.545932,2.1027236,0,0,5,0,10.744,1056.6578799417,6.233596,3.7133204,0,-1.11847,1.789552,0,127.1, 11.6, -0.4,0,0,1024,1024,1024,1024,0,0,0,0,127.8,0,0,97,3.579,3.568,3.599,0,0,0,11.299,56.84,1056.3297959417,5.905512,6,P-GPS,
19100,2025-01-13 04:23:42,0,0,5.905512,,,1056.3297959417,7.545932,1.8119214,0,0,5,0,10.678,1056.6578799417,6.233596,3.7133204,0,-0.894776,1.565858,0,127, 8.2, 0.1,0,0,1024,1024,1111,1024,0,0,13,0,127.8,0,0,97,3.561,3.548,3.579,0,0,0,11.783,57.02,1056.3297959417,5.905512,6,P-GPS,
19200,2025-01-13 04:23:42,0,0,5.905512,,,1056.3297959417,7.545932,1.2974252,0,0,5,0,10.678,1056.6578799417,6.233596,3.7133204,0,-0.671082,1.11847,0,127, 7.6, 0,0,0,1024,1024,1111,1024,0,0,13,0,127.8,0,0,97,3.561,3.548,3.579,0,0,0,11.783,57.02,1056.3297959417,5.905512,6,P-GPS,
19300,2025-01-13 04:23:42,0,0,5.905512,,,1056.3297959417,7.545932,1.006623,0,0,5,0,10.678,1056.6578799417,6.233596,3.7133204,0,-0.447388,0.894776,0,126.8, 5.8, -0.4,0,0,1024,1024,1235,1024,0,0,32,0,127.8,0,0,97,3.561,3.548,3.579,0,0,0,11.783,57.02,1056.3297959417,5.905512,6,P-GPS,
19400,2025-01-13 04:23:42,0,0,5.905512,,,1056.3297959417,7.545932,0.7158208,0,0,5,0,10.678,1056.6578799417,6.233596,3.7133204,0,-0.223694,0.671082,-0.223694,126.8, 4.4, -1.9,0,0,1024,1024,1298,1024,0,0,42,0,127.8,0,0,97,3.561,3.548,3.579,0,0,0,11.783,57.02,1056.3297959417,5.905512,6,P-GPS,
19500,2025-01-13 04:23:42,0,0,6.233596,,,1056.6578799417,7.545932,0.671082,0,0,5,0,10.678,1056.6578799417,6.233596,3.7133204,0,0,0.671082,-0.671082,126.5, 3.3, -0.6,0,0,1024,1024,1324,1024,0,0,45,0,127.8,0,0,97,3.561,3.548,3.579,0,0,0,11.783,57.02,1056.6578799417,6.233596,6,P-GPS,
19600,2025-01-13 04:23:42,0,0,6.233596,,,1056.6578799417,7.874016,0.447388,0,0,5,0,10.678,1056.6578799417,6.233596,3.7133204,0,0,0.447388,-1.342164,126.5, 2.5, 0.3,0,0,1024,1024,1324,1024,0,0,45,0,127.8,0,0,97,3.561,3.548,3.579,0,0,0,11.783,57.02,1056.6578799417,6.233596,6,P-GPS,
19700,2025-01-13 04:23:42,0,0,6.56168,,,1056.9859639417,8.2021,0.447388,0,0,5,0,10.678,1056.9859639417,6.56168,3.7133204,0,0,0.447388,-2.013246,126.8, 2.6, -0.6,0,0,1024,1024,1323,1024,0,0,45,0,127.8,0,0,97,3.561,3.548,3.579,0,0,0,11.783,57.02,1056.9859639417,6.56168,6,P-GPS,
19800,2025-01-13 04:23:43,0,0,6.889764,,,1057.3140479417,8.530184,0.447388,0,0,5,0,10.678,1057.3140479417,6.889764,3.7133204,0,0,0.447388,-2.460634,126.8, 2.7, 0.1,0,0,1024,1024,1322,1024,0,0,45,0,127.8,0,0,97,3.561,3.548,3.579,0,0,0,11.783,57.02,1057.3140479417,6.889764,6,P-GPS,
19900,2025-01-13 04:23:43,0,0,7.217848,,,1057.6421319417,8.858268,0.447388,0,0,5,0,10.678,1057.6421319417,7.217848,3.7133204,0,0,0.447388,-2.908022,126.9, 1.8, 1.5,0,0,1024,1024,1321,1024,0,0,45,0,127.8,0,0,97,3.561,3.548,3.579,0,0,0,11.783,57.02,1057.6421319417,7.217848,6,P-GPS,
20000,2025-01-13 04:23:43,0,0,7.874016,,,1058.2982999417,9.514436,0.223694,0,0,5,0,10.678,1058.2982999417,7.874016,3.7133204,0,0,0.223694,-3.131716,127.3, 0.6, 1.3,0,0,1024,1024,1321,1024,0,0,45,0,127.8,0,0,97,3.561,3.548,3.579,0,0,0,11.783,57.02,1058.2982999417,7.874016,6,P-GPS,
20100,2025-01-13 04:23:43,0,0,8.2021,,,1058.6263839417,9.84252,0.223694,0,0,5,0,10.586,1058.6263839417,8.2021,3.7133204,0,0,0.223694,-3.131716,127.3, 0.7, 0.9,0,0,1024,1024,1321,1024,0,0,45,0,127.8,0,0,97,3.469,3.463,3.502,0,0,0,13.338,57.2,1058.6263839417,8.2021,6,P-GPS,
20200,2025-01-13 04:23:43,0,0,8.530184,,,1058.9544679417,10.498688,0.3131716,0,0,5,0,10.586,1058.9544679417,8.530184,3.7133204,0,0.223694,0.223694,-3.131716,127.2, 1.6, 1.5,0,0,1024,1024,1321,1024,0,0,45,0,127.8,0,0,97,3.469,3.463,3.502,0,0,0,13.338,57.2,1058.9544679417,8.530184,6,P-GPS,
20300,2025-01-13 04:23:43,0,0,9.186352,,,1059.6106359417,10.826772,0.3131716,0,0,5,0,10.586,1059.6106359417,9.186352,3.7133204,0,0.223694,0.223694,-3.131716,127.2, 1.3, 2.2,0,0,1024,1024,1321,1024,0,0,45,0,127.8,0,0,97,3.469,3.463,3.502,0,0,0,13.338,57.2,1059.6106359417,9.186352,6,P-GPS,
20400,2025-01-13 04:23:43,0,0,9.514436,,,1059.9387199417,11.48294,0.3131716,0,0,5,0,10.586,1059.9387199417,9.514436,3.7133204,0,0.223694,0.223694,-3.131716,127.4, 1.5, 3,0,0,1024,1024,1321,1024,0,0,45,0,127.8,0,0,97,3.469,3.463,3.502,0,0,0,13.338,57.2,1059.9387199417,9.514436,6,P-GPS,
20500,2025-01-13 04:23:43,0,0,10.170604,,,1060.5948879417,11.811024,0.3131716,0,0,5,0,10.586,1060.5948879417,10.170604,3.7133204,0,0.223694,0.223694,-3.131716,127.4, 0.5, 3.5,0,0,1024,1024,1320,1024,0,0,45,0,127.8,0,0,97,3.469,3.463,3.502,0,0,0,13.338,57.2,1060.5948879417,10.170604,6,P-GPS,
20600,2025-01-13 04:23:43,0,0,10.498688,,,1060.9229719417,12.139108,0.3131716,0,0,5,0,10.586,1060.9229719417,10.498688,3.7133204,0,0.223694,0.223694,-2.908022,127.5, 1.4, 4.7,0,0,1024,1024,1317,1024,0,0,44,0,127.8,0,0,97,3.469,3.463,3.502,0,0,0,13.338,57.2,1060.9229719417,10.498688,6,P-GPS,
20700,2025-01-13 04:23:43,0,0,11.154856,,,1061.5791399417,12.795276,0.3131716,0,0,5,0,10.586,1061.5791399417,11.154856,3.7133204,0,0.223694,0.223694,-2.908022,127.7, 0.7, 5.8,0,0,1024,1024,1316,1024,0,0,44,0,127.8,0,0,97,3.469,3.463,3.502,0,0,0,13.338,57.2,1061.5791399417,11.154856,6,P-GPS,
20800,2025-01-13 04:23:44,0,0,11.48294,,,1061.9072239417,13.12336,0,0,0,5,0,10.586,1061.9072239417,11.48294,3.7133204,0,0,0,-2.684328,127.8, 0.1, 4.5,0,0,1024,1024,1316,1024,0,0,44,0,127.8,0,0,97,3.469,3.463,3.502,0,0,0,13.338,57.2,1061.9072239417,11.48294,6,P-GPS,
20900,2025-01-13 04:23:44,0,0,11.811024,,,1062.2353079417,13.451444,0,0,0,5,0,10.586,1062.2353079417,11.811024,3.7133204,0,0,0,-2.684328,127.9, 0.9, 2.6,0,0,1024,1024,1315,1024,0,0,44,0,127.8,0,0,97,3.469,3.463,3.502,0,0,0,13.338,57.2,1062.2353079417,11.811024,6,P-GPS,
21000,2025-01-13 04:23:44,0,0,12.139108,,,1062.5633919417,14.107612,0,0,0,5,0,10.586,1062.5633919417,12.139108,3.7133204,0,0,0,-2.684328,127.6, 1.8, 1.7,0,0,1024,1024,1314,1024,0,0,44,0,127.8,0,0,97,3.469,3.463,3.502,0,0,0,13.338,57.2,1062.5633919417,12.139108,6,P-GPS,
21100,2025-01-13 04:23:44,0,0,12.795276,,,1063.2195599417,14.435696,0,0,0,5,0,10.647,1063.2195599417,12.795276,3.7133204,0,0,0,-2.684328,127.5, 1.9, 2.4,0,0,1024,1024,1312,1024,0,0,44,0,127.8,0,0,97,3.545,3.533,3.563,0,0,0,13.987,57.38,1063.2195599417,12.795276,6,P-GPS,
21200,2025-01-13 04:23:44,0,0,13.12336,,,1063.5476439417,14.76378,0.223694,0,0,5,0,10.647,1063.5476439417,13.12336,3.7133204,0,0,0.223694,-2.684328,127.4, 2.8, 3.8,0,0,1024,1024,1310,1024,0,0,43,0,127.8,0,0,97,3.545,3.533,3.563,0,0,0,13.987,57.38,1063.5476439417,13.12336,6,P-GPS,
21300,2025-01-13 04:23:44,0,0,13.451444,,,1063.8757279417,15.419948,0,0,0,5,0,10.647,1063.8757279417,13.451444,3.7133204,0,0,0,-2.460634,127.5, 3.4, 4.3,0,0,1024,1024,1308,1024,0,0,43,0,127.8,0,0,97,3.545,3.533,3.563,0,0,0,13.987,57.38,1063.8757279417,13.451444,6,P-GPS,
21400,2025-01-13 04:23:44,0,0,13.779528,,,1064.2038119417,15.748032,0,0,0,5,0,10.647,1064.2038119417,13.779528,3.7133204,0,0,0,-2.460634,127.8, 3.1, 3,0,0,1024,1024,1306,1024,0,0,43,0,127.8,0,0,97,3.545,3.533,3.563,0,0,0,13.987,57.38,1064.2038119417,13.779528,6,P-GPS,
21500,2025-01-13 04:23:44,0,0,14.107612,,,1064.5318959417,16.076116,0.223694,0,0,5,0,10.647,1064.5318959417,14.107612,3.7133204,0,0,-0.223694,-2.460634,127.8, 2, 1.7,0,0,1024,1024,1306,1024,0,0,43,0,127.8,0,0,97,3.545,3.533,3.563,0,0,0,13.987,57.38,1064.5318959417,14.107612,6,P-GPS,
21600,2025-01-13 04:23:44,0,0,14.76378,,,1065.1880639417,16.732284,0.223694,0,0,5,0,10.647,1065.1880639417,14.76378,3.7133204,0,0,-0.223694,-2.460634,127.5, 0.3, 0.9,0,0,1024,1024,1305,1024,0,0,43,0,127.8,0,0,97,3.545,3.533,3.563,0,0,0,13.987,57.38,1065.1880639417,14.76378,6,P-GPS,
21700,2025-01-13 04:23:44,0,0,15.091864,,,1065.5161479417,17.060368,0.223694,0,0,5,0,10.647,1065.5161479417,15.091864,3.7133204,0,0,-0.447388,-2.460634,127.6, -1.1, -1.6,0,0,1024,1024,1299,1024,0,0,42,0,127.8,0,0,97,3.545,3.533,3.563,0,0,0,13.987,57.38,1065.5161479417,15.091864,6,P-GPS,
21800,2025-01-13 04:23:45,0,0,15.419948,,,1065.8442319417,17.388452,0.223694,0,0,5,0,10.647,1065.8442319417,15.419948,3.7133204,0,0,-0.223694,-2.684328,127, -1.5, -1.5,0,0,1024,1024,1211,1024,0,0,28,0,127.8,0,0,97,3.545,3.533,3.563,0,0,0,13.987,57.38,1065.8442319417,15.419948,6,P-GPS,
21900,2025-01-13 04:23:45,0,0,15.748032,,,1066.1723159417,18.04462,0.223694,0,0,5,0,10.647,1066.1723159417,15.748032,3.7133204,0,0,0,-2.684328,126.8, -0.5, 0.7,0,0,1024,1024,1024,1024,0,0,0,0,127.8,0,0,97,3.545,3.533,3.563,0,0,0,13.987,57.38,1066.1723159417,15.748032,6,P-GPS,
22000,2025-01-13 04:23:45,0,0,16.076116,,,1066.5003999417,18.372704,0.223694,0,0,5,0,10.647,1066.5003999417,16.076116,3.7133204,0,-0.223694,0,-2.23694,127, 0.1, 0.4,0,0,1024,1024,1024,1024,0,0,0,0,127.8,0,0,97,3.545,3.533,3.563,0,0,0,13.987,57.38,1066.5003999417,16.076116,6,P-GPS,
