time(millisecond),datetime(utc),latitude,longitude,height_above_takeoff(feet),height_above_ground_at_drone_location(feet),ground_elevation_at_drone_location(feet),altitude_above_seaLevel(feet),height_sonar(feet),speed(mph),distance(feet),mileage(feet),satellites,gpslevel,voltage(v),max_altitude(feet),max_ascent(feet),max_speed(mph),max_distance(feet), xSpeed(mph), ySpeed(mph), zSpeed(mph), compass_heading(degrees), pitch(degrees), roll(degrees),isPhoto,isVideo,rc_elevator,rc_aileron,rc_throttle,rc_rudder,rc_elevator(percent),rc_aileron(percent),rc_throttle(percent),rc_rudder(percent),gimbal_heading(degrees),gimbal_pitch(degrees),gimbal_roll(degrees),battery_percent,voltageCell1,voltageCell2,voltageCell3,voltageCell4,voltageCell5,voltageCell6,current(A),battery_temperature(f),altitude(feet),ascent(feet),flycStateRaw,flycState,message
0,2025-01-13 04:56:00,0,0,0,Available with any HD 360 subscription,Available with any HD 360 subscription,1052.3978141885,0.328084,0,0,0,15,2,0,1052.3978141885,0,0,0,0,0,0,95.4, -1.8, 1.7,0,0,1024,1024,1024,1024,0,0,0,0,95.9,0,0,99,3.923,3.923,3.928,0,0,0,0,60.08,1052.3978141885,0,41,Motors_Started,
100,2025-01-13 04:56:00,0,0,0,,,1052.3978141885,0.328084,0,0,0,15,2,0,1052.3978141885,0,0,0,0,0,0,95.4, -1.8, 1.7,0,0,1024,1024,1024,1024,0,0,0,0,95.9,0,0,99,3.923,3.923,3.928,0,0,0,0,60.08,1052.3978141885,0,41,Motors_Started,"飛行中. Setting new Return-To-Home altitude to 100m (328 ft). Data Recorder File Index is 12. Setting new Maximum Flight Altitude to 30m (98 ft)"
200,2025-01-13 04:56:00,0,0,0,,,1052.3978141885,0.328084,0,0,0,15,2,0,1052.3978141885,0,0,0,0,0,0,95.4, -1.8, 1.6,0,0,1024,1024,1024,1024,0,0,0,0,95.9,0,0,99,3.923,3.923,3.928,0,0,0,0,60.08,1052.3978141885,0,41,Motors_Started,
300,2025-01-13 04:56:00,0,0,0,,,1052.3978141885,0.328084,0,0,0,15,2,0,1052.3978141885,0,0,0,0,0,0,95.4, -1.8, 1.6,0,0,1024,1024,1024,1024,0,0,0,0,95.9,0,0,99,3.923,3.923,3.928,0,0,0,0,60.08,1052.3978141885,0,41,Motors_Started,
400,2025-01-13 04:56:00,0,0,0,,,1052.3978141885,0.328084,0,0,0,15,2,0,1052.3978141885,0,0,0,0,0,0,95.4, -1.8, 1.6,0,0,1024,1024,1024,1024,0,0,0,0,95.9,0,0,99,3.923,3.923,3.928,0,0,0,0,60.08,1052.3978141885,0,41,Motors_Started,
500,2025-01-13 04:56:01,0,0,0,,,1052.3978141885,0.328084,0,0,0,15,2,0,1052.3978141885,0,0,0,0,0,0,95.4, -1.8, 1.6,0,0,1024,1024,1024,1024,0,0,0,0,95.9,0,0,99,3.923,3.923,3.928,0,0,0,0,60.08,1052.3978141885,0,41,Motors_Started,
600,2025-01-13 04:56:01,0,0,0,,,1052.3978141885,0.328084,0,0,0,15,2,0,1052.3978141885,0,0,0,0,0,0,95.4, -1.8, 1.6,0,0,1024,1024,1024,1024,0,0,0,0,95.9,0,0,99,3.923,3.923,3.928,0,0,0,0,60.08,1052.3978141885,0,41,Motors_Started,
700,2025-01-13 04:56:01,0,0,0,,,1052.3978141885,0.328084,0,0,0,15,2,0,1052.3978141885,0,0,0,0,0,0,95.3, -1.9, 1.6,0,0,1024,1024,1024,1024,0,0,0,0,95.9,0,0,99,3.923,3.923,3.928,0,0,0,0,60.08,1052.3978141885,0,41,Motors_Started,
800,2025-01-13 04:56:01,0,0,0,,,1052.3978141885,0.328084,0,0,0,15,2,0,1052.3978141885,0,0,0,0,0,0,95.3, -1.8, 1.6,0,0,1024,1024,1024,1024,0,0,0,0,95.9,0,0,99,3.923,3.923,3.928,0,0,0,0,60.08,1052.3978141885,0,41,Motors_Started,
900,2025-01-13 04:56:01,0,0,0,,,1052.3978141885,0.328084,0,0,0,15,2,0,1052.3978141885,0,0,0,0,0,0,95.3, -1.8, 1.6,0,0,1024,1024,1024,1024,0,0,0,0,95.9,0,0,99,3.923,3.923,3.928,0,0,0,0,60.08,1052.3978141885,0,41,Motors_Started,
1000,2025-01-13 04:56:01,0,0,0,,,1052.3978141885,0.328084,0,0,0,15,2,0,1052.3978141885,0,0,0,0,0,0,95.3, -1.8, 1.7,0,0,1024,1024,1024,1024,0,0,0,0,95.9,0,0,99,3.923,3.923,3.928,0,0,0,0,60.08,1052.3978141885,0,41,Motors_Started,
1100,2025-01-13 04:56:01,0,0,0,,,1052.3978141885,0.328084,0,0,0,15,2,0,1052.3978141885,0,0,0,0,0,0,95.2, -2, 1.8,0,0,1024,1024,1024,1024,0,0,0,0,96,0,0,99,3.923,3.923,3.928,0,0,0,0,60.08,1052.3978141885,0,41,Motors_Started,
1200,2025-01-13 04:56:01,0,0,0,,,1052.3978141885,0.328084,0,0,0,15,2,0,1052.3978141885,0,0,0,0,0,0,95, -2.1, 2.7,0,0,1024,1024,1024,1024,0,0,0,0,96,0,0,99,3.923,3.923,3.928,0,0,0,0,60.08,1052.3978141885,0,41,Motors_Started,
1300,2025-01-13 04:56:01,0,0,0,,,1052.3978141885,0.328084,0,0,0,15,2,0,1052.3978141885,0,0,0,0,0,0,94.5, -1.8, 3.8,0,0,1024,1024,1024,1024,0,0,0,0,96,0,0,99,3.923,3.923,3.928,0,0,0,0,60.08,1052.3978141885,0,41,Motors_Started,
1400,2025-01-13 04:56:02,0,0,0,,,1052.3978141885,0.328084,0,0,0,15,2,11.785,1052.3978141885,0,0,0,0,0,0,94.4, -2, 3.5,0,0,1024,1024,1024,1024,0,0,0,0,96,0,0,99,3.923,3.923,3.928,0,0,0,3.603,60.08,1052.3978141885,0,41,Motors_Started,
1500,2025-01-13 04:56:02,0,0,0,,,1052.3978141885,0.328084,0,0,0,15,2,11.785,1052.3978141885,0,0,0,0,0,0,94.4, -1.9, 3.1,0,0,1024,1024,1024,1024,0,0,0,0,95.9,0,0,99,3.923,3.923,3.928,0,0,0,3.603,60.08,1052.3978141885,0,11,AutoTakeoff,
1600,2025-01-13 04:56:02,0,0,0,,,1052.3978141885,0.328084,0,0,0,15,2,11.785,1052.3978141885,0,0,0,0,0,0,94.4, -1.9, 3.2,0,0,1024,1024,1024,1024,0,0,0,0,95.9,0,0,99,3.923,3.923,3.928,0,0,0,3.603,60.08,1052.3978141885,0,11,AutoTakeoff,
1700,2025-01-13 04:56:02,0,0,0,,,1052.3978141885,0.328084,0,0,0,15,2,11.785,1052.3978141885,0,0,0,0,0,0,94.4, -1.9, 3.2,0,0,1024,1024,1024,1024,0,0,0,0,95.9,0,0,99,3.923,3.923,3.928,0,0,0,3.603,60.08,1052.3978141885,0,11,AutoTakeoff,
1800,2025-01-13 04:56:02,0,0,0,,,1052.3978141885,0.328084,0,0,0,15,2,11.785,1052.3978141885,0,0,0,0,0,0,94.4, -1.9, 3.3,0,0,1024,1024,1024,1024,0,0,0,0,95.9,0,0,99,3.923,3.923,3.928,0,0,0,3.603,60.08,1052.3978141885,0,11,AutoTakeoff,
1900,2025-01-13 04:56:02,0,0,0,,,1052.3978141885,0.328084,0,0,0,15,2,11.785,1052.3978141885,0,0,0,0,0,0,94.5, -1.6, 3.9,0,0,1024,1024,1024,1024,0,0,0,0,95.9,0,0,99,3.923,3.923,3.928,0,0,0,3.603,60.08,1052.3978141885,0,11,AutoTakeoff,
2000,2025-01-13 04:56:02,0,0,0,,,1052.3978141885,0.328084,0,0,0,15,2,11.785,1052.3978141885,0,0,0,0,0,0,94, -1.2, 5.2,0,0,1024,1024,1024,1024,0,0,0,0,95.9,0,0,99,3.923,3.923,3.928,0,0,0,3.603,60.08,1052.3978141885,0,11,AutoTakeoff,"ビジョンセンサーが遮られています。慎重に飛行してください (Code: 180038)"
2100,2025-01-13 04:56:02,0,0,0,,,1052.3978141885,0.328084,0,0,0,15,2,11.785,1052.3978141885,0,0,0,0,0,0,93.2, -1, 5.4,0,0,1024,1024,1024,1024,0,0,0,0,95.9,0,0,99,3.923,3.923,3.928,0,0,0,3.603,60.08,1052.3978141885,0,11,AutoTakeoff,
2200,2025-01-13 04:56:02,0,0,0,,,1052.3978141885,0.328084,0,0,0,15,2,11.785,1052.3978141885,0,0,0,0,0,0,92.5, -0.7, 4.9,0,0,1024,1024,1024,1024,0,0,0,0,95.8,0,0,99,3.923,3.923,3.928,0,0,0,3.603,60.08,1052.3978141885,0,11,AutoTakeoff,
2300,2025-01-13 04:56:02,0,0,0,,,1052.3978141885,0.328084,0,0,0,15,2,11.785,1052.3978141885,0,0,0,0,0,0,92, -0.2, 3,0,0,1024,1024,1024,1024,0,0,0,0,95.7,0,0,99,3.923,3.923,3.928,0,0,0,3.603,60.08,1052.3978141885,0,11,AutoTakeoff,
2400,2025-01-13 04:56:03,0,0,0,,,1052.3978141885,0.328084,0,0,0,15,2,11.919,1052.3978141885,0,0,0,0,0,0,91.8, 0, 0.6,0,0,1024,1024,1024,1024,0,0,0,0,95.5,0,0,99,3.93,3.922,3.919,0,0,0,3.237,60.08,1052.3978141885,0,11,AutoTakeoff,
2500,2025-01-13 04:56:03,0,0,0,,,1052.3978141885,0.328084,0,0,0,15,2,11.919,1052.3978141885,0,0,0,0,0,-0.223694,91.5, 0.2, -0.8,0,0,1024,1024,1024,1024,0,0,0,0,95.3,0,0,99,3.93,3.922,3.919,0,0,0,3.237,60.08,1052.3978141885,0,11,AutoTakeoff,
2600,2025-01-13 04:56:03,0,0,0,,,1052.3978141885,0.328084,0,0,0,14,2,11.919,1052.3978141885,0,0,0,0,0,-0.447388,91.2, 0.8, -0.7,0,0,1024,1024,1024,1024,0,0,0,0,95.1,0,0,99,3.93,3.922,3.919,0,0,0,3.237,60.08,1052.3978141885,0,11,AutoTakeoff,
2700,2025-01-13 04:56:03,0,0,0,,,1052.3978141885,0.328084,0.223694,0,0,14,2,11.919,1052.3978141885,0,0.223694,0,0,-0.223694,-0.894776,91.1, 0.4, 0.9,0,0,1024,1024,1024,1024,0,0,0,0,94.9,0,0,99,3.93,3.922,3.919,0,0,0,3.237,60.08,1052.3978141885,0,11,AutoTakeoff,
2800,2025-01-13 04:56:03,0,0,0.328084,,,1052.7258981885,0.328084,0.223694,0,0,14,2,11.919,1052.7258981885,0.328084,0.223694,0,0,-0.223694,-0.894776,91.1, -0.9, 1,0,0,1024,1024,1024,1024,0,0,0,0,94.7,0,0,99,3.93,3.922,3.919,0,0,0,3.237,60.08,1052.7258981885,0.328084,11,AutoTakeoff,
2900,2025-01-13 04:56:03,0,0,0.328084,,,1052.7258981885,0.328084,0.223694,0,0,14,2,11.919,1052.7258981885,0.328084,0.223694,0,0,-0.223694,-0.894776,91.3, -1.9, 0,0,0,1024,1024,1024,1024,0,0,0,0,94.5,0,0,99,3.93,3.922,3.919,0,0,0,3.237,60.08,1052.7258981885,0.328084,11,AutoTakeoff,
3000,2025-01-13 04:56:03,0,0,0.656168,,,1053.0539821885,0.656168,0.223694,0,0,16,2,11.919,1053.0539821885,0.656168,0.223694,0,0,-0.223694,-0.894776,91.3, -2.8, -1,0,0,1024,1024,1024,1024,0,0,0,0,94.4,0,0,99,3.93,3.922,3.919,0,0,0,3.237,60.08,1053.0539821885,0.656168,11,AutoTakeoff,
3100,2025-01-13 04:56:03,0,0,0.656168,,,1053.0539821885,0.984252,0.223694,0,0,16,2,11.919,1053.0539821885,0.656168,0.223694,0,0,-0.223694,-0.894776,91.1, -2.6, -0.1,0,0,1024,1024,1024,1024,0,0,0,0,94.3,0,0,99,3.93,3.922,3.919,0,0,0,3.237,60.08,1053.0539821885,0.656168,11,AutoTakeoff,
3200,2025-01-13 04:56:03,0,0,0.656168,,,1053.0539821885,0.984252,0.223694,0,0,16,2,11.919,1053.0539821885,0.656168,0.223694,0,0,-0.223694,-0.894776,91.3, -3.5, -0.6,0,0,1024,1024,1041,1024,0,0,3,0,94.1,0,0,99,3.93,3.922,3.919,0,0,0,3.237,60.08,1053.0539821885,0.656168,11,AutoTakeoff,
3300,2025-01-13 04:56:03,0,0,0.984252,,,1053.3820661885,1.312336,0.223694,0,0,16,2,11.919,1053.3820661885,0.984252,0.223694,0,0,-0.223694,-0.894776,91.1, -4.3, -0.7,0,0,1024,1024,1040,1024,0,0,2,0,94,0,0,99,3.93,3.922,3.919,0,0,0,3.237,60.08,1053.3820661885,0.984252,11,AutoTakeoff,
3400,2025-01-13 04:56:03,0,0,0.984252,,,1053.3820661885,1.312336,0,0,0,15,2,11.239,1053.3820661885,0.984252,0.223694,0,0,0,-0.894776,91, -4, 1.4,0,0,1024,1024,1040,1024,0,0,2,0,93.9,0,0,98,3.734,3.732,3.737,0,0,0,8.863,60.08,1053.3820661885,0.984252,11,AutoTakeoff,
3500,2025-01-13 04:56:04,0,0,1.312336,,,1053.7101501885,1.64042,0,0,0,15,2,11.239,1053.7101501885,1.312336,0.223694,0,0,0,-0.894776,91.4, -3.1, -1,0,0,1024,1024,1040,1024,0,0,2,0,93.9,0,0,98,3.734,3.732,3.737,0,0,0,8.863,60.08,1053.7101501885,1.312336,11,AutoTakeoff,
3600,2025-01-13 04:56:04,0,0,1.312336,,,1053.7101501885,1.64042,0,0,0,16,2,11.239,1053.7101501885,1.312336,0.223694,0,0,0,-0.894776,91.3, -4, -2.9,0,0,1024,1024,1040,1024,0,0,2,0,93.8,0,0,98,3.734,3.732,3.737,0,0,0,8.863,60.08,1053.7101501885,1.312336,11,AutoTakeoff,
3700,2025-01-13 04:56:04,0,0,1.64042,,,1054.0382341885,1.64042,0,0,0,16,2,11.239,1054.0382341885,1.64042,0.223694,0,0,0,-0.894776,91.4, -4.5, -2.1,0,0,1024,1024,1024,1024,0,0,0,0,93.7,0,0,98,3.734,3.732,3.737,0,0,0,8.863,60.08,1054.0382341885,1.64042,11,AutoTakeoff,
3800,2025-01-13 04:56:04,0,0,1.64042,,,1054.0382341885,1.968504,0,0,0,16,2,11.239,1054.0382341885,1.64042,0.223694,0,0,0,-0.894776,91.4, -3.2, 0,0,0,1049,1024,1024,1024,4,0,0,0,93.7,0,0,98,3.734,3.732,3.737,0,0,0,8.863,60.08,1054.0382341885,1.64042,11,AutoTakeoff,
3900,2025-01-13 04:56:04,0,0,1.968504,,,1054.3663181885,1.968504,0,0,0,16,2,11.239,1054.3663181885,1.968504,0.223694,0,0,0,-1.11847,91.3, -3.3, 0,0,0,1184,1024,1024,1024,24,0,0,0,93.6,0,0,98,3.734,3.732,3.737,0,0,0,8.863,60.08,1054.3663181885,1.968504,11,AutoTakeoff,
4000,2025-01-13 04:56:04,0,0,1.968504,,,1054.3663181885,2.296588,0,0,0,17,2,11.239,1054.3663181885,1.968504,0.223694,0,0,0,-1.11847,91, -3.4, -1.7,0,0,1243,1024,1024,1024,33,0,0,0,93.6,0,0,98,3.734,3.732,3.737,0,0,0,8.863,60.08,1054.3663181885,1.968504,11,AutoTakeoff,
4100,2025-01-13 04:56:04,0,0,2.296588,,,1054.6944021885,2.624672,0,0,0,17,2,11.239,1054.6944021885,2.296588,0.223694,0,0,0,-1.342164,90.9, -4.4, -2.5,0,0,1253,1024,1024,1024,35,0,0,0,93.5,0,0,98,3.734,3.732,3.737,0,0,0,8.863,60.08,1054.6944021885,2.296588,11,AutoTakeoff,
4200,2025-01-13 04:56:04,0,0,2.296588,,,1054.6944021885,2.624672,0,0,0,17,2,11.239,1054.6944021885,2.296588,0.223694,0,0,0,-1.11847,91, -6.1, -1.3,0,0,1275,1024,1024,1024,38,0,0,0,93.4,0,0,98,3.734,3.732,3.737,0,0,0,8.863,60.08,1054.6944021885,2.296588,11,AutoTakeoff,
4300,2025-01-13 04:56:04,0,0,2.624672,,,1055.0224861885,2.952756,0,0,0,17,2,11.239,1055.0224861885,2.624672,0.223694,0,0,0,-1.11847,91.1, -7.1, -1,0,0,1308,1024,1024,1024,43,0,0,0,93.4,0,0,98,3.734,3.732,3.737,0,0,0,8.863,60.08,1055.0224861885,2.624672,11,AutoTakeoff,
4400,2025-01-13 04:56:04,0,0,2.952756,,,1055.3505701885,2.952756,0.223694,0,0,18,2,11.134,1055.3505701885,2.952756,0.223694,0,0,0.223694,-1.11847,91.4, -8.2, -0.9,0,0,1334,1024,1024,1024,47,0,0,0,93.3,0,0,98,3.71,3.712,3.721,0,0,0,11.248,60.08,1055.3505701885,2.952756,11,AutoTakeoff,
4500,2025-01-13 04:56:05,0,0,2.952756,,,1055.3505701885,3.28084,0.447388,0,0,18,2,11.134,1055.3505701885,2.952756,0.447388,0,0,0.447388,-1.11847,91.4, -9.2, -1.3,0,0,1334,1024,1024,1024,47,0,0,0,93.3,0,0,98,3.71,3.712,3.721,0,0,0,11.248,60.08,1055.3505701885,2.952756,11,AutoTakeoff,
4600,2025-01-13 04:56:05,0,0,3.28084,,,1055.6786541885,3.28084,0.671082,0,0,18,2,11.134,1055.6786541885,3.28084,0.671082,0,0,0.671082,-0.894776,91.3, -10.6, -1.9,0,0,1366,1024,1024,1024,52,0,0,0,93.2,0,0,98,3.71,3.712,3.721,0,0,0,11.248,60.08,1055.6786541885,3.28084,11,AutoTakeoff,
4700,2025-01-13 04:56:05,0,0,3.28084,,,1055.6786541885,3.608924,1.11847,0,0,18,2,11.134,1055.6786541885,3.28084,1.11847,0,0,1.11847,-0.894776,91.6, -11.6, -2.4,0,0,1366,1024,1024,1024,52,0,0,0,93.2,0,0,98,3.71,3.712,3.721,0,0,0,11.248,60.08,1055.6786541885,3.28084,11,AutoTakeoff,
4800,2025-01-13 04:56:05,0,0,3.608924,,,1056.0067381885,3.608924,1.342164,0,0,19,2,11.134,1056.0067381885,3.608924,1.342164,0,0,1.342164,-0.671082,91.5, -13.5, -0.8,0,0,1362,1024,1024,1024,51,0,0,0,93.2,0,0,98,3.71,3.712,3.721,0,0,0,11.248,60.08,1056.0067381885,3.608924,6,P-GPS,
4900,2025-01-13 04:56:05,0,0,3.608924,,,1056.0067381885,3.608924,1.789552,0,0,19,2,11.134,1056.0067381885,3.608924,1.789552,0,0,1.789552,-0.671082,90.6, -15.3, 0.2,0,0,1358,1024,1024,1024,51,0,0,0,93.2,0,0,98,3.71,3.712,3.721,0,0,0,11.248,60.08,1056.0067381885,3.608924,6,P-GPS,
5000,2025-01-13 04:56:05,0,0,3.608924,,,1056.0067381885,3.937008,2.23694,0,0,20,2,11.134,1056.0067381885,3.608924,2.23694,0,0,2.23694,-0.223694,90.6, -15.1, -1.3,0,0,1355,1024,1024,1024,50,0,0,0,93.2,0,0,98,3.71,3.712,3.721,0,0,0,11.248,60.08,1056.0067381885,3.608924,6,P-GPS,
5100,2025-01-13 04:56:05,0,0,3.608924,,,1056.0067381885,3.937008,2.684328,0,0,20,2,11.134,1056.0067381885,3.608924,2.684328,0,0,2.684328,-0.223694,90.4, -13.3, -1.7,0,0,1353,1024,1024,1024,50,0,0,0,93.2,0,0,98,3.71,3.712,3.721,0,0,0,11.248,60.08,1056.0067381885,3.608924,6,P-GPS,
5200,2025-01-13 04:56:05,0,0,3.608924,,,1056.0067381885,3.937008,3.131716,0,0,19,2,11.134,1056.0067381885,3.608924,3.131716,0,0,3.131716,0,90.4, -13.5, -1.3,0,0,1352,1024,1024,1024,50,0,0,0,93.2,0,0,98,3.71,3.712,3.721,0,0,0,11.248,60.08,1056.0067381885,3.608924,6,P-GPS,
5300,2025-01-13 04:56:05,37.0152321630661,140.149091381745,3.608924,,,1056.0067381885,3.937008,3.579104,0,0,19,2,11.134,1056.0067381885,3.608924,3.579104,0,0,3.579104,0,89.9, -14.4, -1.3,0,0,1347,1024,1024,1024,49,0,0,0,93.2,0,0,98,3.71,3.712,3.721,0,0,0,11.248,60.08,1056.0067381885,3.608924,6,P-GPS,
5400,2025-01-13 04:56:05,37.015232073105,140.149093292344,3.608924,,,1056.0067381885,3.937008,3.802798,0.55756891548,0.55756891548,18,2,11.138,1056.0067381885,3.608924,3.802798,0.55756891548,0,3.802798,0,90, -14.4, -2.1,0,0,1347,1024,1024,1024,49,0,0,0,93.2,0,0,98,3.728,3.726,3.733,0,0,0,10.583,60.26,1056.0067381885,3.608924,6,P-GPS,"GNSSがありません。慎重に飛行してください GNSS信号が微弱です。ホバリングが不安定です。慎重に飛行してください (Code: 30002)"
5500,2025-01-13 04:56:06,37.0152324731337,140.149093979955,3.608924,,,1056.0067381885,3.937008,4.250186,0.76532810848,0.80541669244,18,2,11.138,1056.0067381885,3.608924,4.250186,0.76532810848,0,4.250186,0,89.2, -14.4, -2.4,0,0,1346,1024,1024,1024,49,0,0,0,93.2,0,0,98,3.728,3.726,3.733,0,0,0,10.583,60.26,1056.0067381885,3.608924,6,P-GPS,
5600,2025-01-13 04:56:06,37.0152324147809,140.149096174705,3.608924,,,1056.0067381885,3.937008,4.697574,1.39931763008,1.44515424572,19,2,11.138,1056.0067381885,3.608924,4.697574,1.39931763008,0,4.697574,0,89, -13, -3,0,0,1346,1024,1024,1024,49,0,0,0,93.2,0,0,98,3.728,3.726,3.733,0,0,0,10.583,60.26,1056.0067381885,3.608924,6,P-GPS,
5700,2025-01-13 04:56:06,37.0152333951885,140.149097267661,3.608924,,,1056.0067381885,3.608924,5.144962,1.77265097536,1.92403877548,19,2,11.138,1056.0067381885,3.608924,5.144962,1.77265097536,0,5.144962,0,89.2, -10.9, -3.5,0,0,1338,1024,1024,1024,48,0,0,0,93.2,0,0,98,3.728,3.726,3.733,0,0,0,10.583,60.26,1056.0067381885,3.608924,6,P-GPS,
5800,2025-01-13 04:56:06,37.0152334690076,140.149099645118,3.608924,,,1056.0067381885,3.608924,5.144962,2.45401254572,2.61716871892,20,2,11.138,1056.0067381885,3.608924,5.144962,2.45401254572,0,5.144962,0,89.4, -10.4, -2.4,0,0,1322,1024,1024,1024,45,0,0,0,93.2,0,0,98,3.728,3.726,3.733,0,0,0,10.583,60.26,1056.0067381885,3.608924,6,P-GPS,
5900,2025-01-13 04:56:06,37.0152339260422,140.149100654297,3.608924,,,1056.0067381885,3.937008,5.368656,2.77683407836,2.95516413656,20,2,11.138,1056.0067381885,3.608924,5.368656,2.77683407836,0,5.368656,0,89.4, -10.9, -1.4,0,0,1296,1024,1024,1024,41,0,0,0,93.2,0,0,98,3.728,3.726,3.733,0,0,0,10.583,60.26,1056.0067381885,3.608924,6,P-GPS,
6000,2025-01-13 04:56:06,37.0152340488793,140.149103072469,3.608924,,,1056.0067381885,3.937008,5.59235,3.474573602,3.6610565476,20,2,11.138,1056.0067381885,3.608924,5.59235,3.474573602,0,5.59235,0,89.5, -10.5, -1.9,0,0,1091,1024,1024,1024,10,0,0,0,93.2,0,0,98,3.728,3.726,3.733,0,0,0,10.583,60.26,1056.0067381885,3.608924,6,P-GPS,
6100,2025-01-13 04:56:06,37.0152344694358,140.149104654867,3.608924,,,1056.0067381885,3.937008,5.816044,3.9572835912,4.1469161432,20,4,11.138,1056.0067381885,3.608924,5.816044,3.9572835912,0,5.816044,0,89.1, -7.3, -2.2,0,0,1024,1024,1024,1024,0,0,0,0,93.2,0,0,98,3.728,3.726,3.733,0,0,0,10.583,60.26,1056.0067381885,3.608924,6,P-GPS,"Setting new Maximum Flight Altitude to 145m (476 ft)"
6200,2025-01-13 04:56:06,37.0152346198585,140.149107110874,3.608924,,,1056.0067381885,4.593176,5.816044,4.6690946376,4.864501468,19,4,11.138,1056.0067381885,3.608924,5.816044,4.6690946376,0,5.816044,0,88.7, 4.1, -2.2,0,0,1024,1024,1024,1024,0,0,0,0,93.2,0,0,98,3.728,3.726,3.733,0,0,0,10.583,60.26,1056.0067381885,3.608924,6,P-GPS,
6300,2025-01-13 04:56:06,37.0152353022623,140.149109722313,3.608924,,,1056.0067381885,4.92126,5.368656,5.464403062,5.6649936196,19,4,11.138,1056.0067381885,3.608924,5.816044,5.464403062,0,5.368656,0,87.3, 20.7, -2.5,0,0,1024,1024,1024,1024,0,0,0,0,93.2,0,0,98,3.728,3.726,3.733,0,0,0,10.583,60.26,1056.0067381885,3.608924,6,P-GPS,
6400,2025-01-13 04:56:06,37.0152354818549,140.149111607299,3.608924,,,1056.0067381885,5.249344,4.250186,6.0153217148,6.21801201,19,4,11.095,1056.0067381885,3.608924,5.816044,6.0153217148,0,4.250186,0,85.6, 27.2, -4.5,0,0,1024,1024,1024,1053,0,0,0,4,93.2,0,0,98,3.706,3.708,3.714,0,0,0,10.699,60.26,1056.0067381885,3.608924,6,P-GPS,
6500,2025-01-13 04:56:07,37.0152358439461,140.149113050387,3.608924,,,1056.0067381885,5.249344,3.131716,6.4538387892,6.6586944388,19,4,11.095,1056.0067381885,3.608924,5.816044,6.4538387892,0,3.131716,0,85.3, 22.6, -5.5,0,0,1024,1024,1024,1103,0,0,0,12,93.2,0,0,98,3.706,3.708,3.714,0,0,0,10.699,60.26,1056.0067381885,3.608924,6,P-GPS,
6600,2025-01-13 04:56:07,37.0152360383611,140.149113745919,3.608924,,,1056.0067381885,5.577428,2.013246,6.6668637304,6.8733598,19,4,11.095,1056.0067381885,3.608924,5.816044,6.6668637304,0,2.013246,0,86.5, 9.7, -4.8,0,0,1024,1024,1024,1132,0,0,0,16,93.2,0,0,98,3.706,3.708,3.714,0,0,0,10.699,60.26,1056.0067381885,3.608924,6,P-GPS,
6700,2025-01-13 04:56:07,37.0152365156124,140.149114688596,3.608924,,,1056.0067381885,5.577428,1.565858,6.9730645276,7.1985566608,19,4,11.095,1056.0067381885,3.608924,5.816044,6.9730645276,0,1.565858,0,88.2, 0.2, -1,0,0,1024,1024,1024,1132,0,0,0,16,93.4,0,0,98,3.706,3.708,3.714,0,0,0,10.699,60.26,1056.0067381885,3.608924,6,P-GPS,
6800,2025-01-13 04:56:07,37.015236850996,140.149114971502,3.608924,,,1056.0067381885,5.577428,1.565858,7.0818899904,7.3460632272,18,4,11.095,1056.0067381885,3.608924,5.816044,7.0818899904,0,1.565858,0,89.3, 1.5, 0.2,0,0,1024,1024,1024,1132,0,0,0,16,93.7,0,0,98,3.706,3.708,3.714,0,0,0,10.699,60.26,1056.0067381885,3.608924,6,P-GPS,
6900,2025-01-13 04:56:07,37.0152375236655,140.149116320075,3.608924,,,1056.0067381885,5.577428,1.342164,7.52378633,7.8093178352,18,4,11.095,1056.0067381885,3.608924,5.816044,7.52378633,0,1.342164,0,85.3, 5.5, 0,0,0,1024,1024,1024,1225,0,0,0,30,94.1,0,0,98,3.706,3.708,3.714,0,0,0,10.699,60.26,1056.0067381885,3.608924,6,P-GPS,
7000,2025-01-13 04:56:07,37.0152377441265,140.149116492123,3.608924,,,1056.0067381885,5.249344,1.11847,7.593340138,7.9040684944,18,4,11.095,1056.0067381885,3.608924,5.816044,7.593340138,0,1.11847,0,84.9, 5.4, -1.8,0,0,1024,1024,1024,1272,0,0,0,38,94.7,0,0,98,3.706,3.708,3.714,0,0,0,10.699,60.26,1056.0067381885,3.608924,6,P-GPS,
7100,2025-01-13 04:56:07,37.0152370907084,140.149117537626,3.608924,,,1056.0067381885,5.249344,0.7158208,7.8290356836,8.2908795304,18,4,11.095,1056.0067381885,3.608924,5.816044,7.8290356836,-0.223694,0.671082,0,85.5, 3, -3.3,0,0,1024,1024,1024,1392,0,0,0,56,95.5,0,0,98,3.706,3.708,3.714,0,0,0,10.699,60.26,1056.0067381885,3.608924,6,P-GPS,
7200,2025-01-13 04:56:07,37.0152372174642,140.149117498072,3.608924,,,1056.0067381885,5.249344,0.7158208,7.828576366,8.3385173272,18,4,11.095,1056.0067381885,3.608924,5.816044,7.8290356836,-0.223694,0.671082,0,86.1, 1.1, -3,0,0,1024,1024,1024,1457,0,0,0,66,96.5,0,0,98,3.706,3.708,3.714,0,0,0,10.699,60.26,1056.0067381885,3.608924,6,P-GPS,"ホームポイントを更新。RTH高度が 100mに調整されました。 (Code: 3000001)"
7300,2025-01-13 04:56:07,37.0152366738658,140.149117773251,3.608924,,,1056.0067381885,5.249344,0.4921268,7.8626314852,8.5524609036,18,4,11.095,1056.0067381885,3.608924,5.816044,7.8626314852,-0.223694,0.447388,0,87.4, 0.9, -3.2,0,0,1024,1024,1024,1466,0,0,0,67,98,0,0,98,3.706,3.708,3.714,0,0,0,10.699,60.26,1056.0067381885,3.608924,6,P-GPS,
7400,2025-01-13 04:56:07,37.0152367642458,140.149117639708,3.608924,,,1056.0067381885,5.249344,0.3131716,7.8315947388,8.6034451572,20,4,11.062,1056.0067381885,3.608924,5.816044,7.8626314852,-0.223694,0.223694,0,89.3, 1.4, -3.1,0,0,1024,1024,1024,1528,0,0,0,76,99.8,0,0,98,3.692,3.697,3.704,0,0,0,11.197,60.44,1056.0067381885,3.608924,6,P-GPS,
7500,2025-01-13 04:56:08,37.0152362254439,140.14911775174,3.608924,,,1056.0067381885,5.249344,0.3131716,7.8238519564,8.8027233788,20,4,11.062,1056.0067381885,3.608924,5.816044,7.8626314852,-0.223694,0.223694,0,91.2, 0.4, -2.7,0,0,1024,1024,1024,1463,0,0,0,67,101.9,0,0,98,3.692,3.697,3.704,0,0,0,11.197,60.44,1056.0067381885,3.608924,6,P-GPS,"ビジョンセンサーが遮られています。慎重に飛行してください (Code: 180038)"
7600,2025-01-13 04:56:08,37.0152362801888,140.149117504895,3.608924,,,1056.0067381885,5.249344,0.223694,7.7571196708,8.8773624888,19,4,11.062,1056.0067381885,3.608924,5.816044,7.8626314852,-0.223694,0,0,93, -0.1, -1.8,0,0,1024,1024,1024,1024,0,0,0,0,104.1,0,0,98,3.692,3.697,3.704,0,0,0,11.197,60.44,1056.0067381885,3.608924,6,P-GPS,
7700,2025-01-13 04:56:08,37.0152356030779,140.14911706714,3.608924,,,1056.0067381885,5.249344,0.223694,7.587270584,9.1553808704,19,4,11.062,1056.0067381885,3.608924,5.816044,7.8626314852,-0.223694,0,0,95.4, 0.5, -1.8,0,0,1024,1024,1024,1024,0,0,0,0,106.3,0,0,98,3.692,3.697,3.704,0,0,0,11.197,60.44,1056.0067381885,3.608924,6,P-GPS,
7800,2025-01-13 04:56:08,37.0152355419617,140.149116689334,3.608924,,,1056.0067381885,5.249344,0.3131716,7.4750330476,9.2676840236,19,4,11.062,1056.0067381885,3.608924,5.816044,7.8626314852,-0.223694,-0.223694,0,96.8, 0, -3.7,0,0,1024,1024,1024,1024,0,0,0,0,107.6,0,0,98,3.692,3.697,3.704,0,0,0,11.197,60.44,1056.0067381885,3.608924,6,P-GPS,"ホームポイントを更新。RTH高度が 100mに調整されました。 (Code: 3000001)"
7900,2025-01-13 04:56:08,37.015235223197,140.149116024453,3.608924,,,1056.0067381885,5.249344,0.3131716,7.2652889464,9.493602666,19,4,11.062,1056.0067381885,3.608924,5.816044,7.8626314852,-0.223694,-0.223694,0,98, -2.3, -6,0,0,1024,1024,1024,1024,0,0,0,0,108.1,0,0,98,3.692,3.697,3.704,0,0,0,11.197,60.44,1056.0067381885,3.608924,6,P-GPS,
8000,2025-01-13 04:56:08,37.0152351301062,140.149115498342,3.608924,,,1056.0067381885,5.249344,0.3131716,7.1086288364,9.65059086,19,4,11.062,1056.0067381885,3.608924,5.816044,7.8626314852,-0.223694,-0.223694,0,98.7, -5.3, -8,0,0,1024,1024,1024,1024,0,0,0,0,108.2,0,0,98,3.692,3.697,3.704,0,0,0,11.197,60.44,1056.0067381885,3.608924,6,P-GPS,
8100,2025-01-13 04:56:08,37.0152347735478,140.149115453475,3.608924,,,1056.0067381885,5.249344,0.3131716,7.0770343472,9.781332334,19,4,11.062,1056.0067381885,3.608924,5.816044,7.8626314852,-0.223694,-0.223694,0,98.5, -7.3, -8.1,0,0,1024,1024,1036,1024,0,0,2,0,108.2,0,0,98,3.692,3.697,3.704,0,0,0,11.197,60.44,1056.0067381885,3.608924,6,P-GPS,
8200,2025-01-13 04:56:08,37.0152347459247,140.149115100768,3.608924,,,1056.0067381885,4.92126,0,6.9738519292,9.8845803688,19,4,11.062,1056.0067381885,3.608924,5.816044,7.8626314852,0,0,0,98.3, -5.2, -6.9,0,0,1024,1024,1041,1024,0,0,3,0,108.2,0,0,98,3.692,3.697,3.704,0,0,0,11.197,60.44,1056.0067381885,3.608924,6,P-GPS,
8300,2025-01-13 04:56:08,37.015234496495,140.149115585907,3.608924,,,1056.0067381885,4.92126,0,7.1024608572,10.052657802,19,4,11.062,1056.0067381885,3.608924,5.816044,7.8626314852,0,0,0,98.4, -1.6, -2.8,0,0,1024,1024,1150,1024,0,0,19,0,108.2,0,0,98,3.692,3.697,3.704,0,0,0,11.197,60.44,1056.0067381885,3.608924,6,P-GPS,
8400,2025-01-13 04:56:09,37.0152344945718,140.149115396938,3.608924,,,1056.0067381885,4.92126,0,7.0477036376,10.1077431056,19,4,11.07,1056.0067381885,3.608924,5.816044,7.8626314852,0,0,0,98.3, -0.4, -0.4,0,0,1024,1024,1255,1024,0,0,35,0,108.2,0,0,98,3.692,3.695,3.7,0,0,0,11.083,60.62,1056.0067381885,3.608924,6,P-GPS,飛行中
8500,2025-01-13 04:56:09,37.01523403091,140.149115497063,3.608924,,,1056.0067381885,4.92126,0,7.0583335592,10.2793966544,19,4,11.07,1056.0067381885,3.608924,5.816044,7.8626314852,0,0,0,98.2, -2.8, -2.6,0,0,1024,1024,1316,1024,0,0,44,0,108.2,0,0,98,3.692,3.695,3.7,0,0,0,11.083,60.62,1056.0067381885,3.608924,6,P-GPS,
8600,2025-01-13 04:56:09,37.0152339095936,140.149115280497,3.608924,,,1056.0067381885,5.249344,0,6.9913716148,10.356463586,19,4,11.07,1056.0067381885,3.608924,5.816044,7.8626314852,0,0,-0.671082,98.2, -3.6, -6.3,0,0,1024,1024,1321,1024,0,0,45,0,108.2,0,0,98,3.692,3.695,3.7,0,0,0,11.083,60.62,1056.0067381885,3.608924,6,P-GPS,
8700,2025-01-13 04:56:09,37.0152337475325,140.149114930926,3.608924,,,1056.0067381885,5.249344,0,6.8847443148,10.4742129336,19,4,11.07,1056.0067381885,3.608924,5.816044,7.8626314852,0,0,-1.342164,97.9, -1.7, -5.4,0,0,1024,1024,1314,1024,0,0,44,0,108.2,0,0,98,3.692,3.695,3.7,0,0,0,11.083,60.62,1056.0067381885,3.608924,6,P-GPS,
8800,2025-01-13 04:56:09,37.0152337710641,140.149114816293,3.937008,,,1056.3348221885,5.577428,0.223694,6.852198382,10.508694562,19,4,11.07,1056.3348221885,3.937008,5.816044,7.8626314852,0.223694,0,-2.013246,98.2, 0, -2.1,0,0,1024,1024,1314,1024,0,0,44,0,108.2,0,0,98,3.692,3.695,3.7,0,0,0,11.083,60.62,1056.3348221885,3.937008,6,P-GPS,
8900,2025-01-13 04:56:09,37.0152338806088,140.149115303593,4.265092,,,1056.6629061885,5.905512,0.223694,6.9971130848,10.65616832,19,4,11.07,1056.6629061885,4.265092,5.816044,7.8626314852,0.223694,0,-2.460634,98.2, -0.8, -0.4,0,0,1024,1024,1311,1024,0,0,43,0,108.2,0,0,98,3.692,3.695,3.7,0,0,0,11.083,60.62,1056.6629061885,4.265092,6,P-GPS,
9000,2025-01-13 04:56:09,37.0152339304714,140.149115195741,4.593176,,,1056.9909901885,6.233596,0.223694,6.9674870996,10.6924872188,19,5,11.07,1056.9909901885,4.593176,5.816044,7.8626314852,0.223694,0,-2.684328,98.3, -2.3, -0.5,0,0,1024,1024,1311,1024,0,0,43,0,108.2,0,0,98,3.692,3.695,3.7,0,0,0,11.083,60.62,1056.9909901885,4.593176,6,P-GPS,
9100,2025-01-13 04:56:09,37.0152339777894,140.149114959598,5.249344,,,1057.6471581885,6.56168,0.223694,6.9006235804,10.7634189796,19,5,11.07,1057.6471581885,5.249344,5.816044,7.8626314852,0.223694,0,-2.908022,97.7, -3.7, 2.8,0,0,1024,1024,1309,1024,0,0,43,0,108.2,0,0,98,3.692,3.695,3.7,0,0,0,11.083,60.62,1057.6471581885,5.249344,6,P-GPS,
9200,2025-01-13 04:56:09,37.0152339481802,140.149114889538,5.577428,,,1057.9752421885,7.217848,0,6.879265312,10.7865160932,20,5,11.07,1057.9752421885,5.577428,5.816044,7.8626314852,0,0,-2.908022,97.8, -3, 3.1,0,0,1024,1024,1297,1024,0,0,41,0,108.2,0,0,98,3.692,3.695,3.7,0,0,0,11.083,60.62,1057.9752421885,5.577428,6,P-GPS,
9300,2025-01-13 04:56:09,37.015233866854,140.149115101509,5.905512,,,1058.3033261885,7.545932,0,6.9380251564,10.8550200324,20,5,11.07,1058.3033261885,5.905512,5.816044,7.8626314852,0,0,-2.908022,98.2, -1.5, -1,0,0,1024,1024,1108,1024,0,0,13,0,108.2,0,0,98,3.692,3.695,3.7,0,0,0,11.083,60.62,1058.3033261885,5.905512,6,P-GPS,
9400,2025-01-13 04:56:10,37.0152336653385,140.149115064868,6.56168,,,1058.9594941885,7.874016,0.223694,6.9211944472,10.92929825,20,5,10.698,1058.9594941885,6.56168,5.816044,7.8626314852,-0.223694,0,-2.908022,98.4, -1, -3.6,0,0,1024,1024,1024,1024,0,0,0,0,108.2,0,0,98,3.597,3.608,3.621,0,0,0,14.192,60.62,1058.9594941885,6.56168,6,P-GPS,
9500,2025-01-13 04:56:10,37.0152336207421,140.14911514507,6.889764,,,1059.2875781885,8.530184,0.223694,6.9432088836,10.9577759412,20,5,10.698,1059.2875781885,6.889764,5.816044,7.8626314852,0,0,-2.23694,98.2, -0.7, -4.1,0,0,1024,1024,1024,1024,0,0,0,0,108.2,0,0,98,3.597,3.608,3.621,0,0,0,14.192,60.62,1059.2875781885,6.889764,6,P-GPS,
9600,2025-01-13 04:56:10,37.01523345695,140.149115103207,7.217848,,,1059.6156621885,8.858268,0,6.9267062584,11.0187667568,21,5,10.698,1059.6156621885,7.217848,5.816044,7.8626314852,0,0,-1.565858,97.8, -0.9, -4.2,0,0,1024,1107,1024,1024,0,13,0,0,108.2,0,0,98,3.597,3.608,3.621,0,0,0,14.192,60.62,1059.6156621885,7.217848,6,P-GPS,
9700,2025-01-13 04:56:10,37.0152339918401,140.149115159403,7.545932,,,1059.9437461885,8.858268,0,6.9590553408,11.2146000964,21,5,10.698,1059.9437461885,7.545932,5.816044,7.8626314852,0,0,-0.894776,97.4, -1.3, -3.8,0,0,1024,1223,1024,1024,0,30,0,0,108.2,0,0,98,3.597,3.608,3.621,0,0,0,14.192,60.62,1059.9437461885,7.545932,6,P-GPS,
9800,2025-01-13 04:56:10,37.0152339455075,140.149115107949,7.545932,,,1059.9437461885,8.858268,0,6.9425199072,11.237205084,22,5,10.698,1059.9437461885,7.545932,5.816044,7.8626314852,0,0,-0.223694,97.3, -1.4, -1.9,0,0,1024,1288,1024,1024,0,40,0,0,108.2,0,0,98,3.597,3.608,3.621,0,0,0,14.192,60.62,1059.9437461885,7.545932,6,P-GPS,
9900,2025-01-13 04:56:10,37.015234168449,140.149115264238,7.545932,,,1059.9437461885,8.858268,0,6.995899174,11.3304137484,22,5,10.698,1059.9437461885,7.545932,5.816044,7.8626314852,0,0,0,98, -2.1, 0.6,0,0,1024,1288,1024,1024,0,40,0,0,108.2,0,0,98,3.597,3.608,3.621,0,0,0,14.192,60.62,1059.9437461885,7.545932,6,P-GPS,
10000,2025-01-13 04:56:10,37.0152341393506,140.149115213816,7.545932,,,1059.9437461885,8.858268,0,6.9801839504,11.3485567936,22,5,10.698,1059.9437461885,7.545932,5.816044,7.8626314852,0,0,0,98.5, -3.1, 3.3,0,0,1024,1299,1024,1024,0,42,0,0,108.2,0,0,98,3.597,3.608,3.621,0,0,0,14.192,60.62,1059.9437461885,7.545932,6,P-GPS,
10100,2025-01-13 04:56:10,37.0152339586925,140.149113965094,7.545932,,,1059.9437461885,8.858268,0.223694,6.6115815764,11.7182418448,22,5,10.698,1059.9437461885,7.545932,5.816044,7.8626314852,-0.223694,0,0.223694,99, -3.4, 4.3,0,0,1024,1299,1024,1024,0,42,0,0,108.2,0,0,98,3.597,3.608,3.621,0,0,0,14.192,60.62,1059.9437461885,7.545932,6,P-GPS,
10200,2025-01-13 04:56:10,37.0152337289556,140.149113853063,7.545932,,,1059.9437461885,8.858268,0.447388,6.5712928612,11.8082024776,22,5,10.698,1059.9437461885,7.545932,5.816044,7.8626314852,-0.447388,0,0.223694,99.5, -1.5, 4.4,0,0,1024,1295,1024,1024,0,41,0,0,108.2,0,0,98,3.597,3.608,3.621,0,0,0,14.192,60.62,1059.9437461885,7.545932,6,P-GPS,
10300,2025-01-13 04:56:10,37.0152334722915,140.149113522999,7.545932,,,1059.9437461885,8.858268,0.671082,6.4679135928,11.942421642,22,5,10.698,1059.9437461885,7.545932,5.816044,7.8626314852,-0.671082,0,0.223694,99.5, -0.1, 4.1,0,0,1023,1256,1024,1024,-0,35,0,0,108.2,0,0,98,3.597,3.608,3.621,0,0,0,14.192,60.62,1059.9437461885,7.545932,6,P-GPS,
10400,2025-01-13 04:56:10,37.0152330316208,140.149113380096,7.545932,,,1059.9437461885,8.858268,1.11847,6.4164700216,12.1084977628,22,5,11.318,1059.9437461885,7.545932,5.816044,7.8626314852,-1.11847,0,0,99.2, -1, 3.6,0,0,1024,1253,1024,1024,0,35,0,0,108.2,0,0,98,3.736,3.732,3.734,0,0,0,9.761,60.8,1059.9437461885,7.545932,6,P-GPS,
10500,2025-01-13 04:56:11,37.01523288493,140.149113113672,7.545932,,,1059.9437461885,8.858268,1.342164,6.3364831424,12.2027891044,22,5,11.318,1059.9437461885,7.545932,5.816044,7.8626314852,-1.342164,0,0,98.8, -2, 1.7,0,0,1024,1251,1024,1024,0,34,0,0,108.2,0,0,98,3.736,3.732,3.734,0,0,0,9.761,60.8,1059.9437461885,7.545932,6,P-GPS,
10600,2025-01-13 04:56:11,37.0152322967239,140.149112956248,7.545932,,,1059.9437461885,8.858268,1.342164,6.2853348468,12.422244492,22,5,11.318,1059.9437461885,7.545932,5.816044,7.8626314852,-1.342164,0,0,98.4, -0.7, 1.3,0,0,1024,1243,1024,1024,0,33,0,0,108.2,0,0,98,3.736,3.732,3.734,0,0,0,9.761,60.8,1059.9437461885,7.545932,6,P-GPS,
10700,2025-01-13 04:56:11,37.0152320785865,140.149112588055,7.545932,,,1059.9437461885,8.858268,1.565858,6.1779529536,12.5558074884,22,5,11.318,1059.9437461885,7.545932,5.816044,7.8626314852,-1.565858,0,0,98.5, 1.1, 1.1,0,0,1024,1243,1024,1024,0,33,0,0,108.2,0,0,98,3.736,3.732,3.734,0,0,0,9.761,60.8,1059.9437461885,7.545932,6,P-GPS,
10800,2025-01-13 04:56:11,37.0152314050926,140.149112354744,7.545932,,,1059.9437461885,8.858268,1.8119214,6.1161747364,12.8107615648,22,5,11.318,1059.9437461885,7.545932,5.816044,7.8626314852,-1.789552,-0.223694,0,98.6, 1.7, 0.2,0,0,1024,1239,1024,1024,0,33,0,0,108.2,0,0,98,3.736,3.732,3.734,0,0,0,9.761,60.8,1059.9437461885,7.545932,6,P-GPS,
10900,2025-01-13 04:56:11,37.0152309147359,140.149111971823,7.545932,,,1059.9437461885,8.858268,1.8119214,6.0156497988,13.0215883432,22,5,11.318,1059.9437461885,7.545932,5.816044,7.8626314852,-1.789552,-0.223694,0,99, -0.6, -0.5,0,0,1024,1225,1024,1024,0,30,0,0,108.2,0,0,98,3.736,3.732,3.734,0,0,0,9.761,60.8,1059.9437461885,7.545932,6,P-GPS,
11000,2025-01-13 04:56:11,37.0152301966949,140.149111654124,7.545932,,,1059.9437461885,8.858268,1.8119214,5.9492455972,13.2994426828,22,5,11.318,1059.9437461885,7.545932,5.816044,7.8626314852,-1.789552,-0.223694,0,98.7, -2.6, -0.9,0,0,1024,1225,1024,1024,0,30,0,0,108.2,0,0,98,3.736,3.732,3.734,0,0,0,9.761,60.8,1059.9437461885,7.545932,6,P-GPS,
11100,2025-01-13 04:56:11,37.0152298021903,140.149110883229,7.545932,,,1059.9437461885,8.858268,2.013246,5.7461616012,13.5661749748,22,5,11.318,1059.9437461885,7.545932,5.816044,7.8626314852,-2.013246,0,0,98, -1.2, -0.9,0,0,1024,1210,1024,1024,0,28,0,0,108.2,0,0,98,3.736,3.732,3.734,0,0,0,9.761,60.8,1059.9437461885,7.545932,6,P-GPS,
11200,2025-01-13 04:56:11,37.0152291013033,140.149110617204,7.545932,,,1059.9437461885,8.858268,2.013246,5.7140093692,13.8333665844,22,5,11.318,1059.9437461885,7.545932,5.816044,7.8626314852,-2.013246,0,0,98.2, 1, -2,0,0,1024,1209,1024,1024,0,28,0,0,108.2,0,0,98,3.736,3.732,3.734,0,0,0,9.761,60.8,1059.9437461885,7.545932,6,P-GPS,
11300,2025-01-13 04:56:11,37.0152283988194,140.149110196955,7.545932,,,1059.9437461885,8.858268,1.8119214,5.650754774,14.1174217116,22,5,11.318,1059.9437461885,7.545932,5.816044,7.8626314852,-1.789552,-0.223694,0,98.1, 1.7, -1.4,0,0,1024,1209,1024,1024,0,28,0,0,108.2,0,0,98,3.736,3.732,3.734,0,0,0,9.761,60.8,1059.9437461885,7.545932,6,P-GPS,
11400,2025-01-13 04:56:11,37.0152277285225,140.149109832412,7.545932,,,1059.9437461885,8.858268,2.0356154,5.6133203896,14.3840555784,22,5,11.054,1059.9437461885,7.545932,5.816044,7.8626314852,-2.013246,-0.223694,0,97.9, 0.7, 1.5,0,0,1024,1196,1024,1024,0,26,0,0,108.2,0,0,98,3.685,3.687,3.696,0,0,0,10.997,60.98,1059.9437461885,7.545932,6,P-GPS,
11500,2025-01-13 04:56:12,37.0152269859608,140.149109996241,7.217848,,,1059.6156621885,8.858268,2.2816788,5.7423886352,14.659121204,22,5,11.054,1059.9437461885,7.545932,5.816044,7.8626314852,-2.23694,-0.447388,0,97.9, -0.8, 0.9,0,0,1024,1186,1024,1024,0,25,0,0,108.2,0,0,98,3.685,3.687,3.696,0,0,0,10.997,60.98,1059.6156621885,7.217848,6,P-GPS,
11600,2025-01-13 04:56:12,37.015226192654,140.149109577776,7.217848,,,1059.6156621885,8.858268,2.2816788,5.7310369288,14.9731960172,22,5,11.054,1059.9437461885,7.545932,5.816044,7.8626314852,-2.23694,-0.447388,0,97.9, -1.2, -2.9,0,0,1024,1186,1024,1024,0,25,0,0,108.2,0,0,98,3.685,3.687,3.696,0,0,0,10.997,60.98,1059.6156621885,7.217848,6,P-GPS,
11700,2025-01-13 04:56:12,37.0152252081728,140.149109310252,7.217848,,,1059.6156621885,8.858268,2.2816788,5.806758716,15.3407485224,22,5,11.054,1059.9437461885,7.545932,5.816044,7.8626314852,-2.23694,-0.447388,0,97.5, -0.8, -5,0,0,1024,1151,1024,1024,0,19,0,0,108.2,0,0,98,3.685,3.687,3.696,0,0,0,10.997,60.98,1059.6156621885,7.217848,6,P-GPS,
11800,2025-01-13 04:56:12,37.0152244244413,140.149108872462,7.217848,,,1059.6156621885,8.858268,2.2816788,5.8254266956,15.6538390836,22,5,11.054,1059.9437461885,7.545932,5.816044,7.8626314852,-2.23694,-0.447388,0,97.3, -0.6, -4.5,0,0,1024,1143,1024,1024,0,18,0,0,108.2,0,0,98,3.685,3.687,3.696,0,0,0,10.997,60.98,1059.6156621885,7.217848,6,P-GPS,
11900,2025-01-13 04:56:12,37.0152238616,140.149108474781,7.217848,,,1059.6156621885,8.858268,2.3264176,5.8283794516,15.8896330544,22,5,11.054,1059.9437461885,7.545932,5.816044,7.8626314852,-2.23694,-0.671082,0,97.1, -2.1, -3.6,0,0,1024,1135,1024,1024,0,17,0,0,108.2,0,0,98,3.685,3.687,3.696,0,0,0,10.997,60.98,1059.6156621885,7.217848,6,P-GPS,
12000,2025-01-13 04:56:12,37.0152231302493,140.149107960236,7.217848,,,1059.6156621885,8.858268,2.3264176,5.8469818144,16.1956698096,21,5,11.054,1059.9437461885,7.545932,5.816044,7.8626314852,-2.23694,-0.671082,0,97.8, -3.6, -4.8,0,0,1024,1135,1024,1024,0,17,0,0,108.2,0,0,98,3.685,3.687,3.696,0,0,0,10.997,60.98,1059.6156621885,7.217848,6,P-GPS,
12100,2025-01-13 04:56:12,37.0152225336375,140.149107764226,7.217848,,,1059.6156621885,8.858268,2.125093,5.9262797172,16.4207026252,21,5,11.054,1059.9437461885,7.545932,5.816044,7.8626314852,-2.013246,-0.671082,0,97.8, -4.4, -5,0,0,1024,1134,1024,1024,0,17,0,0,108.2,0,0,98,3.685,3.687,3.696,0,0,0,10.997,60.98,1059.6156621885,7.217848,6,P-GPS,
12200,2025-01-13 04:56:12,37.0152218527775,140.149107322434,7.217848,,,1059.6156621885,8.858268,2.0579848,5.9763125272,16.7004926604,20,5,11.054,1059.9437461885,7.545932,5.816044,7.8626314852,-2.013246,-0.447388,0,97.7, -3.4, -5.8,0,0,1024,1123,1024,1024,0,15,0,0,108.2,0,0,98,3.685,3.687,3.696,0,0,0,10.997,60.98,1059.6156621885,7.217848,6,P-GPS,
12300,2025-01-13 04:56:12,37.0152211252135,140.149107286657,7.217848,,,1059.6156621885,8.858268,2.0579848,6.1389765744,16.9661422752,20,5,11.054,1059.9437461885,7.545932,5.816044,7.8626314852,-2.013246,-0.447388,0,97.7, -2.5, -6,0,0,1024,1118,1024,1024,0,14,0,0,108.2,0,0,98,3.685,3.687,3.696,0,0,0,10.997,60.98,1059.6156621885,7.217848,6,P-GPS,
12400,2025-01-13 04:56:12,37.0152205334619,140.14910691048,7.217848,,,1059.6156621885,8.858268,1.8342908,6.2023295948,17.2082682672,21,5,11.042,1059.9437461885,7.545932,5.816044,7.8626314852,-1.789552,-0.447388,0,97.8, -3.2, -5.7,0,0,1024,1118,1024,1024,0,14,0,0,108.2,0,0,98,3.68,3.681,3.689,0,0,0,10.965,61.16,1059.6156621885,7.217848,6,P-GPS,
12500,2025-01-13 04:56:13,37.015219699391,140.149106401582,7.217848,,,1059.6156621885,8.858268,1.8342908,6.3106629316,17.54675253,21,5,11.042,1059.9437461885,7.545932,5.816044,7.8626314852,-1.789552,-0.447388,0,97.8, -4.1, -5.2,0,0,1024,1059,1024,1024,0,5,0,0,108.2,0,0,98,3.68,3.681,3.689,0,0,0,10.965,61.16,1059.6156621885,7.217848,6,P-GPS,
12600,2025-01-13 04:56:13,37.0152191446887,140.14910605674,7.217848,,,1059.6156621885,8.858268,1.8342908,6.3903873436,17.7727039808,21,5,11.042,1059.9437461885,7.545932,5.816044,7.8626314852,-1.789552,-0.447388,0,98.3, -4.4, -5,0,0,1024,1024,1062,1024,0,0,6,0,108.2,0,0,98,3.68,3.681,3.689,0,0,0,10.965,61.16,1059.6156621885,7.217848,6,P-GPS,
12700,2025-01-13 04:56:13,37.0152185473193,140.149105153602,7.217848,,,1059.6156621885,8.858268,1.8119214,6.385498892,18.1143706584,21,5,11.042,1059.9437461885,7.545932,5.816044,7.8626314852,-1.789552,-0.223694,0,98.9, -2.1, -7.2,0,0,1024,1024,1118,1024,0,0,14,0,108.2,0,0,98,3.68,3.681,3.689,0,0,0,10.965,61.16,1059.6156621885,7.217848,6,P-GPS,
12800,2025-01-13 04:56:13,37.0152180268498,140.149104823011,7.217848,,,1059.6156621885,8.858268,1.5882274,6.4756235668,18.3272971744,22,5,11.042,1059.9437461885,7.545932,5.816044,7.8626314852,-1.565858,-0.223694,0,98.1, -1.3, -9.3,0,0,1024,1024,1211,1024,0,0,28,0,108.2,0,0,98,3.68,3.681,3.689,0,0,0,10.965,61.16,1059.6156621885,7.217848,6,P-GPS,
12900,2025-01-13 04:56:13,37.0152170469462,140.149104139621,7.217848,,,1059.6156621885,8.858268,1.3645334,6.6505579556,18.7364835392,22,5,11.042,1059.9437461885,7.545932,5.816044,7.8626314852,-1.342164,-0.223694,0,97.2, -2.8, -10.9,0,0,1024,1024,1294,1024,0,0,41,0,108.2,0,0,98,3.68,3.681,3.689,0,0,0,10.965,61.16,1059.6156621885,7.217848,6,P-GPS,
13000,2025-01-13 04:56:13,37.0152167075878,140.149103814562,7.545932,,,1059.9437461885,8.858268,0.9171454,6.70193591,18.892389056,22,5,11.042,1059.9437461885,7.545932,5.816044,7.8626314852,-0.894776,-0.223694,-0.223694,97.1, -4, -11,0,0,1024,1024,1335,1024,0,0,47,0,108.2,0,0,98,3.68,3.681,3.689,0,0,0,10.965,61.16,1059.9437461885,7.545932,6,P-GPS,
13100,2025-01-13 04:56:13,37.0152163827141,140.149103441932,7.545932,,,1059.9437461885,9.186352,0.447388,6.7448164888,19.0531174076,22,5,11.042,1059.9437461885,7.545932,5.816044,7.8626314852,-0.447388,0,-0.671082,97.1, -2, -9.5,0,0,1024,1024,1335,1024,0,0,47,0,108.2,0,0,98,3.68,3.681,3.689,0,0,0,10.965,61.16,1059.9437461885,7.545932,6,P-GPS,
13200,2025-01-13 04:56:13,37.0152163399017,140.149103280422,7.545932,,,1059.9437461885,9.186352,0,6.7337928664,19.1026909,21,5,11.042,1059.9437461885,7.545932,5.816044,7.8626314852,0,0,-1.565858,96.5, -1, -5.4,0,0,1024,1024,1346,1024,0,0,49,0,108.2,0,0,98,3.68,3.681,3.689,0,0,0,10.965,61.16,1059.9437461885,7.545932,6,P-GPS,
13300,2025-01-13 04:56:13,37.0152162857943,140.149102873542,7.874016,,,1060.2718301885,9.514436,0,6.6906498204,19.2228352608,21,5,11.042,1060.2718301885,7.874016,5.816044,7.8626314852,0,0,-2.23694,96.6, -1.1, -1.9,0,0,1024,1024,1348,1024,0,0,49,0,108.2,0,0,98,3.68,3.681,3.689,0,0,0,10.965,61.16,1060.2718301885,7.874016,6,P-GPS,
13400,2025-01-13 04:56:13,37.0152163466254,140.149102726159,8.2021,,,1060.5999141885,10.170604,0,6.6500002128,19.271162034,23,5,11.017,1060.5999141885,8.2021,5.816044,7.8626314852,0,0,-2.684328,97, -0.5, -2.2,0,0,1024,1024,1346,1024,0,0,49,0,108.2,0,0,98,3.639,3.625,3.621,0,0,0,11.296,61.34,1060.5999141885,8.2021,6,P-GPS,
13500,2025-01-13 04:56:14,37.0152161253791,140.14910245988,8.858268,,,1061.2560821885,10.498688,0,6.6823492952,19.3831371032,23,5,11.017,1061.2560821885,8.858268,5.816044,7.8626314852,0,0,-3.131716,97, 0.3, -1.8,0,0,1024,1024,1266,1024,0,0,37,0,108.2,0,0,98,3.639,3.625,3.621,0,0,0,11.296,61.34,1061.2560821885,8.858268,6,P-GPS,
13600,2025-01-13 04:56:14,37.0152161812513,140.14910226705,9.186352,,,1061.5841661885,10.826772,0,6.6375002124,19.4428811996,22,5,11.017,1061.5841661885,9.186352,5.816044,7.8626314852,0,0,-3.35541,97.8, -0.4, -3.4,0,0,1024,1024,1024,1024,0,0,0,0,108.2,0,0,98,3.639,3.625,3.621,0,0,0,11.296,61.34,1061.5841661885,9.186352,6,P-GPS,
13700,2025-01-13 04:56:14,37.0152159247665,140.14910264998,9.84252,,,1062.2403341885,11.48294,0,6.7731957548,19.5884848788,22,5,11.017,1062.2403341885,9.84252,5.816044,7.8626314852,0,0,-2.908022,97.7, -0.8, -1.8,0,0,1024,1024,1024,1024,0,0,0,0,108.2,0,0,98,3.639,3.625,3.621,0,0,0,11.296,61.34,1062.2403341885,9.84252,6,P-GPS,
13800,2025-01-13 04:56:14,37.015215990306,140.149102499651,10.170604,,,1062.5684181885,11.811024,0,6.7311025776,19.6383864552,23,5,11.017,1062.5684181885,10.170604,5.816044,7.8626314852,0,0,-2.460634,98, -1, 0.4,0,0,1024,1024,1024,1024,0,0,0,0,108.2,0,0,98,3.639,3.625,3.621,0,0,0,11.296,61.34,1062.5684181885,10.170604,6,P-GPS,
13900,2025-01-13 04:56:14,37.0152163044415,140.149103355477,10.498688,,,1062.8965021885,12.139108,0,6.7561681952,19.9127959128,23,5,11.017,1062.8965021885,10.498688,5.816044,7.8626314852,0,0,-1.789552,98.4, -0.9, -1.2,0,0,1026,1024,1024,1024,0,0,0,0,108.2,0,0,98,3.639,3.625,3.621,0,0,0,11.296,61.34,1062.8965021885,10.498688,6,P-GPS,
14000,2025-01-13 04:56:14,37.0152163561685,140.149103289294,10.826772,,,1063.2245861885,12.467192,0,6.7300527088,19.9397644176,23,5,11.017,1063.2245861885,10.826772,5.816044,7.8626314852,0,0,-0.894776,98.2, -0.8, -1.6,0,0,1256,1024,1024,1024,35,0,0,0,108.2,0,0,98,3.639,3.625,3.621,0,0,0,11.296,61.34,1063.2245861885,10.826772,6,P-GPS,
14100,2025-01-13 04:56:14,37.0152160861765,140.149104085197,10.826772,,,1063.2245861885,12.467192,0,6.935531718,20.1917001212,23,5,11.017,1063.2245861885,10.826772,5.816044,7.8626314852,0,0,-0.447388,98, -0.6, -1.5,0,0,1387,1024,1024,1024,55,0,0,0,108.2,0,0,98,3.639,3.625,3.621,0,0,0,11.296,61.34,1063.2245861885,10.826772,6,P-GPS,
14200,2025-01-13 04:56:14,37.0152161377268,140.14910409548,10.826772,,,1063.2245861885,12.467192,0.223694,6.921260064,20.2107618016,23,5,11.017,1063.2245861885,10.826772,5.816044,7.8626314852,0.223694,0,0,98, -1.6, -1.8,0,0,1387,1024,1024,1024,55,0,0,0,108.2,0,0,98,3.639,3.625,3.621,0,0,0,11.296,61.34,1063.2245861885,10.826772,6,P-GPS,
14300,2025-01-13 04:56:14,37.0152165608535,140.149104285148,10.826772,,,1063.2245861885,12.467192,0.223694,6.8216209532,20.3747053764,23,5,11.017,1063.2245861885,10.826772,5.816044,7.8626314852,0.223694,0,0,98, -8.7, -1.3,0,0,1432,1024,1024,1024,62,0,0,0,108.2,0,0,98,3.639,3.625,3.621,0,0,0,11.296,61.34,1063.2245861885,10.826772,6,P-GPS,
14400,2025-01-13 04:56:14,37.0152167036654,140.149104445914,10.826772,,,1063.2245861885,12.467192,0.6263432,6.804298118,20.4447841188,22,5,10.713,1063.2245861885,10.826772,5.816044,7.8626314852,0.447388,0.447388,0,98.2, -16.9, 0,0,0,1431,1024,1024,1024,62,0,0,0,108.2,0,0,97,3.749,3.746,3.749,0,0,0,14.909,61.52,1063.2245861885,10.826772,6,P-GPS,
14500,2025-01-13 04:56:15,37.0152168165555,140.149104835819,10.826772,,,1063.2245861885,12.467192,1.1408394,6.8346786964,20.565617456,22,5,10.713,1063.2245861885,10.826772,5.816044,7.8626314852,0.223694,1.11847,0.223694,98.3, -19.1, 1,0,0,1425,1024,1024,1024,61,0,0,0,108.2,0,0,97,3.749,3.746,3.749,0,0,0,14.909,61.52,1063.2245861885,10.826772,6,P-GPS,
14600,2025-01-13 04:56:15,37.0152169145076,140.149105661293,10.826772,,,1063.2245861885,12.467192,1.8119214,6.9467193824,20.8087277,22,5,10.713,1063.2245861885,10.826772,5.816044,7.8626314852,0.223694,1.789552,0,98.7, -16.6, 2.6,0,0,1412,1024,1024,1024,59,0,0,0,108.2,0,0,97,3.749,3.746,3.749,0,0,0,14.909,61.52,1063.2245861885,10.826772,6,P-GPS,
14700,2025-01-13 04:56:15,37.0152165083587,140.149106873362,10.826772,,,1063.2245861885,12.467192,2.460634,7.2794293668,21.1916673448,22,5,10.713,1063.2245861885,10.826772,5.816044,7.8626314852,0,2.460634,0,99.1, -13.5, 5.2,0,0,1410,1024,1024,1024,58,0,0,0,108.2,0,0,97,3.749,3.746,3.749,0,0,0,14.909,61.52,1063.2245861885,10.826772,6,P-GPS,
14800,2025-01-13 04:56:15,37.0152163732631,140.149108264953,10.826772,,,1063.2245861885,12.467192,2.684328,7.5749018172,21.6000334996,22,5,10.713,1063.2245861885,10.826772,5.816044,7.8626314852,-0.223694,2.684328,0,98.7, -14, 5,0,0,1410,1024,1024,1024,58,0,0,0,108.2,0,0,97,3.749,3.746,3.749,0,0,0,14.909,61.52,1063.2245861885,10.826772,6,P-GPS,
14900,2025-01-13 04:56:15,37.0152162380186,140.149109123901,10.826772,,,1063.2245861885,12.467192,3.3777794,7.7765422436,21.8550860012,22,5,10.713,1063.2245861885,10.826772,5.816044,7.8626314852,-0.447388,3.35541,0,98.6, -16.1, 0.1,0,0,1408,1024,1024,1024,58,0,0,0,108.2,0,0,97,3.749,3.746,3.749,0,0,0,14.909,61.52,1063.2245861885,10.826772,6,P-GPS,
15000,2025-01-13 04:56:15,37.0152158655855,140.149110938605,10.826772,,,1063.2245861885,12.467192,3.8699062,8.235072442,22.4009521604,22,5,10.713,1063.2245861885,10.826772,5.816044,8.235072442,-0.671082,3.802798,0,98.5, -15.6, -2.2,0,0,1396,1024,1024,1024,56,0,0,0,108.2,0,0,97,3.749,3.746,3.749,0,0,0,14.909,61.52,1063.2245861885,10.826772,6,P-GPS,
15100,2025-01-13 04:56:15,37.0152155127195,140.149112171518,10.826772,,,1063.2245861885,12.467192,4.5186188,8.5782154976,22.7825138524,22,5,10.713,1063.2245861885,10.826772,5.816044,8.5782154976,-0.671082,4.47388,0,98.4, -13.5, -1.4,0,0,1393,1024,1024,1024,56,0,0,0,108.2,0,0,97,3.749,3.746,3.749,0,0,0,14.909,61.52,1063.2245861885,10.826772,6,P-GPS,
15200,2025-01-13 04:56:15,37.0152151017048,140.149114427228,10.826772,,,1063.2245861885,12.467192,4.7870516,9.1554464872,23.456529622,23,5,10.713,1063.2245861885,10.826772,5.816044,9.1554464872,-0.894776,4.697574,0,98.3, -12.3, -0.8,0,0,1380,1024,1024,1024,54,0,0,0,108.2,0,0,97,3.749,3.746,3.749,0,0,0,14.909,61.52,1063.2245861885,10.826772,6,P-GPS,
15300,2025-01-13 04:56:15,37.0152153411561,140.149116793549,10.826772,,,1063.2245861885,12.467192,5.2120702,9.616306082,24.151411534,23,5,10.713,1063.2245861885,10.826772,5.816044,9.616306082,-0.894776,5.144962,0,98.2, -11.3, -4.1,0,0,1380,1024,1024,1024,54,0,0,0,108.2,0,0,97,3.749,3.746,3.749,0,0,0,14.909,61.52,1063.2245861885,10.826772,6,P-GPS,
15400,2025-01-13 04:56:15,37.0152149138895,140.149119367396,10.826772,,,1063.2245861885,12.467192,5.4357642,10.2993113532,24.9172580152,23,5,11.011,1063.2245861885,10.826772,5.816044,10.2993113532,-0.894776,5.368656,0,98.2, -12.6, -6.7,0,0,1364,1024,1024,1024,52,0,0,0,108.2,0,0,97,3.666,3.668,3.678,0,0,0,9.308,61.7,1063.2245861885,10.826772,6,P-GPS,
15500,2025-01-13 04:56:16,37.0152149524883,140.14912143166,10.826772,,,1063.2245861885,12.467192,5.6370888,10.7733927332,25.5188000292,23,5,11.011,1063.2245861885,10.826772,5.816044,10.7733927332,-0.671082,5.59235,0,98.8, -16.9, -2.7,0,0,1156,1024,1024,1024,20,0,0,0,108.2,0,0,97,3.666,3.668,3.678,0,0,0,9.308,61.7,1063.2245861885,10.826772,6,P-GPS,
15600,2025-01-13 04:56:16,37.0152146607576,140.149124309069,10.826772,,,1063.2245861885,12.467192,6.3081708,11.5235896076,26.3637803712,23,5,11.011,1063.2245861885,10.826772,6.3081708,11.5235896076,-0.671082,6.263432,0,99.2, -14.8, 0.3,0,0,1024,1024,1024,1024,0,0,0,0,108.2,0,0,97,3.666,3.668,3.678,0,0,0,9.308,61.7,1063.2245861885,10.826772,6,P-GPS,
15700,2025-01-13 04:56:16,37.0152143011187,140.149127719057,10.826772,,,1063.2245861885,12.467192,6.7779282,12.4310699516,27.365814524,23,5,11.011,1063.2245861885,10.826772,6.7779282,12.4310699516,-0.894776,6.71082,0,98.8, -3, -0.4,0,0,1024,1024,1024,1024,0,0,0,0,108.2,0,0,97,3.666,3.668,3.678,0,0,0,9.308,61.7,1063.2245861885,10.826772,6,P-GPS,
15800,2025-01-13 04:56:16,37.0152139587092,140.149130946405,10.826772,,,1063.2245861885,12.467192,6.5318648,13.302821948,28.314305368,23,5,11.011,1063.2245861885,10.826772,6.7779282,13.302821948,-0.671082,6.487126,0,98.1, 13.5, -1.7,0,0,1024,1024,1024,1024,0,0,0,0,108.2,0,0,97,3.666,3.668,3.678,0,0,0,9.308,61.7,1063.2245861885,10.826772,6,P-GPS,
15900,2025-01-13 04:56:16,37.0152135846721,140.149133590059,10.826772,,,1063.2245861885,12.467192,5.8384134,14.0407812892,29.096457624,23,5,11.011,1063.2245861885,10.826772,6.7779282,14.0407812892,-0.447388,5.816044,0,97.5, 29.3, -0.1,0,0,1024,1024,1024,1024,0,0,0,0,108.2,0,0,97,3.666,3.668,3.678,0,0,0,9.308,61.7,1063.2245861885,10.826772,6,P-GPS,
16000,2025-01-13 04:56:16,37.0152133832725,140.149135958379,10.826772,,,1063.2245861885,12.467192,4.4962494,14.6829401024,29.7902896672,23,5,11.011,1063.2245861885,10.826772,6.7779282,14.6829401024,-0.447388,4.47388,0,97.8, 30.6, 0.3,0,0,1024,1024,1024,1035,0,0,0,2,108.2,0,0,97,3.666,3.668,3.678,0,0,0,9.308,61.7,1063.2245861885,10.826772,6,P-GPS,
16100,2025-01-13 04:56:16,37.0152131773132,140.149137075203,10.826772,,,1063.2245861885,12.467192,3.131716,15.0060044172,30.1242135624,23,5,11.011,1063.2245861885,10.826772,6.7779282,15.0060044172,-0.223694,3.131716,0,97.6, 20.3, -2.4,0,0,1024,1024,1024,1073,0,0,0,7,108.2,0,0,97,3.666,3.668,3.678,0,0,0,9.308,61.7,1063.2245861885,10.826772,6,P-GPS,
16200,2025-01-13 04:56:16,37.0152131513288,140.149138160732,10.826772,,,1063.2245861885,12.795276,2.23694,15.2915359224,30.4405849636,22,5,11.011,1063.2245861885,10.826772,6.7779282,15.2915359224,0,2.23694,0,97, 9.2, -0.9,0,0,1024,1024,1024,1216,0,0,0,29,108.2,0,0,97,3.666,3.668,3.678,0,0,0,9.308,61.7,1063.2245861885,10.826772,6,P-GPS,
16300,2025-01-13 04:56:16,37.0152128951738,140.149140080348,10.826772,,,1063.2245861885,12.795276,1.789552,15.8332354148,31.0075797324,22,5,11.011,1063.2245861885,10.826772,6.7779282,15.8332354148,0,1.789552,0,96.9, 5.1, 1.5,0,0,1024,1024,1024,1331,0,0,0,47,108.3,0,0,97,3.666,3.668,3.678,0,0,0,9.308,61.7,1063.2245861885,10.826772,6,P-GPS,
16400,2025-01-13 04:56:17,37.0152129325111,140.14914084641,10.826772,,,1063.2245861885,12.795276,1.565858,16.0275267596,31.2311689784,21,5,11.044,1063.2245861885,10.826772,6.7779282,16.0275267596,0,1.565858,0,98.2, 6.1, 1,0,0,1024,1024,1024,1331,0,0,0,47,108.6,0,0,97,3.648,3.636,3.63,0,0,0,10.822,61.88,1063.2245861885,10.826772,6,P-GPS,
16500,2025-01-13 04:56:17,37.0152130050356,140.149142838229,10.826772,,,1063.2245861885,12.795276,1.342164,16.5399939676,31.8120417004,21,5,11.044,1063.2245861885,10.826772,6.7779282,16.5399939676,0,1.342164,0,99.5, 6.7, -0.8,0,0,1024,1024,1024,1401,0,0,0,57,109.5,0,0,97,3.648,3.636,3.63,0,0,0,10.822,61.88,1063.2245861885,10.826772,6,P-GPS,
16600,2025-01-13 04:56:17,37.0152130817791,140.149143447938,10.826772,,,1063.2245861885,12.795276,1.342164,16.6894362296,31.9918645408,21,5,11.044,1063.2245861885,10.826772,6.7779282,16.6894362296,0,1.11847,0,100.5, 6, 0.3,0,0,1024,1024,1024,1465,0,0,0,67,110.9,0,0,97,3.648,3.636,3.63,0,0,0,10.822,61.88,1063.2245861885,10.826772,6,P-GPS,
16700,2025-01-13 04:56:17,37.0152131093569,140.149144243005,10.826772,,,1063.2245861885,12.795276,0.894776,16.8960963412,32.2236886952,21,5,11.044,1063.2245861885,10.826772,6.7779282,16.8960963412,0,0.894776,0,102.4, 4.5, 0.6,0,0,1024,1024,1024,1558,0,0,0,81,112.7,0,0,97,3.648,3.636,3.63,0,0,0,10.822,61.88,1063.2245861885,10.826772,6,P-GPS,
16800,2025-01-13 04:56:17,37.0152132290852,140.149144683491,10.826772,,,1063.2245861885,12.795276,0.894776,16.9953417512,32.359253004,22,5,11.044,1063.2245861885,10.826772,6.7779282,16.9953417512,0.223694,0.894776,0,104.6, 3.4, 0.2,0,0,1024,1024,1024,1613,0,0,0,89,114.8,0,0,97,3.648,3.636,3.63,0,0,0,10.822,61.88,1063.2245861885,10.826772,6,P-GPS,
16900,2025-01-13 04:56:17,37.0152131220119,140.149145359856,10.826772,,,1063.2245861885,12.795276,0.7158208,17.1913063244,32.5601388372,22,5,11.044,1063.2245861885,10.826772,6.7779282,17.1913063244,0.223694,0.671082,0,106.8, 2.5, 3,0,0,1024,1024,1024,1684,0,0,0,100,117.2,0,0,97,3.648,3.636,3.63,0,0,0,10.822,61.88,1063.2245861885,10.826772,6,P-GPS,
17000,2025-01-13 04:56:17,37.0152132273312,140.149145773418,10.826772,,,1063.2245861885,12.795276,0.671082,17.2861882172,32.6865824108,22,5,11.044,1063.2245861885,10.826772,6.7779282,17.2861882172,0,0.671082,0,109.8, 1.9, 5.8,0,0,1024,1024,1024,1684,0,0,0,100,119.9,0,0,97,3.648,3.636,3.63,0,0,0,10.822,61.88,1063.2245861885,10.826772,6,P-GPS,
17100,2025-01-13 04:56:17,37.0152133831397,140.149146284831,10.826772,,,1063.2245861885,12.795276,0.447388,17.4003942576,32.84612966,22,5,11.044,1063.2245861885,10.826772,6.7779282,17.4003942576,0,0.447388,0,113.3, 2.2, 4.7,0,0,1024,1024,1024,1684,0,0,0,100,122.9,0,0,97,3.648,3.636,3.63,0,0,0,10.822,61.88,1063.2245861885,10.826772,6,P-GPS,
17200,2025-01-13 04:56:17,37.015213327577,140.14914662208,10.826772,,,1063.2245861885,12.795276,0.447388,17.498688224,32.946523364,22,5,11.044,1063.2245861885,10.826772,6.7779282,17.498688224,0,0.447388,0,116.5, 3.8, 0.2,0,0,1024,1024,1024,1684,0,0,0,100,126,0,0,97,3.648,3.636,3.63,0,0,0,10.822,61.88,1063.2245861885,10.826772,6,P-GPS,
17300,2025-01-13 04:56:17,37.0152131176065,140.149146913186,10.826772,,,1063.2245861885,12.795276,0.447388,17.606791902,33.060696596,22,5,11.044,1063.2245861885,10.826772,6.7779282,17.606791902,0,0.447388,0,119.3, 3.6, -1.1,0,0,1024,1024,1024,1684,0,0,0,100,129.2,0,0,97,3.648,3.636,3.63,0,0,0,10.822,61.88,1063.2245861885,10.826772,6,P-GPS,
17400,2025-01-13 04:56:18,37.0152131260253,140.149147213292,10.826772,,,1063.2245861885,12.795276,0.447388,17.6859585712,33.14796694,22,5,10.998,1063.2245861885,10.826772,6.7779282,17.6859585712,0,0.447388,0,121.8, 2.3, 0.9,0,0,1024,1024,1024,1684,0,0,0,100,132.4,0,0,97,3.649,3.651,3.656,0,0,0,11.638,61.88,1063.2245861885,10.826772,6,P-GPS,
17500,2025-01-13 04:56:18,37.0152135063739,140.149147010081,10.826772,,,1063.2245861885,12.795276,0.447388,17.5773299588,33.29888558,22,5,10.998,1063.2245861885,10.826772,6.7779282,17.6859585712,0,0.447388,0,124.9, 2.1, 3.1,0,0,1024,1024,1024,1684,0,0,0,100,135.6,0,0,97,3.649,3.651,3.656,0,0,0,11.638,61.88,1063.2245861885,10.826772,6,P-GPS,
17600,2025-01-13 04:56:18,37.0152135520421,140.149147250558,10.826772,,,1063.2245861885,12.795276,0.223694,17.6355320604,33.37106406,23,5,10.998,1063.2245861885,10.826772,6.7779282,17.6859585712,0,0.223694,0,128.7, 2.6, 3,0,0,1024,1024,1024,1684,0,0,0,100,138.8,0,0,97,3.649,3.651,3.656,0,0,0,11.638,61.88,1063.2245861885,10.826772,6,P-GPS,
17700,2025-01-13 04:56:18,37.015213563894,140.149147545081,10.826772,,,1063.2245861885,12.795276,0.223694,17.713091118,33.457022068,23,5,10.998,1063.2245861885,10.826772,6.7779282,17.713091118,0,0.223694,0,132.2, 2.3, 1.2,0,0,1024,1024,1024,1684,0,0,0,100,142,0,0,97,3.649,3.651,3.656,0,0,0,11.638,61.88,1063.2245861885,10.826772,6,P-GPS,
17800,2025-01-13 04:56:18,37.0152135782729,140.149147705774,10.826772,,,1063.2245861885,12.795276,0,17.7543312768,33.50393808,23,5,10.998,1063.2245861885,10.826772,6.7779282,17.7543312768,0,0,0,135.1, 2.7, 0.8,0,0,1024,1024,1024,1684,0,0,0,100,145.2,0,0,97,3.649,3.651,3.656,0,0,0,11.638,61.88,1063.2245861885,10.826772,6,P-GPS,
17900,2025-01-13 04:56:18,37.0152133542361,140.149147634123,10.826772,,,1063.2245861885,12.467192,0,17.7664375764,33.588255668,23,5,10.998,1063.2245861885,10.826772,6.7779282,17.7664375764,0,0,0,137.7, 2.9, -2.4,0,0,1024,1024,1024,1684,0,0,0,100,148.4,0,0,97,3.649,3.651,3.656,0,0,0,11.638,61.88,1063.2245861885,10.826772,6,P-GPS,
18000,2025-01-13 04:56:18,37.0152133849537,140.149147759804,10.826772,,,1063.2245861885,12.795276,0,17.7958995196,33.626641496,23,5,10.998,1063.2245861885,10.826772,6.7779282,17.7958995196,0,0,0,140.2, 2.6, -1.5,0,0,1024,1024,1021,1684,0,0,-0,100,151.6,0,0,97,3.649,3.651,3.656,0,0,0,11.638,61.88,1063.2245861885,10.826772,6,P-GPS,
18100,2025-01-13 04:56:18,37.0152133192975,140.149147942394,10.826772,,,1063.2245861885,12.795276,0,17.8542328548,33.685040448,23,5,10.998,1063.2245861885,10.826772,6.7779282,17.8542328548,0,0,0,142.8, 0.4, 3.8,0,0,1024,1024,1016,1684,0,0,-1,100,154.8,0,0,97,3.649,3.651,3.656,0,0,0,11.638,61.88,1063.2245861885,10.826772,6,P-GPS,
18200,2025-01-13 04:56:18,37.015213350923,140.149148047508,10.826772,,,1063.2245861885,12.795276,0,17.8780517532,33.717848848,23,5,10.998,1063.2245861885,10.826772,6.7779282,17.8780517532,0,0,0,146.5, -1.6, 3.4,0,0,1024,1024,1006,1684,0,0,-3,100,158,0,0,97,3.649,3.651,3.656,0,0,0,11.638,61.88,1063.2245861885,10.826772,6,P-GPS,
18300,2025-01-13 04:56:18,37.0152132075939,140.1491478676,10.826772,,,1063.2245861885,12.795276,0.223694,17.8498693376,33.791667748,23,5,10.998,1063.2245861885,10.826772,6.7779282,17.8780517532,-0.223694,0,0,149.9, 0.7, -2,0,0,1024,1024,995,1684,0,0,-4,100,161.2,0,0,97,3.649,3.651,3.656,0,0,0,11.638,61.88,1063.2245861885,10.826772,6,P-GPS,
18400,2025-01-13 04:56:18,37.0152130822309,140.149147903288,10.826772,,,1063.2245861885,12.795276,0,17.8772315432,33.83858376,23,5,10.959,1063.2245861885,10.826772,6.7779282,17.8780517532,0,0,0,152.3, 5.7, -4.1,0,0,1024,1024,987,1684,0,0,-6,100,164.4,0,0,97,3.645,3.65,3.659,0,0,0,11.73,62.06,1063.2245861885,10.826772,6,P-GPS,
18500,2025-01-13 04:56:19,37.0152128006248,140.149147480398,10.826772,,,1063.2245861885,12.795276,0,17.8043312784,33.999016836,23,5,10.959,1063.2245861885,10.826772,6.7779282,17.8780517532,0,0,0,154.6, 3.7, 0.5,0,0,1024,1024,987,1684,0,0,-6,100,167.6,0,0,97,3.645,3.65,3.659,0,0,0,11.73,62.06,1063.2245861885,10.826772,6,P-GPS,
