time(millisecond),datetime(utc),latitude,longitude,height_above_takeoff(feet),height_above_ground_at_drone_location(feet),ground_elevation_at_drone_location(feet),altitude_above_seaLevel(feet),height_sonar(feet),speed(mph),distance(feet),mileage(feet),satellites,gpslevel,voltage(v),max_altitude(feet),max_ascent(feet),max_speed(mph),max_distance(feet), xSpeed(mph), ySpeed(mph), zSpeed(mph), compass_heading(degrees), pitch(degrees), roll(degrees),isPhoto,isVideo,rc_elevator,rc_aileron,rc_throttle,rc_rudder,rc_elevator(percent),rc_aileron(percent),rc_throttle(percent),rc_rudder(percent),gimbal_heading(degrees),gimbal_pitch(degrees),gimbal_roll(degrees),battery_percent,voltageCell1,voltageCell2,voltageCell3,voltageCell4,voltageCell5,voltageCell6,current(A),battery_temperature(f),altitude(feet),ascent(feet),flycStateRaw,flycState,message
0,2025-03-09 05:57:11,0,0,0,Available with any HD 360 subscription,Available with any HD 360 subscription,1053.0693411129,0.656168,0,0,0,14,2,0,1053.0693411129,0,0,0,0,0,0,80.9, 0.8, 1,0,0,1024,1024,1024,1024,0,0,0,0,83.1,0,0,98,3.962,3.953,3.957,0,0,0,0,62.96,1053.0693411129,0,41,Motors_Started,
100,2025-03-09 05:57:11,0,0,0,,,1053.0693411129,0.656168,0,0,0,14,2,0,1053.0693411129,0,0,0,0,0,0,80.9, 0.8, 1,0,0,1024,1024,1024,1024,0,0,0,0,83.1,0,0,98,3.962,3.953,3.957,0,0,0,0,62.96,1053.0693411129,0,41,Motors_Started,
200,2025-03-09 05:57:11,0,0,0,,,1053.0693411129,0.656168,0,0,0,14,2,0,1053.0693411129,0,0,0,0,0,0,80.9, 0.8, 1,0,0,1024,1024,1024,1024,0,0,0,0,83.1,0,0,98,3.962,3.953,3.957,0,0,0,0,62.96,1053.0693411129,0,41,Motors_Started,
300,2025-03-09 05:57:11,0,0,0,,,1053.0693411129,0.656168,0,0,0,14,2,0,1053.0693411129,0,0,0,0,0,0,80.9, 0.8, 1,0,0,1024,1024,1024,1024,0,0,0,0,83.1,0,0,98,3.962,3.953,3.957,0,0,0,0,62.96,1053.0693411129,0,41,Motors_Started,
400,2025-03-09 05:57:11,0,0,0,,,1053.0693411129,0.656168,0,0,0,14,2,0,1053.0693411129,0,0,0,0,0,0,80.9, 0.8, 1,0,0,1024,1024,1024,1024,0,0,0,0,83.1,0,0,98,3.962,3.953,3.957,0,0,0,0,62.96,1053.0693411129,0,41,Motors_Started,"Setting new Return-To-Home altitude to 100m (328 ft). Data Recorder File Index is 23. Setting new Maximum Flight Altitude to 30m (98 ft)"
500,2025-03-09 05:57:11,0,0,0,,,1053.0693411129,0.656168,0,0,0,14,2,0,1053.0693411129,0,0,0,0,0,0,80.9, 0.8, 1,0,0,1024,1024,1024,1024,0,0,0,0,83.2,0,0,98,3.962,3.953,3.957,0,0,0,0,62.96,1053.0693411129,0,41,Motors_Started,
600,2025-03-09 05:57:11,0,0,0,,,1053.0693411129,0.656168,0,0,0,14,2,0,1053.0693411129,0,0,0,0,0,0,80.9, 0.8, 1,0,0,1024,1024,1024,1024,0,0,0,0,83.2,0,0,98,3.962,3.953,3.957,0,0,0,0,62.96,1053.0693411129,0,41,Motors_Started,
700,2025-03-09 05:57:11,0,0,0,,,1053.0693411129,0.656168,0,0,0,14,2,0,1053.0693411129,0,0,0,0,0,0,80.9, 0.8, 1,0,0,1024,1024,1024,1024,0,0,0,0,83.2,0,0,98,3.962,3.953,3.957,0,0,0,0,62.96,1053.0693411129,0,41,Motors_Started,
800,2025-03-09 05:57:11,0,0,0,,,1053.0693411129,0.656168,0,0,0,14,2,0,1053.0693411129,0,0,0,0,0,0,80.9, 0.8, 1,0,0,1024,1024,1024,1024,0,0,0,0,83.2,0,0,98,3.962,3.953,3.957,0,0,0,0,62.96,1053.0693411129,0,41,Motors_Started,
900,2025-03-09 05:57:11,0,0,0,,,1053.0693411129,0.656168,0,0,0,14,2,0,1053.0693411129,0,0,0,0,0,0,81, 0.7, 1,0,0,1024,1024,1024,1024,0,0,0,0,83.2,0,0,98,3.962,3.953,3.957,0,0,0,0,62.96,1053.0693411129,0,41,Motors_Started,
1000,2025-03-09 05:57:12,0,0,0,,,1053.0693411129,0.656168,0,0,0,14,2,12.05,1053.0693411129,0,0,0,0,0,0,80.9, 0.7, 1,0,0,1024,1024,1024,1024,0,0,0,0,83.2,0,0,98,3.962,3.953,3.957,0,0,0,1.893,62.96,1053.0693411129,0,41,Motors_Started,
1100,2025-03-09 05:57:12,0,0,0,,,1053.0693411129,0.656168,0,0,0,14,2,12.05,1053.0693411129,0,0,0,0,0,0,81, 0.8, 1,0,0,1024,1024,1024,1024,0,0,0,0,83.2,0,0,98,3.962,3.953,3.957,0,0,0,1.893,62.96,1053.0693411129,0,41,Motors_Started,
1200,2025-03-09 05:57:12,0,0,0,,,1053.0693411129,0.656168,0,0,0,14,2,12.05,1053.0693411129,0,0,0,0,0,0,80.9, 0.8, 1,0,0,1024,1024,1024,1024,0,0,0,0,83.2,0,0,98,3.962,3.953,3.957,0,0,0,1.893,62.96,1053.0693411129,0,41,Motors_Started,
1300,2025-03-09 05:57:12,0,0,0,,,1053.0693411129,0.656168,0,0,0,14,2,12.05,1053.0693411129,0,0,0,0,0,0,80.8, 0.8, 1,0,0,1024,1024,1024,1024,0,0,0,0,83.2,0,0,98,3.962,3.953,3.957,0,0,0,1.893,62.96,1053.0693411129,0,41,Motors_Started,
1400,2025-03-09 05:57:12,0,0,0,,,1053.0693411129,0.656168,0,0,0,14,2,12.05,1053.0693411129,0,0,0,0,0,0,80.7, 0.8, 1,0,0,1024,1024,1024,1024,0,0,0,0,83.2,0,0,98,3.962,3.953,3.957,0,0,0,1.893,62.96,1053.0693411129,0,41,Motors_Started,
1500,2025-03-09 05:57:12,0,0,0,,,1053.0693411129,0.656168,0,0,0,14,2,12.05,1053.0693411129,0,0,0,0,0,0,80.7, 0.8, 1,0,0,1024,1024,1024,1024,0,0,0,0,83.2,0,0,98,3.962,3.953,3.957,0,0,0,1.893,62.96,1053.0693411129,0,41,Motors_Started,
1600,2025-03-09 05:57:12,0,0,0,,,1053.0693411129,0.656168,0,0,0,14,2,12.05,1053.0693411129,0,0,0,0,0,0,80.7, 0.8, 1,0,0,1024,1024,1024,1024,0,0,0,0,83.2,0,0,98,3.962,3.953,3.957,0,0,0,1.893,62.96,1053.0693411129,0,11,AutoTakeoff,
1700,2025-03-09 05:57:12,0,0,0,,,1053.0693411129,0.656168,0,0,0,14,2,12.05,1053.0693411129,0,0,0,0,0,0,80.7, 0.8, 0.9,0,0,1024,1024,1024,1024,0,0,0,0,83.2,0,0,98,3.962,3.953,3.957,0,0,0,1.893,62.96,1053.0693411129,0,11,AutoTakeoff,
1800,2025-03-09 05:57:12,0,0,0,,,1053.0693411129,0.656168,0,0,0,14,2,12.05,1053.0693411129,0,0,0,0,0,0,80.6, 0.8, 0.9,0,0,1024,1024,1024,1024,0,0,0,0,83.2,0,0,98,3.962,3.953,3.957,0,0,0,1.893,62.96,1053.0693411129,0,11,AutoTakeoff,
1900,2025-03-09 05:57:12,0,0,0,,,1053.0693411129,0.656168,0,0,0,14,2,12.05,1053.0693411129,0,0,0,0,0,0,80.5, 0.8, 0.8,0,0,1024,1024,1024,1024,0,0,0,0,83.2,0,0,98,3.962,3.953,3.957,0,0,0,1.893,62.96,1053.0693411129,0,11,AutoTakeoff,
2000,2025-03-09 05:57:13,0,0,0,,,1053.0693411129,0.656168,0,0,0,14,2,11.78,1053.0693411129,0,0,0,0,0,0,80.4, 0.8, 0.8,0,0,1024,1024,1024,1024,0,0,0,0,83.2,0,0,97,3.932,3.921,3.935,0,0,0,4.41,62.96,1053.0693411129,0,11,AutoTakeoff,
2100,2025-03-09 05:57:13,0,0,0,,,1053.0693411129,0.656168,0,0,0,14,2,11.78,1053.0693411129,0,0,0,0,0,0,80.4, 0.7, 0.7,0,0,1024,1024,1024,1024,0,0,0,0,83.2,0,0,97,3.932,3.921,3.935,0,0,0,4.41,62.96,1053.0693411129,0,11,AutoTakeoff,
2200,2025-03-09 05:57:13,0,0,0,,,1053.0693411129,0.656168,0,0,0,14,2,11.78,1053.0693411129,0,0,0,0,0,0,80.4, 0.3, 0.7,0,0,1024,1024,1024,1024,0,0,0,0,83.2,0,0,97,3.932,3.921,3.935,0,0,0,4.41,62.96,1053.0693411129,0,11,AutoTakeoff,飛行中
2300,2025-03-09 05:57:13,0,0,0,,,1053.0693411129,0.656168,0,0,0,14,2,11.78,1053.0693411129,0,0,0,0,0,0,80.2, -0.9, 0.6,0,0,1024,1024,1024,1024,0,0,0,0,83.2,0,0,97,3.932,3.921,3.935,0,0,0,4.41,62.96,1053.0693411129,0,11,AutoTakeoff,
2400,2025-03-09 05:57:13,0,0,0,,,1053.0693411129,0.656168,0,0,0,14,2,11.78,1053.0693411129,0,0,0,0,0,0,79.5, -2.4, 0.1,0,0,1024,1024,1024,1024,0,0,0,0,83.2,0,0,97,3.932,3.921,3.935,0,0,0,4.41,62.96,1053.0693411129,0,11,AutoTakeoff,
2500,2025-03-09 05:57:13,0,0,0,,,1053.0693411129,0.656168,0,0,0,14,2,11.78,1053.0693411129,0,0,0,0,0,-0.223694,78.7, -3.4, 0.1,0,0,1024,1024,1024,1024,0,0,0,0,83.2,0,0,97,3.932,3.921,3.935,0,0,0,4.41,62.96,1053.0693411129,0,11,AutoTakeoff,
2600,2025-03-09 05:57:13,0,0,0,,,1053.0693411129,0.656168,0.223694,0,0,14,2,11.78,1053.0693411129,0,0.223694,0,0,0.223694,-0.447388,78.3, -2.7, 0,0,0,1024,1024,1024,1024,0,0,0,0,83.1,0,0,97,3.932,3.921,3.935,0,0,0,4.41,62.96,1053.0693411129,0,11,AutoTakeoff,
2700,2025-03-09 05:57:13,0,0,0,,,1053.0693411129,0.656168,0.3131716,0,0,14,2,11.78,1053.0693411129,0,0.3131716,0,-0.223694,0.223694,-0.671082,78.2, 0, -1.3,0,0,1024,1024,1024,1024,0,0,0,0,83,0,0,97,3.932,3.921,3.935,0,0,0,4.41,62.96,1053.0693411129,0,11,AutoTakeoff,
2800,2025-03-09 05:57:13,0,0,0.328084,,,1053.3974251129,0.656168,0.223694,0,0,14,2,11.78,1053.3974251129,0.328084,0.3131716,0,0,0.223694,-0.894776,78.1, 1.8, -2.7,0,0,1024,1024,1024,1024,0,0,0,0,82.8,0,0,97,3.932,3.921,3.935,0,0,0,4.41,62.96,1053.3974251129,0.328084,11,AutoTakeoff,
2900,2025-03-09 05:57:13,0,0,0.328084,,,1053.3974251129,0.656168,0.223694,0,0,14,2,11.78,1053.3974251129,0.328084,0.3131716,0,0,0.223694,-0.894776,78.1, 1.7, -2.2,0,0,1024,1024,1024,1024,0,0,0,0,82.7,0,0,97,3.932,3.921,3.935,0,0,0,4.41,62.96,1053.3974251129,0.328084,11,AutoTakeoff,
3000,2025-03-09 05:57:14,0,0,0.656168,,,1053.7255091129,0.656168,0,0,0,14,2,11.748,1053.7255091129,0.656168,0.3131716,0,0,0,-1.11847,78.1, 1.1, -0.9,0,0,1024,1024,1024,1024,0,0,0,0,82.6,0,0,97,3.871,3.851,3.852,0,0,0,3.972,62.96,1053.7255091129,0.656168,11,AutoTakeoff,
3100,2025-03-09 05:57:14,0,0,0.656168,,,1053.7255091129,0.984252,0,0,0,14,2,11.748,1053.7255091129,0.656168,0.3131716,0,0,0,-1.11847,78.2, 0.7, -1.6,0,0,1024,1024,1024,1024,0,0,0,0,82.6,0,0,97,3.871,3.851,3.852,0,0,0,3.972,62.96,1053.7255091129,0.656168,11,AutoTakeoff,
3200,2025-03-09 05:57:14,0,0,0.984252,,,1054.0535931129,0.984252,0,0,0,15,2,11.748,1054.0535931129,0.984252,0.3131716,0,0,0,-1.11847,78.2, 0.3, -2,0,0,1024,1024,1024,1024,0,0,0,0,82.5,0,0,97,3.871,3.851,3.852,0,0,0,3.972,62.96,1054.0535931129,0.984252,11,AutoTakeoff,
3300,2025-03-09 05:57:14,0,0,0.984252,,,1054.0535931129,1.312336,0,0,0,15,2,11.748,1054.0535931129,0.984252,0.3131716,0,0,0,-1.11847,78.3, -0.2, -1.2,0,0,1024,1024,1024,1024,0,0,0,0,82.4,0,0,97,3.871,3.851,3.852,0,0,0,3.972,62.96,1054.0535931129,0.984252,11,AutoTakeoff,
3400,2025-03-09 05:57:14,0,0,1.312336,,,1054.3816771129,1.312336,0,0,0,15,2,11.748,1054.3816771129,1.312336,0.3131716,0,0,0,-1.11847,78.4, -0.3, -0.4,0,0,1024,1024,1024,1024,0,0,0,0,82.4,0,0,97,3.871,3.851,3.852,0,0,0,3.972,62.96,1054.3816771129,1.312336,11,AutoTakeoff,
3500,2025-03-09 05:57:14,0,0,1.312336,,,1054.3816771129,1.64042,0,0,0,15,2,11.748,1054.3816771129,1.312336,0.3131716,0,0,0,-1.11847,78.4, -0.3, -0.6,0,0,1024,1024,1024,1024,0,0,0,0,82.3,0,0,97,3.871,3.851,3.852,0,0,0,3.972,62.96,1054.3816771129,1.312336,11,AutoTakeoff,
3600,2025-03-09 05:57:14,0,0,1.64042,,,1054.7097611129,1.64042,0,0,0,15,2,11.748,1054.7097611129,1.64042,0.3131716,0,0,0,-0.894776,78.5, -0.1, -0.9,0,0,1024,1024,1038,1024,0,0,2,0,82.3,0,0,97,3.871,3.851,3.852,0,0,0,3.972,62.96,1054.7097611129,1.64042,11,AutoTakeoff,
3700,2025-03-09 05:57:14,0,0,1.64042,,,1054.7097611129,1.968504,0,0,0,15,2,11.748,1054.7097611129,1.64042,0.3131716,0,0,0,-0.894776,78.5, 0, -1.8,0,0,1024,1024,1068,1024,0,0,7,0,82.3,0,0,97,3.871,3.851,3.852,0,0,0,3.972,62.96,1054.7097611129,1.64042,11,AutoTakeoff,
3800,2025-03-09 05:57:14,0,0,1.968504,,,1055.0378451129,1.968504,0,0,0,15,2,11.748,1055.0378451129,1.968504,0.3131716,0,0,0,-0.894776,78.5, -0.8, -3,0,0,1024,1024,1062,1024,0,0,6,0,82.2,0,0,97,3.871,3.851,3.852,0,0,0,3.972,62.96,1055.0378451129,1.968504,11,AutoTakeoff,
3900,2025-03-09 05:57:14,0,0,1.968504,,,1055.0378451129,2.296588,0,0,0,15,2,11.748,1055.0378451129,1.968504,0.3131716,0,0,0,-0.894776,78.4, -1.5, -2.8,0,0,1024,1024,1098,1024,0,0,11,0,82.2,0,0,97,3.871,3.851,3.852,0,0,0,3.972,62.96,1055.0378451129,1.968504,11,AutoTakeoff,
4000,2025-03-09 05:57:14,0,0,2.296588,,,1055.3659291129,2.296588,0,0,0,14,2,11.25,1055.3659291129,2.296588,0.3131716,0,0,0,-0.894776,78.4, -1.4, -2.7,0,0,1024,1024,1107,1024,0,0,13,0,82.2,0,0,97,3.754,3.739,3.75,0,0,0,10.585,62.96,1055.3659291129,2.296588,11,AutoTakeoff,
4100,2025-03-09 05:57:15,0,0,2.296588,,,1055.3659291129,2.624672,0,0,0,14,2,11.25,1055.3659291129,2.296588,0.3131716,0,0,0,-0.894776,78.4, -1.3, -3.1,0,0,1024,1024,1187,1024,0,0,25,0,82.1,0,0,97,3.754,3.739,3.75,0,0,0,10.585,62.96,1055.3659291129,2.296588,11,AutoTakeoff,
4200,2025-03-09 05:57:15,0,0,2.296588,,,1055.3659291129,2.624672,0,0,0,15,2,11.25,1055.3659291129,2.296588,0.3131716,0,0,0,-1.11847,78.2, -0.2, -2.2,0,0,1024,1024,1251,1024,0,0,34,0,82.1,0,0,97,3.754,3.739,3.75,0,0,0,10.585,62.96,1055.3659291129,2.296588,11,AutoTakeoff,
4300,2025-03-09 05:57:15,0,0,2.624672,,,1055.6940131129,2.952756,0,0,0,15,2,11.25,1055.6940131129,2.624672,0.3131716,0,0,0,-1.11847,78.2, 0.5, -0.6,0,0,1024,1024,1304,1024,0,0,42,0,82,0,0,97,3.754,3.739,3.75,0,0,0,10.585,62.96,1055.6940131129,2.624672,11,AutoTakeoff,
4400,2025-03-09 05:57:15,0,0,2.952756,,,1056.0220971129,2.952756,0,0,0,15,2,11.25,1056.0220971129,2.952756,0.3131716,0,0,0,-1.565858,78.3, -0.2, -0.5,0,0,1024,1024,1297,1024,0,0,41,0,82,0,0,97,3.754,3.739,3.75,0,0,0,10.585,62.96,1056.0220971129,2.952756,11,AutoTakeoff,
4500,2025-03-09 05:57:15,0,0,2.952756,,,1056.0220971129,3.28084,0,0,0,15,2,11.25,1056.0220971129,2.952756,0.3131716,0,0,0,-2.013246,78.2, -0.7, -0.9,0,0,1024,1024,1297,1024,0,0,41,0,82,0,0,97,3.754,3.739,3.75,0,0,0,10.585,62.96,1056.0220971129,2.952756,11,AutoTakeoff,
4600,2025-03-09 05:57:15,0,0,3.608924,,,1056.6782651129,3.608924,0,0,0,15,2,11.25,1056.6782651129,3.608924,0.3131716,0,0,0,-2.460634,78.3, -0.4, -1.9,0,0,1024,1024,1132,1024,0,0,16,0,82,0,0,97,3.754,3.739,3.75,0,0,0,10.585,62.96,1056.6782651129,3.608924,6,P-GPS,
4700,2025-03-09 05:57:15,0,0,3.937008,,,1057.0063491129,4.265092,0,0,0,15,2,11.25,1057.0063491129,3.937008,0.3131716,0,0,0,-2.684328,78.4, -1.1, -4,0,0,1024,1024,1024,1024,0,0,0,0,82,0,0,97,3.754,3.739,3.75,0,0,0,10.585,62.96,1057.0063491129,3.937008,6,P-GPS,
4800,2025-03-09 05:57:15,0,0,4.265092,,,1057.3344331129,4.593176,0,0,0,15,2,11.25,1057.3344331129,4.265092,0.3131716,0,0,0,-2.23694,78.3, -2.3, -3.7,0,0,1024,1024,1024,1024,0,0,0,0,82,0,0,97,3.754,3.739,3.75,0,0,0,10.585,62.96,1057.3344331129,4.265092,6,P-GPS,
4900,2025-03-09 05:57:15,0,0,4.593176,,,1057.6625171129,4.92126,0,0,0,15,2,11.25,1057.6625171129,4.593176,0.3131716,0,0,0,-1.789552,78.8, -1.6, -1.5,0,0,1024,1138,1024,1024,0,17,0,0,82,0,0,97,3.754,3.739,3.75,0,0,0,10.585,62.96,1057.6625171129,4.593176,6,P-GPS,
5000,2025-03-09 05:57:15,0,0,4.92126,,,1057.9906011129,4.92126,0,0,0,15,2,11.206,1057.9906011129,4.92126,0.3131716,0,0,0,-1.11847,79.1, -0.2, 0.3,0,0,1024,1251,1024,1024,0,34,0,0,82,0,0,97,3.722,3.699,3.706,0,0,0,11.095,63.14,1057.9906011129,4.92126,6,P-GPS,
5100,2025-03-09 05:57:16,0,0,4.92126,,,1057.9906011129,5.249344,0,0,0,15,2,11.206,1057.9906011129,4.92126,0.3131716,0,0,0,-0.671082,79.8, -0.2, 1.2,0,0,1024,1345,1024,1024,0,49,0,0,82,0,0,97,3.722,3.699,3.706,0,0,0,11.095,63.14,1057.9906011129,4.92126,6,P-GPS,
5200,2025-03-09 05:57:16,0,0,4.92126,,,1057.9906011129,5.249344,0,0,0,14,2,11.206,1057.9906011129,4.92126,0.3131716,0,0,0,-0.223694,80.3, -0.8, 2.9,0,0,1024,1392,1024,1024,0,56,0,0,82,0,0,97,3.722,3.699,3.706,0,0,0,11.095,63.14,1057.9906011129,4.92126,6,P-GPS,
5300,2025-03-09 05:57:16,0,0,4.92126,,,1057.9906011129,5.249344,0.223694,0,0,14,2,11.206,1057.9906011129,4.92126,0.3131716,0,-0.223694,0,0,81.3, -1.8, 6.6,0,0,1024,1392,1024,1024,0,56,0,0,82,0,0,97,3.722,3.699,3.706,0,0,0,11.095,63.14,1057.9906011129,4.92126,6,P-GPS,
5400,2025-03-09 05:57:16,0,0,4.92126,,,1057.9906011129,5.249344,0.447388,0,0,14,2,11.206,1057.9906011129,4.92126,0.447388,0,-0.447388,0,0,81.5, -1.4, 10.2,0,0,1024,1316,1024,1024,0,44,0,0,82,0,0,97,3.722,3.699,3.706,0,0,0,11.095,63.14,1057.9906011129,4.92126,6,P-GPS,
5500,2025-03-09 05:57:16,0,0,4.92126,,,1057.9906011129,5.249344,0.9171454,0,0,14,2,11.206,1057.9906011129,4.92126,0.9171454,0,-0.894776,0.223694,0.223694,81.8, 0.1, 11,0,0,1024,1108,1024,1024,0,13,0,0,82,0,0,97,3.722,3.699,3.706,0,0,0,11.095,63.14,1057.9906011129,4.92126,6,P-GPS,
5600,2025-03-09 05:57:16,0,0,4.92126,,,1057.9906011129,4.92126,1.3645334,0,0,15,2,11.206,1057.9906011129,4.92126,1.3645334,0,-1.342164,0.223694,0,82.6, 0.6, 7.9,0,0,1024,1024,1024,1024,0,0,0,0,82,0,0,97,3.722,3.699,3.706,0,0,0,11.095,63.14,1057.9906011129,4.92126,6,P-GPS,
5700,2025-03-09 05:57:16,0,0,4.92126,,,1057.9906011129,4.92126,1.8119214,0,0,15,2,11.206,1057.9906011129,4.92126,1.8119214,0,-1.789552,0.223694,0,82.2, 0.5, 1.3,0,0,1024,1024,1024,1024,0,0,0,0,82,0,0,97,3.722,3.699,3.706,0,0,0,11.095,63.14,1057.9906011129,4.92126,6,P-GPS,
5800,2025-03-09 05:57:16,0,0,4.92126,,,1057.9906011129,4.92126,1.789552,0,0,15,2,11.206,1057.9906011129,4.92126,1.8119214,0,-1.789552,0,0,81.2, -0.4, -7.2,0,0,1024,1024,1024,1024,0,0,0,0,82,0,0,97,3.722,3.699,3.706,0,0,0,11.095,63.14,1057.9906011129,4.92126,6,P-GPS,
5900,2025-03-09 05:57:16,0,0,4.92126,,,1057.9906011129,4.92126,1.342164,0,0,15,2,11.206,1057.9906011129,4.92126,1.8119214,0,-1.342164,0,0,79.7, -1, -9.5,0,0,1024,1024,1036,1024,0,0,2,0,82,0,0,97,3.722,3.699,3.706,0,0,0,11.095,63.14,1057.9906011129,4.92126,6,P-GPS,
6000,2025-03-09 05:57:17,0,0,4.92126,,,1057.9906011129,4.92126,1.11847,0,0,15,2,11.206,1057.9906011129,4.92126,1.8119214,0,-1.11847,0,0,78.7, -1, -6.6,0,0,1024,1024,1024,1102,0,0,0,12,82,0,0,97,3.722,3.699,3.706,0,0,0,11.095,63.14,1057.9906011129,4.92126,6,P-GPS,
6100,2025-03-09 05:57:17,0,0,4.92126,,,1057.9906011129,4.92126,0.894776,0,0,15,2,11.333,1057.9906011129,4.92126,1.8119214,0,-0.894776,0,0,78.8, -1, -4.5,0,0,1024,1024,1024,1386,0,0,0,55,82,0,0,97,3.771,3.753,3.759,0,0,0,11.538,63.14,1057.9906011129,4.92126,6,P-GPS,
6200,2025-03-09 05:57:17,0,0,4.92126,,,1057.9906011129,5.249344,0.671082,0,0,15,2,11.333,1057.9906011129,4.92126,1.8119214,0,-0.671082,0,0,79.6, -1.3, -5,0,0,1024,1024,1024,1591,0,0,0,86,82.3,0,0,97,3.771,3.753,3.759,0,0,0,11.538,63.14,1057.9906011129,4.92126,6,P-GPS,
6300,2025-03-09 05:57:17,0,0,4.92126,,,1057.9906011129,5.249344,0.671082,0,0,15,2,11.333,1057.9906011129,4.92126,1.8119214,0,-0.671082,0,0,80.9, -1.3, -5,0,0,1024,1024,1024,1684,0,0,0,100,83.6,0,0,97,3.771,3.753,3.759,0,0,0,11.538,63.14,1057.9906011129,4.92126,6,P-GPS,
6400,2025-03-09 05:57:17,0,0,4.92126,,,1057.9906011129,5.249344,0.447388,0,0,15,2,11.333,1057.9906011129,4.92126,1.8119214,0,-0.447388,0,0,82.8, -1, -4.5,0,0,1024,1024,1024,1684,0,0,0,100,85.7,0,0,97,3.771,3.753,3.759,0,0,0,11.538,63.14,1057.9906011129,4.92126,6,P-GPS,
6500,2025-03-09 05:57:17,0,0,4.92126,,,1057.9906011129,5.249344,0.223694,0,0,15,2,11.333,1057.9906011129,4.92126,1.8119214,0,-0.223694,0,0,85.2, -0.7, -3.8,0,0,1024,1024,1024,1684,0,0,0,100,88.6,0,0,97,3.771,3.753,3.759,0,0,0,11.538,63.14,1057.9906011129,4.92126,6,P-GPS,
6600,2025-03-09 05:57:17,0,0,4.92126,,,1057.9906011129,5.249344,0.223694,0,0,15,2,11.333,1057.9906011129,4.92126,1.8119214,0,-0.223694,0,0,88, -0.7, -3,0,0,1024,1024,1024,1684,0,0,0,100,91.7,0,0,97,3.771,3.753,3.759,0,0,0,11.538,63.14,1057.9906011129,4.92126,6,P-GPS,
6700,2025-03-09 05:57:17,0,0,4.92126,,,1057.9906011129,5.249344,0.223694,0,0,15,2,11.333,1057.9906011129,4.92126,1.8119214,0,-0.223694,0,0,91.1, -0.6, -2.4,0,0,1024,1024,1024,1684,0,0,0,100,94.8,0,0,97,3.771,3.753,3.759,0,0,0,11.538,63.14,1057.9906011129,4.92126,6,P-GPS,
6800,2025-03-09 05:57:17,0,0,4.92126,,,1057.9906011129,5.249344,0.223694,0,0,15,2,11.333,1057.9906011129,4.92126,1.8119214,0,-0.223694,0,0,94.3, -0.6, -2.2,0,0,1024,1024,1024,1684,0,0,0,100,98,0,0,97,3.771,3.753,3.759,0,0,0,11.538,63.14,1057.9906011129,4.92126,6,P-GPS,
6900,2025-03-09 05:57:17,0,0,4.92126,,,1057.9906011129,5.249344,0.223694,0,0,15,2,11.333,1057.9906011129,4.92126,1.8119214,0,-0.223694,0,0,97.5, -0.5, -2.6,0,0,1024,1024,1024,1684,0,0,0,100,101.2,0,0,97,3.771,3.753,3.759,0,0,0,11.538,63.14,1057.9906011129,4.92126,6,P-GPS,
7000,2025-03-09 05:57:17,0,0,4.92126,,,1057.9906011129,5.249344,0,0,0,15,2,11.143,1057.9906011129,4.92126,1.8119214,0,0,0,0,100.7, -0.5, -3.2,0,0,1024,1024,1024,1684,0,0,0,100,104.4,0,0,97,3.725,3.711,3.724,0,0,0,11.364,63.32,1057.9906011129,4.92126,6,P-GPS,
7100,2025-03-09 05:57:17,0,0,4.92126,,,1057.9906011129,5.249344,0,0,0,15,2,11.143,1057.9906011129,4.92126,1.8119214,0,0,0,0,103.9, -0.5, -2.9,0,0,1024,1024,1024,1684,0,0,0,100,107.6,0,0,97,3.725,3.711,3.724,0,0,0,11.364,63.32,1057.9906011129,4.92126,6,P-GPS,
7200,2025-03-09 05:57:17,0,0,4.92126,,,1057.9906011129,5.249344,0,0,0,16,2,11.143,1057.9906011129,4.92126,1.8119214,0,0,0,0,107, -0.5, -2.9,0,0,1024,1024,1024,1684,0,0,0,100,110.8,0,0,97,3.725,3.711,3.724,0,0,0,11.364,63.32,1057.9906011129,4.92126,6,P-GPS,
7300,2025-03-09 05:57:17,0,0,4.92126,,,1057.9906011129,5.249344,0,0,0,16,2,11.143,1057.9906011129,4.92126,1.8119214,0,0,0,0,110.2, -0.3, -3.5,0,0,1024,1024,1024,1684,0,0,0,100,114,0,0,97,3.725,3.711,3.724,0,0,0,11.364,63.32,1057.9906011129,4.92126,6,P-GPS,
7400,2025-03-09 05:57:17,0,0,4.92126,,,1057.9906011129,5.249344,0,0,0,17,2,11.143,1057.9906011129,4.92126,1.8119214,0,0,0,0,113.3, 0, -3.5,0,0,1024,1024,1024,1222,0,0,0,30,117.2,0,0,97,3.725,3.711,3.724,0,0,0,11.364,63.32,1057.9906011129,4.92126,6,P-GPS,
7500,2025-03-09 05:57:18,0,0,4.92126,,,1057.9906011129,5.249344,0,0,0,17,2,11.143,1057.9906011129,4.92126,1.8119214,0,0,0,0,116.2, 0, -2.6,0,0,1024,1024,1024,1024,0,0,0,0,120.1,0,0,97,3.725,3.711,3.724,0,0,0,11.364,63.32,1057.9906011129,4.92126,6,P-GPS,
7600,2025-03-09 05:57:18,0,0,4.92126,,,1057.9906011129,5.249344,0,0,0,16,2,11.143,1057.9906011129,4.92126,1.8119214,0,0,0,0,118.3, -0.3, -2.3,0,0,1024,1024,1024,1024,0,0,0,0,121.9,0,0,97,3.725,3.711,3.724,0,0,0,11.364,63.32,1057.9906011129,4.92126,6,P-GPS,
7700,2025-03-09 05:57:18,0,0,4.92126,,,1057.9906011129,5.249344,0,0,0,16,2,11.143,1057.9906011129,4.92126,1.8119214,0,0,0,0,119.8, -0.4, -1.9,0,0,1024,1024,1024,1024,0,0,0,0,122.7,0,0,97,3.725,3.711,3.724,0,0,0,11.364,63.32,1057.9906011129,4.92126,6,P-GPS,
7800,2025-03-09 05:57:18,0,0,4.92126,,,1057.9906011129,5.249344,0,0,0,16,2,11.143,1057.9906011129,4.92126,1.8119214,0,0,0,0,120.6, -0.5, -1.2,0,0,1024,1024,1024,1024,0,0,0,0,122.9,0,0,97,3.725,3.711,3.724,0,0,0,11.364,63.32,1057.9906011129,4.92126,6,P-GPS,
7900,2025-03-09 05:57:18,0,0,4.92126,,,1057.9906011129,5.249344,0,0,0,16,2,11.143,1057.9906011129,4.92126,1.8119214,0,0,0,0,121, -0.6, -1.4,0,0,1024,1024,1024,1024,0,0,0,0,122.9,0,0,97,3.725,3.711,3.724,0,0,0,11.364,63.32,1057.9906011129,4.92126,6,P-GPS,
8000,2025-03-09 05:57:18,0,0,4.92126,,,1057.9906011129,5.249344,0,0,0,16,2,11.159,1057.9906011129,4.92126,1.8119214,0,0,0,0,121, 0.1, -3.1,0,0,1024,1024,1024,1024,0,0,0,0,122.9,0,0,97,3.721,3.706,3.718,0,0,0,11.03,63.5,1057.9906011129,4.92126,6,P-GPS,
8100,2025-03-09 05:57:18,0,0,4.92126,,,1057.9906011129,5.249344,0,0,0,16,2,11.159,1057.9906011129,4.92126,1.8119214,0,0,0,0,120.5, 1.2, -3.9,0,0,1129,1024,1024,1024,16,0,0,0,122.9,0,0,97,3.721,3.706,3.718,0,0,0,11.03,63.5,1057.9906011129,4.92126,6,P-GPS,
8200,2025-03-09 05:57:18,0,0,4.92126,,,1057.9906011129,5.249344,0,0,0,16,2,11.159,1057.9906011129,4.92126,1.8119214,0,0,0,0,120.1, 1.3, -2.9,0,0,1336,1024,1024,1024,47,0,0,0,122.9,0,0,97,3.721,3.706,3.718,0,0,0,11.03,63.5,1057.9906011129,4.92126,6,P-GPS,
8300,2025-03-09 05:57:18,0,0,4.92126,,,1057.9906011129,5.249344,0,0,0,16,2,11.159,1057.9906011129,4.92126,1.8119214,0,0,0,0,120.2, -1.1, -1.7,0,0,1429,1024,1024,1024,61,0,0,0,122.9,0,0,97,3.721,3.706,3.718,0,0,0,11.03,63.5,1057.9906011129,4.92126,6,P-GPS,
8400,2025-03-09 05:57:19,0,0,4.92126,,,1057.9906011129,5.249344,0,0,0,16,2,11.159,1057.9906011129,4.92126,1.8119214,0,0,0,0,120.6, -8, -1.6,0,0,1464,1024,1024,1024,67,0,0,0,122.9,0,0,97,3.721,3.706,3.718,0,0,0,11.03,63.5,1057.9906011129,4.92126,6,P-GPS,
8500,2025-03-09 05:57:19,0,0,4.92126,,,1057.9906011129,5.249344,0,0,0,16,2,11.159,1057.9906011129,4.92126,1.8119214,0,0,0.447388,0,121.1, -15.6, -1.2,0,0,1463,1024,1024,1024,67,0,0,0,122.9,0,0,97,3.721,3.706,3.718,0,0,0,11.03,63.5,1057.9906011129,4.92126,6,P-GPS,
8600,2025-03-09 05:57:19,0,0,4.92126,,,1057.9906011129,5.249344,1.2079476,0,0,16,2,11.159,1057.9906011129,4.92126,1.8119214,0,-0.447388,1.11847,0,121.5, -18.9, -0.8,0,0,1462,1024,1024,1024,66,0,0,0,122.9,0,0,97,3.721,3.706,3.718,0,0,0,11.03,63.5,1057.9906011129,4.92126,6,P-GPS,
8700,2025-03-09 05:57:19,0,0,4.92126,,,1057.9906011129,5.249344,1.9908766,0,0,16,2,11.159,1057.9906011129,4.92126,1.9908766,0,-0.894776,1.789552,0,121.5, -16.1, -1.6,0,0,1460,1024,1024,1024,66,0,0,0,122.9,0,0,97,3.721,3.706,3.718,0,0,0,11.03,63.5,1057.9906011129,4.92126,6,P-GPS,
8800,2025-03-09 05:57:19,0,0,4.92126,,,1057.9906011129,5.249344,2.5053728,0,0,16,2,11.159,1057.9906011129,4.92126,2.5053728,0,-1.11847,2.23694,0,121.5, -10.6, -1.4,0,0,1455,1024,1024,1024,65,0,0,0,122.9,0,0,97,3.721,3.706,3.718,0,0,0,11.03,63.5,1057.9906011129,4.92126,6,P-GPS,
8900,2025-03-09 05:57:19,0,0,4.92126,,,1057.9906011129,5.249344,2.796175,0,0,16,2,11.159,1057.9906011129,4.92126,2.796175,0,-1.342164,2.460634,0,122.2, -8.6, -0.3,0,0,1448,1024,1024,1024,64,0,0,0,122.9,0,0,97,3.721,3.706,3.718,0,0,0,11.03,63.5,1057.9906011129,4.92126,6,P-GPS,
9000,2025-03-09 05:57:19,0,0,4.92126,,,1057.9906011129,5.249344,3.1093466,0,0,16,2,11.107,1057.9906011129,4.92126,3.1093466,0,-1.565858,2.684328,0,122.2, -12.6, -0.5,0,0,1448,1024,1024,1024,64,0,0,0,122.9,0,0,97,3.711,3.697,3.711,0,0,0,11.488,63.5,1057.9906011129,4.92126,6,P-GPS,
9100,2025-03-09 05:57:19,0,0,4.92126,,,1057.9906011129,5.249344,3.1093466,0,0,16,2,11.107,1057.9906011129,4.92126,3.1093466,0,-2.013246,3.131716,0,122.4, -18.7, -1.6,0,0,1442,1024,1024,1024,63,0,0,0,122.9,0,0,97,3.711,3.697,3.711,0,0,0,11.488,63.5,1057.9906011129,4.92126,6,P-GPS,
9200,2025-03-09 05:57:19,0,0,4.92126,,,1057.9906011129,5.249344,4.2278166,0,0,17,2,11.107,1057.9906011129,4.92126,4.2278166,0,-2.23694,3.579104,0,122.7, -21.1, -2.9,0,0,1439,1024,1024,1024,63,0,0,0,122.9,0,0,97,3.711,3.697,3.711,0,0,0,11.488,63.5,1057.9906011129,4.92126,6,P-GPS,
9300,2025-03-09 05:57:19,0,0,4.92126,,,1057.9906011129,5.249344,5.033115,0,0,17,2,11.107,1057.9906011129,4.92126,5.033115,0,-2.684328,4.250186,0,122.3, -19.2, -3.4,0,0,1427,1024,1024,1024,61,0,0,0,122.9,0,0,97,3.711,3.697,3.711,0,0,0,11.488,63.5,1057.9906011129,4.92126,6,P-GPS,
9400,2025-03-09 05:57:19,0,0,4.92126,,,1057.9906011129,5.249344,5.7265664,0,0,17,2,11.107,1057.9906011129,4.92126,5.7265664,0,-2.908022,4.921268,0,122.2, -15.4, -2.1,0,0,1416,1024,1024,1024,59,0,0,0,122.9,0,0,97,3.711,3.697,3.711,0,0,0,11.488,63.5,1057.9906011129,4.92126,6,P-GPS,
9500,2025-03-09 05:57:20,0,0,4.92126,,,1057.9906011129,5.249344,6.2186932,0,0,17,2,11.107,1057.9906011129,4.92126,6.2186932,0,-3.131716,5.368656,0,122.8, -12.8, 0,0,0,1401,1024,1024,1024,57,0,0,0,122.9,0,0,97,3.711,3.697,3.711,0,0,0,11.488,63.5,1057.9906011129,4.92126,6,P-GPS,
9600,2025-03-09 05:57:20,0,0,4.92126,,,1057.9906011129,5.905512,6.5318648,0,0,18,2,11.107,1057.9906011129,4.92126,6.5318648,0,-3.35541,5.59235,0,123, -12.8, 0,0,0,1395,1024,1024,1024,56,0,0,0,122.9,0,0,97,3.711,3.697,3.711,0,0,0,11.488,63.5,1057.9906011129,4.92126,6,P-GPS,
9700,2025-03-09 05:57:20,0,0,4.92126,,,1057.9906011129,6.56168,6.9568834,0,0,18,2,11.107,1057.9906011129,4.92126,6.9568834,0,-3.802798,5.816044,0,123.7, -13.8, -1.2,0,0,1357,1024,1024,1024,50,0,0,0,122.9,0,0,97,3.711,3.697,3.711,0,0,0,11.488,63.5,1057.9906011129,4.92126,6,P-GPS,
9800,2025-03-09 05:57:20,0,0,4.92126,,,1057.9906011129,6.56168,7.2476856,0,0,17,2,11.107,1057.9906011129,4.92126,7.2476856,0,-4.026492,6.039738,0,123.7, -13.7, -1.4,0,0,1024,1024,1024,1024,0,0,0,0,122.9,0,0,97,3.711,3.697,3.711,0,0,0,11.488,63.5,1057.9906011129,4.92126,6,P-GPS,
9900,2025-03-09 05:57:20,0,0,4.92126,,,1057.9906011129,6.889764,7.6279654,0,0,17,2,11.107,1057.9906011129,4.92126,7.6279654,0,-4.026492,6.487126,0,123.1, -11.1, -0.9,0,0,1024,1024,1024,1024,0,0,0,0,122.9,0,0,97,3.711,3.697,3.711,0,0,0,11.488,63.5,1057.9906011129,4.92126,6,P-GPS,
10000,2025-03-09 05:57:20,0,0,4.92126,,,1057.9906011129,6.889764,7.941137,0,0,18,2,11.029,1057.9906011129,4.92126,7.941137,0,-4.250186,6.71082,0,123.1, -1, -0.9,0,0,1024,1024,1024,1024,0,0,0,0,122.9,0,0,97,3.68,3.663,3.675,0,0,0,11.994,63.68,1057.9906011129,4.92126,6,P-GPS,
10100,2025-03-09 05:57:20,0,0,4.92126,,,1057.9906011129,7.217848,7.6279654,0,0,18,2,11.029,1057.9906011129,4.92126,7.941137,0,-4.026492,6.487126,0,123.1, 16.5, -1,0,0,1024,1024,1024,1024,0,0,0,0,122.9,0,0,97,3.68,3.663,3.675,0,0,0,11.994,63.68,1057.9906011129,4.92126,6,P-GPS,
10200,2025-03-09 05:57:20,0,0,4.92126,,,1057.9906011129,7.217848,6.822667,0,0,17,2,11.029,1057.9906011129,4.92126,7.941137,0,-3.579104,5.816044,0,122.6, 34.3, -0.4,0,0,1024,1024,1024,1024,0,0,0,0,122.9,0,0,97,3.68,3.663,3.675,0,0,0,11.994,63.68,1057.9906011129,4.92126,6,P-GPS,
10300,2025-03-09 05:57:20,0,0,4.92126,,,1057.9906011129,7.217848,5.033115,0,0,17,2,11.029,1057.9906011129,4.92126,7.941137,0,-2.684328,4.250186,0,122.7, 37.3, 0.3,0,0,1024,1024,1024,1024,0,0,0,0,122.9,0,0,97,3.68,3.663,3.675,0,0,0,11.994,63.68,1057.9906011129,4.92126,6,P-GPS,
10400,2025-03-09 05:57:20,0,0,4.92126,,,1057.9906011129,7.217848,3.4225182,0,0,17,2,11.029,1057.9906011129,4.92126,7.941137,0,-1.789552,2.908022,0,123, 25.8, 0,0,0,1024,1024,1024,1024,0,0,0,0,122.9,0,0,97,3.68,3.663,3.675,0,0,0,11.994,63.68,1057.9906011129,4.92126,6,P-GPS,
10500,2025-03-09 05:57:21,0,0,5.249344,,,1058.3186851129,6.889764,2.3040482,0,0,17,2,11.029,1058.3186851129,5.249344,7.941137,0,-1.11847,2.013246,0,122.6, 8.5, -0.7,0,0,1024,1024,1030,1024,0,0,1,0,122.9,0,0,97,3.68,3.663,3.675,0,0,0,11.994,63.68,1058.3186851129,5.249344,6,P-GPS,
10600,2025-03-09 05:57:21,0,0,5.249344,,,1058.3186851129,7.217848,2.1027236,0,0,17,2,11.029,1058.3186851129,5.249344,7.941137,0,-1.11847,1.789552,0,122.5, 0.8, -0.7,0,0,1024,1024,1048,1024,0,0,4,0,122.9,0,0,97,3.68,3.663,3.675,0,0,0,11.994,63.68,1058.3186851129,5.249344,6,P-GPS,
10700,2025-03-09 05:57:21,0,0,5.249344,,,1058.3186851129,7.217848,2.1027236,0,0,17,2,11.029,1058.3186851129,5.249344,7.941137,0,-1.11847,1.789552,0,121.7, 5, -0.1,0,0,1024,1024,1062,1024,0,0,6,0,122.9,0,0,97,3.68,3.663,3.675,0,0,0,11.994,63.68,1058.3186851129,5.249344,6,P-GPS,
10800,2025-03-09 05:57:21,0,0,5.249344,,,1058.3186851129,7.217848,1.9908766,0,0,17,2,11.029,1058.3186851129,5.249344,7.941137,0,-0.894776,1.789552,0,121.5, 13.3, 0.3,0,0,1024,1024,1024,1024,0,0,0,0,122.9,0,0,97,3.68,3.663,3.675,0,0,0,11.994,63.68,1058.3186851129,5.249344,6,P-GPS,
10900,2025-03-09 05:57:21,0,0,4.92126,,,1057.9906011129,7.217848,1.2974252,0,0,17,2,11.029,1058.3186851129,5.249344,7.941137,0,-0.671082,1.11847,0,122, 15.3, -0.1,0,0,1024,1024,1024,1024,0,0,0,0,122.9,0,0,97,3.68,3.663,3.675,0,0,0,11.994,63.68,1057.9906011129,4.92126,6,P-GPS,
11000,2025-03-09 05:57:21,0,0,4.92126,,,1057.9906011129,6.889764,0.8052984,0,0,17,2,11.029,1058.3186851129,5.249344,7.941137,0,-0.447388,0.671082,0,122.2, 9.5, -1.3,0,0,1024,1024,1024,1024,0,0,0,0,122.9,0,0,97,3.68,3.663,3.675,0,0,0,11.994,63.68,1057.9906011129,4.92126,6,P-GPS,
11100,2025-03-09 05:57:21,0,0,4.92126,,,1057.9906011129,6.889764,0.4921268,0,0,17,2,11.08,1058.3186851129,5.249344,7.941137,0,-0.223694,0.447388,0,122.3, 2.7, -1.7,0,0,1024,1024,1167,1024,0,0,22,0,122.9,0,0,97,3.689,3.656,3.646,0,0,0,12.011,63.86,1057.9906011129,4.92126,6,P-GPS,
11200,2025-03-09 05:57:21,0,0,4.92126,,,1057.9906011129,6.889764,0.4921268,0,0,17,2,11.08,1058.3186851129,5.249344,7.941137,0,-0.223694,0.447388,0,122.1, 0.3, -0.8,0,0,1024,1024,1167,1024,0,0,22,0,122.9,0,0,97,3.689,3.656,3.646,0,0,0,12.011,63.86,1057.9906011129,4.92126,6,P-GPS,
11300,2025-03-09 05:57:21,0,0,4.92126,,,1057.9906011129,6.889764,0.4921268,0,0,17,2,11.08,1058.3186851129,5.249344,7.941137,0,-0.223694,0.447388,0,121.9, 1.8, 0,0,0,1024,1024,1426,1024,0,0,61,0,122.9,0,0,97,3.689,3.656,3.646,0,0,0,12.011,63.86,1057.9906011129,4.92126,6,P-GPS,
11400,2025-03-09 05:57:21,0,0,5.249344,,,1058.3186851129,6.889764,0.3131716,0,0,17,2,11.08,1058.3186851129,5.249344,7.941137,0,-0.223694,0.223694,-0.671082,121.9, 4.1, -0.3,0,0,1024,1024,1465,1024,0,0,67,0,122.9,0,0,97,3.689,3.656,3.646,0,0,0,12.011,63.86,1058.3186851129,5.249344,6,P-GPS,
11500,2025-03-09 05:57:22,0,0,5.249344,,,1058.3186851129,7.217848,0,0,0,17,2,11.08,1058.3186851129,5.249344,7.941137,0,0,0,-1.342164,121.5, 4.3, -2.8,0,0,1024,1024,1462,1024,0,0,66,0,122.9,0,0,97,3.689,3.656,3.646,0,0,0,12.011,63.86,1058.3186851129,5.249344,6,P-GPS,
11600,2025-03-09 05:57:22,0,0,5.577428,,,1058.6467691129,7.545932,0,0,0,17,2,11.08,1058.6467691129,5.577428,7.941137,0,0,0,-2.460634,121.2, 2, -4.3,0,0,1024,1024,1446,1024,0,0,64,0,122.9,0,0,97,3.689,3.656,3.646,0,0,0,12.011,63.86,1058.6467691129,5.577428,6,P-GPS,
11700,2025-03-09 05:57:22,0,0,5.905512,,,1058.9748531129,7.874016,0.223694,0,0,17,2,11.08,1058.9748531129,5.905512,7.941137,0,0.223694,0,-3.35541,120.9, -0.3, -0.6,0,0,1024,1024,1464,1024,0,0,67,0,122.9,0,0,97,3.689,3.656,3.646,0,0,0,12.011,63.86,1058.9748531129,5.905512,6,P-GPS,
11800,2025-03-09 05:57:22,0,0,6.56168,,,1059.6310211129,8.530184,0.223694,0,0,17,2,11.08,1059.6310211129,6.56168,7.941137,0,0.223694,0,-4.47388,121.2, -0.7, 2.9,0,0,1024,1024,1426,1024,0,0,61,0,122.9,0,0,97,3.689,3.656,3.646,0,0,0,12.011,63.86,1059.6310211129,6.56168,6,P-GPS,
11900,2025-03-09 05:57:22,0,0,7.217848,,,1060.2871891129,9.186352,0,0,0,17,2,11.08,1060.2871891129,7.217848,7.941137,0,0,0,-5.144962,122, 0.1, 3.1,0,0,1024,1024,1450,1024,0,0,65,0,122.9,0,0,97,3.689,3.656,3.646,0,0,0,12.011,63.86,1060.2871891129,7.217848,6,P-GPS,
12000,2025-03-09 05:57:22,0,0,8.2021,,,1061.2714411129,10.170604,0,0,0,17,2,11.08,1061.2714411129,8.2021,7.941137,0,0,0,-5.59235,122.5, 0.8, 0.9,0,0,1024,1024,1442,1024,0,0,63,0,122.9,0,0,97,3.689,3.656,3.646,0,0,0,12.011,63.86,1061.2714411129,8.2021,6,P-GPS,
12100,2025-03-09 05:57:22,0,0,8.858268,,,1061.9276091129,10.826772,0,0,0,17,2,11.093,1061.9276091129,8.858268,7.941137,0,0,0,-5.816044,122.5, 0.7, -1.5,0,0,1024,1024,1394,1024,0,0,56,0,122.9,0,0,97,3.686,3.66,3.647,0,0,0,12.069,64.04,1061.9276091129,8.858268,6,P-GPS,
12200,2025-03-09 05:57:22,0,0,9.84252,,,1062.9118611129,11.811024,0,0,0,17,2,11.093,1062.9118611129,9.84252,7.941137,0,0,0,-6.039738,122.3, 0, -1.8,0,0,1024,1024,1211,1024,0,0,28,0,122.9,0,0,97,3.686,3.66,3.647,0,0,0,12.069,64.04,1062.9118611129,9.84252,6,P-GPS,
12300,2025-03-09 05:57:22,0,0,10.826772,,,1063.8961131129,12.795276,0,0,0,17,2,11.093,1063.8961131129,10.826772,7.941137,0,0,0,-5.816044,122.2, -0.6, -0.4,0,0,1024,1024,1024,1024,0,0,0,0,122.9,0,0,97,3.686,3.66,3.647,0,0,0,12.069,64.04,1063.8961131129,10.826772,6,P-GPS,
12400,2025-03-09 05:57:22,0,0,11.48294,,,1064.5522811129,13.451444,0,0,0,16,2,11.093,1064.5522811129,11.48294,7.941137,0,0,0,-5.368656,122.4, -0.2, 0.9,0,0,1024,1024,1024,1024,0,0,0,0,122.9,0,0,97,3.686,3.66,3.647,0,0,0,12.069,64.04,1064.5522811129,11.48294,6,P-GPS,
12500,2025-03-09 05:57:23,0,0,12.467192,,,1065.5365331129,14.107612,0,0,0,16,2,11.093,1065.5365331129,12.467192,7.941137,0,0,0,-4.697574,122.5, 1, 1,0,0,1024,1024,1024,1024,0,0,0,0,122.9,0,0,97,3.686,3.66,3.647,0,0,0,12.069,64.04,1065.5365331129,12.467192,6,P-GPS,
12600,2025-03-09 05:57:23,0,0,13.12336,,,1066.1927011129,14.76378,0,0,0,16,2,11.093,1066.1927011129,13.12336,7.941137,0,0,0,-3.802798,122.8, 1.5, -0.3,0,0,1024,1024,1024,1024,0,0,0,0,122.9,0,0,97,3.686,3.66,3.647,0,0,0,12.069,64.04,1066.1927011129,13.12336,6,P-GPS,
12700,2025-03-09 05:57:23,0,0,13.451444,,,1066.5207851129,15.419948,0,0,0,16,2,11.093,1066.5207851129,13.451444,7.941137,0,0,0,-2.908022,122.8, 1, -0.9,0,0,1024,1024,1132,1024,0,0,16,0,122.9,0,0,97,3.686,3.66,3.647,0,0,0,12.069,64.04,1066.5207851129,13.451444,6,P-GPS,
12800,2025-03-09 05:57:23,0,0,13.779528,,,1066.8488691129,15.748032,0,0,0,16,2,11.093,1066.8488691129,13.779528,7.941137,0,0,0,-2.013246,122.7, 0.4, -0.3,0,0,1024,1024,1331,1024,0,0,47,0,122.9,0,0,97,3.686,3.66,3.647,0,0,0,12.069,64.04,1066.8488691129,13.779528,6,P-GPS,
12900,2025-03-09 05:57:23,0,0,14.107612,,,1067.1769531129,16.076116,0,0,0,16,2,11.093,1067.1769531129,14.107612,7.941137,0,0,0,-1.565858,122.7, 0, 0.2,0,0,1024,1024,1336,1024,0,0,47,0,122.9,0,0,97,3.686,3.66,3.647,0,0,0,12.069,64.04,1067.1769531129,14.107612,6,P-GPS,
13000,2025-03-09 05:57:23,0,0,14.435696,,,1067.5050371129,16.4042,0,0,0,16,2,11.093,1067.5050371129,14.435696,7.941137,0,0,0,-1.565858,122.9, -0.5, 0,0,0,1024,1024,1310,1024,0,0,43,0,122.9,0,0,97,3.686,3.66,3.647,0,0,0,12.069,64.04,1067.5050371129,14.435696,6,P-GPS,
13100,2025-03-09 05:57:23,0,0,14.76378,,,1067.8331211129,16.732284,0,0,0,16,2,10.503,1067.8331211129,14.76378,7.941137,0,0,0,-2.013246,123, 0, -0.7,0,0,1024,1024,1223,1024,0,0,30,0,122.9,0,0,97,3.649,3.657,3.682,0,0,0,17.582,64.22,1067.8331211129,14.76378,6,P-GPS,
13200,2025-03-09 05:57:23,0,0,15.091864,,,1068.1612051129,17.060368,0,0,0,16,2,10.503,1068.1612051129,15.091864,7.941137,0,0,0,-2.23694,123, 1.7, -0.2,0,0,1024,1024,1024,1024,0,0,0,0,122.9,0,0,97,3.649,3.657,3.682,0,0,0,17.582,64.22,1068.1612051129,15.091864,6,P-GPS,
13300,2025-03-09 05:57:23,0,0,15.419948,,,1068.4892891129,17.388452,0,0,0,16,2,10.503,1068.4892891129,15.419948,7.941137,0,0,0,-2.013246,122.9, 3.4, 2.1,0,0,1024,1024,1024,1024,0,0,0,0,122.9,0,0,97,3.649,3.657,3.682,0,0,0,17.582,64.22,1068.4892891129,15.419948,6,P-GPS,
13400,2025-03-09 05:57:23,0,0,15.748032,,,1068.8173731129,17.716536,0,0,0,16,2,10.503,1068.8173731129,15.748032,7.941137,0,0,0,-1.565858,123.2, 3.2, 3.1,0,0,1024,1024,1024,1024,0,0,0,0,122.9,0,0,97,3.649,3.657,3.682,0,0,0,17.582,64.22,1068.8173731129,15.748032,6,P-GPS,
13500,2025-03-09 05:57:24,0,0,15.748032,,,1068.8173731129,17.716536,0,0,0,16,2,10.503,1068.8173731129,15.748032,7.941137,0,0,0,-0.894776,123.3, 1.1, 1.9,0,0,1024,1024,1024,1024,0,0,0,0,122.9,0,0,97,3.649,3.657,3.682,0,0,0,17.582,64.22,1068.8173731129,15.748032,6,P-GPS,
13600,2025-03-09 05:57:24,0,0,16.076116,,,1069.1454571129,18.04462,0,0,0,16,2,10.503,1069.1454571129,16.076116,7.941137,0,0,0,-0.447388,123.3, -0.9, -0.2,0,0,1024,1024,1024,1024,0,0,0,0,122.9,0,0,97,3.649,3.657,3.682,0,0,0,17.582,64.22,1069.1454571129,16.076116,6,P-GPS,
13700,2025-03-09 05:57:24,0,0,16.076116,,,1069.1454571129,18.04462,0,0,0,15,2,10.503,1069.1454571129,16.076116,7.941137,0,0,0,0,122.9, -1, -0.9,0,0,1024,1024,1024,1040,0,0,0,2,122.9,0,0,97,3.649,3.657,3.682,0,0,0,17.582,64.22,1069.1454571129,16.076116,6,P-GPS,
13800,2025-03-09 05:57:24,0,0,16.076116,,,1069.1454571129,18.04462,0,0,0,15,2,10.503,1069.1454571129,16.076116,7.941137,0,0,0,0,122.7, 0.7, 0.1,0,0,1024,1024,1024,1168,0,0,0,22,122.9,0,0,97,3.649,3.657,3.682,0,0,0,17.582,64.22,1069.1454571129,16.076116,6,P-GPS,
13900,2025-03-09 05:57:24,0,0,16.076116,,,1069.1454571129,18.04462,0,0,0,15,2,10.503,1069.1454571129,16.076116,7.941137,0,0,0,0,122.8, 1.9, 1.7,0,0,1024,1024,1049,1173,0,0,4,23,123.1,0,0,97,3.649,3.657,3.682,0,0,0,17.582,64.22,1069.1454571129,16.076116,6,P-GPS,
14000,2025-03-09 05:57:24,0,0,16.076116,,,1069.1454571129,18.04462,0,0,0,15,2,11.358,1069.1454571129,16.076116,7.941137,0,0,0,0,123.2, 1.1, 2,0,0,1024,1024,1146,1062,0,0,18,6,123.5,0,0,96,3.703,3.713,3.743,0,0,0,10.326,64.4,1069.1454571129,16.076116,6,P-GPS,
14100,2025-03-09 05:57:24,0,0,16.076116,,,1069.1454571129,18.04462,0,0,0,15,2,11.358,1069.1454571129,16.076116,7.941137,0,0,0,0,123.8, -0.3, 1.5,0,0,1024,1024,1098,1045,0,0,11,3,124,0,0,96,3.703,3.713,3.743,0,0,0,10.326,64.4,1069.1454571129,16.076116,6,P-GPS,
14200,2025-03-09 05:57:24,0,0,16.076116,,,1069.1454571129,18.04462,0,0,0,15,2,11.358,1069.1454571129,16.076116,7.941137,0,0,0,0,124.2, -0.4, 1.6,0,0,1024,1024,1111,1032,0,0,13,1,124.3,0,0,96,3.703,3.713,3.743,0,0,0,10.326,64.4,1069.1454571129,16.076116,6,P-GPS,
14300,2025-03-09 05:57:24,0,0,16.076116,,,1069.1454571129,18.04462,0,0,0,15,2,11.358,1069.1454571129,16.076116,7.941137,0,0,0,0,124.6, 0.9, 1.3,0,0,1024,1024,1090,1024,0,0,10,0,124.5,0,0,96,3.703,3.713,3.743,0,0,0,10.326,64.4,1069.1454571129,16.076116,6,P-GPS,
14400,2025-03-09 05:57:25,0,0,16.076116,,,1069.1454571129,18.04462,0,0,0,15,2,11.358,1069.1454571129,16.076116,7.941137,0,0,0,0,124.7, 1.9, 0.3,0,0,1024,1024,1108,1024,0,0,13,0,124.5,0,0,96,3.703,3.713,3.743,0,0,0,10.326,64.4,1069.1454571129,16.076116,6,P-GPS,
14500,2025-03-09 05:57:25,0,0,16.076116,,,1069.1454571129,18.04462,0,0,0,15,2,11.358,1069.1454571129,16.076116,7.941137,0,0,0,0,124.3, 0.8, 0.3,0,0,1024,1024,1108,1024,0,0,13,0,124.5,0,0,96,3.703,3.713,3.743,0,0,0,10.326,64.4,1069.1454571129,16.076116,6,P-GPS,
14600,2025-03-09 05:57:25,0,0,16.076116,,,1069.1454571129,18.04462,0,0,0,15,2,11.358,1069.1454571129,16.076116,7.941137,0,0,0,-0.223694,124.2, -1.1, 2.8,0,0,1024,1024,1108,1024,0,0,13,0,124.5,0,0,96,3.703,3.713,3.743,0,0,0,10.326,64.4,1069.1454571129,16.076116,6,P-GPS,
14700,2025-03-09 05:57:25,0,0,16.076116,,,1069.1454571129,18.04462,0,0,0,15,2,11.358,1069.1454571129,16.076116,7.941137,0,0,0,-0.223694,124.3, -1, 5.1,0,0,1024,1024,1024,1024,0,0,0,0,124.5,0,0,96,3.703,3.713,3.743,0,0,0,10.326,64.4,1069.1454571129,16.076116,6,P-GPS,
14800,2025-03-09 05:57:25,0,0,16.076116,,,1069.1454571129,18.04462,0,0,0,15,2,11.358,1069.1454571129,16.076116,7.941137,0,0,0,-0.223694,124.7, 0.8, 3.2,0,0,1032,1024,1024,1024,1,0,0,0,124.5,0,0,96,3.703,3.713,3.743,0,0,0,10.326,64.4,1069.1454571129,16.076116,6,P-GPS,
14900,2025-03-09 05:57:25,0,0,16.076116,,,1069.1454571129,18.04462,0,0,0,15,2,11.358,1069.1454571129,16.076116,7.941137,0,0,0,0,124.7, 2.3, -0.2,0,0,1168,1024,1024,1024,22,0,0,0,124.5,0,0,96,3.703,3.713,3.743,0,0,0,10.326,64.4,1069.1454571129,16.076116,6,P-GPS,
15000,2025-03-09 05:57:25,0,0,16.076116,,,1069.1454571129,18.04462,0,0,0,15,2,11.16,1069.1454571129,16.076116,7.941137,0,0,0,0,124.2, 1.3, -0.5,0,0,1253,1024,1024,1024,35,0,0,0,124.5,0,0,96,3.684,3.668,3.682,0,0,0,10.356,64.76,1069.1454571129,16.076116,6,P-GPS,
15100,2025-03-09 05:57:25,0,0,16.076116,,,1069.1454571129,18.04462,0,0,0,15,2,11.16,1069.1454571129,16.076116,7.941137,0,0,0,0,123.6, -1.8, 1.9,0,0,1253,1024,1024,1024,35,0,0,0,124.5,0,0,96,3.684,3.668,3.682,0,0,0,10.356,64.76,1069.1454571129,16.076116,6,P-GPS,
15200,2025-03-09 05:57:25,0,0,16.076116,,,1069.1454571129,18.04462,0,0,0,15,2,11.16,1069.1454571129,16.076116,7.941137,0,0,0,0,123.5, -5.9, 3.4,0,0,1253,1024,1024,1024,35,0,0,0,124.5,0,0,96,3.684,3.668,3.682,0,0,0,10.356,64.76,1069.1454571129,16.076116,6,P-GPS,
15300,2025-03-09 05:57:25,0,0,16.076116,,,1069.1454571129,18.04462,0.223694,0,0,15,2,11.16,1069.1454571129,16.076116,7.941137,0,-0.223694,0,0,123.8, -7.6, 2.5,0,0,1222,1024,1024,1024,30,0,0,0,124.5,0,0,96,3.684,3.668,3.682,0,0,0,10.356,64.76,1069.1454571129,16.076116,6,P-GPS,
15400,2025-03-09 05:57:25,0,0,16.076116,,,1069.1454571129,18.04462,0.4921268,0,0,15,2,11.16,1069.1454571129,16.076116,7.941137,0,-0.447388,0.223694,0,123.9, -5.8, 1.1,0,0,1024,1024,1024,1024,0,0,0,0,124.5,0,0,96,3.684,3.668,3.682,0,0,0,10.356,64.76,1069.1454571129,16.076116,6,P-GPS,
15500,2025-03-09 05:57:26,0,0,16.076116,,,1069.1454571129,18.04462,0.8052984,0,0,15,2,11.16,1069.1454571129,16.076116,7.941137,0,-0.671082,0.447388,0,123.8, -2.8, 0.2,0,0,1024,1024,1024,1024,0,0,0,0,124.5,0,0,96,3.684,3.668,3.682,0,0,0,10.356,64.76,1069.1454571129,16.076116,6,P-GPS,
15600,2025-03-09 05:57:26,0,0,16.076116,,,1069.1454571129,18.04462,0.9395148,0,0,15,2,11.16,1069.1454571129,16.076116,7.941137,0,-0.671082,0.671082,0,123.7, 1.3, 0.1,0,0,1024,1024,1174,1024,0,0,23,0,124.5,0,0,96,3.684,3.668,3.682,0,0,0,10.356,64.76,1069.1454571129,16.076116,6,P-GPS,
15700,2025-03-09 05:57:26,0,0,16.076116,,,1069.1454571129,18.04462,0.8052984,0,0,15,2,11.16,1069.1454571129,16.076116,7.941137,0,-0.671082,0.447388,0,123.8, 5.3, -0.1,0,0,1024,1024,1174,1024,0,0,23,0,124.5,0,0,96,3.684,3.668,3.682,0,0,0,10.356,64.76,1069.1454571129,16.076116,6,P-GPS,
15800,2025-03-09 05:57:26,0,0,16.076116,,,1069.1454571129,18.04462,0.6263432,0,0,15,2,11.16,1069.1454571129,16.076116,7.941137,0,-0.447388,0.447388,0,123.6, 6, -0.6,0,0,1024,1024,1241,1024,0,0,33,0,124.5,0,0,96,3.684,3.668,3.682,0,0,0,10.356,64.76,1069.1454571129,16.076116,6,P-GPS,
15900,2025-03-09 05:57:26,0,0,16.076116,,,1069.1454571129,18.04462,0.3131716,0,0,15,2,11.16,1069.1454571129,16.076116,7.941137,0,-0.223694,0.223694,-0.447388,123.4, 3.6, -1.7,0,0,1024,1024,1274,1024,0,0,38,0,124.5,0,0,96,3.684,3.668,3.682,0,0,0,10.356,64.76,1069.1454571129,16.076116,6,P-GPS,
16000,2025-03-09 05:57:26,0,0,16.4042,,,1069.4735411129,18.04462,0.3131716,0,0,15,2,11.082,1069.4735411129,16.4042,7.941137,0,-0.223694,0.223694,-0.894776,123.3, 1.2, -2.1,0,0,1024,1024,1155,1024,0,0,20,0,124.5,0,0,96,3.7,3.684,3.695,0,0,0,11.493,64.76,1069.4735411129,16.4042,6,P-GPS,
16100,2025-03-09 05:57:26,0,0,16.4042,,,1069.4735411129,18.372704,0.223694,0,0,15,2,11.082,1069.4735411129,16.4042,7.941137,0,0,0.223694,-1.342164,123.3, 1.2, -1.3,0,0,1024,1024,1024,1024,0,0,0,0,124.5,0,0,96,3.7,3.684,3.695,0,0,0,11.493,64.76,1069.4735411129,16.4042,6,P-GPS,
16200,2025-03-09 05:57:26,0,0,16.732284,,,1069.8016251129,18.372704,0.223694,0,0,15,2,11.082,1069.8016251129,16.732284,7.941137,0,0,0.223694,-1.11847,123.5, 3.6, 0.4,0,0,1024,1024,1024,1024,0,0,0,0,124.5,0,0,96,3.7,3.684,3.695,0,0,0,11.493,64.76,1069.8016251129,16.732284,6,P-GPS,
16300,2025-03-09 05:57:26,0,0,16.732284,,,1069.8016251129,18.700788,0,0,0,15,2,11.082,1069.8016251129,16.732284,7.941137,0,0,0,-0.671082,123.6, 5.5, 0.7,0,0,1024,1024,1024,1024,0,0,0,0,124.5,0,0,96,3.7,3.684,3.695,0,0,0,11.493,64.76,1069.8016251129,16.732284,6,P-GPS,
16400,2025-03-09 05:57:26,0,0,16.732284,,,1069.8016251129,18.700788,0,0,0,14,2,11.082,1069.8016251129,16.732284,7.941137,0,0,0,-0.447388,123.8, 4.3, -0.4,0,0,1024,1024,1030,1213,0,0,1,29,124.5,0,0,96,3.7,3.684,3.695,0,0,0,11.493,64.76,1069.8016251129,16.732284,6,P-GPS,
16500,2025-03-09 05:57:27,0,0,16.732284,,,1069.8016251129,18.700788,0,0,0,14,2,11.082,1069.8016251129,16.732284,7.941137,0,0,0,0,123.8, 1.4, -1.5,0,0,1024,1024,1035,1553,0,0,2,80,124.6,0,0,96,3.7,3.684,3.695,0,0,0,11.493,64.76,1069.8016251129,16.732284,6,P-GPS,
16600,2025-03-09 05:57:27,0,0,16.732284,,,1069.8016251129,18.700788,0,0,0,14,2,11.082,1069.8016251129,16.732284,7.941137,0,0,0,0,124.2, -0.5, -1.5,0,0,1024,1024,1026,1684,0,0,0,100,125.1,0,0,96,3.7,3.684,3.695,0,0,0,11.493,64.76,1069.8016251129,16.732284,6,P-GPS,
16700,2025-03-09 05:57:27,0,0,16.732284,,,1069.8016251129,18.700788,0,0,0,14,2,11.082,1069.8016251129,16.732284,7.941137,0,0,0,0,125.3, 0, 0,0,0,1024,1024,1038,1684,0,0,2,100,126.7,0,0,96,3.7,3.684,3.695,0,0,0,11.493,64.76,1069.8016251129,16.732284,6,P-GPS,
16800,2025-03-09 05:57:27,0,0,16.732284,,,1069.8016251129,18.700788,0,0,0,15,2,11.082,1069.8016251129,16.732284,7.941137,0,0,0,0,127.5, 2, 0.8,0,0,1024,1024,1044,1684,0,0,3,100,129.4,0,0,96,3.7,3.684,3.695,0,0,0,11.493,64.76,1069.8016251129,16.732284,6,P-GPS,
16900,2025-03-09 05:57:27,0,0,16.732284,,,1069.8016251129,18.700788,0,0,0,15,2,11.082,1069.8016251129,16.732284,7.941137,0,0,0,0,130.3, 2.5, 0.4,0,0,1024,1024,1044,1684,0,0,3,100,132.4,0,0,96,3.7,3.684,3.695,0,0,0,11.493,64.76,1069.8016251129,16.732284,6,P-GPS,
17000,2025-03-09 05:57:27,0,0,16.732284,,,1069.8016251129,18.700788,0,0,0,15,2,10.944,1069.8016251129,16.732284,7.941137,0,0,0,0,133.4, 0.5, -0.3,0,0,1024,1024,1054,1684,0,0,5,100,135.5,0,0,96,3.71,3.696,3.714,0,0,0,12.159,64.94,1069.8016251129,16.732284,6,P-GPS,
17100,2025-03-09 05:57:27,0,0,16.732284,,,1069.8016251129,18.700788,0,0,0,15,2,10.944,1069.8016251129,16.732284,7.941137,0,0,0,0,136.6, -1.2, -0.7,0,0,1024,1024,1049,1684,0,0,4,100,138.7,0,0,96,3.71,3.696,3.714,0,0,0,12.159,64.94,1069.8016251129,16.732284,6,P-GPS,
17200,2025-03-09 05:57:27,0,0,16.732284,,,1069.8016251129,18.700788,0,0,0,15,2,10.944,1069.8016251129,16.732284,7.941137,0,0,0,0,139.7, -1.1, -0.6,0,0,1024,1024,1042,1684,0,0,3,100,141.9,0,0,96,3.71,3.696,3.714,0,0,0,12.159,64.94,1069.8016251129,16.732284,6,P-GPS,
17300,2025-03-09 05:57:27,0,0,16.732284,,,1069.8016251129,18.700788,0,0,0,15,2,10.944,1069.8016251129,16.732284,7.941137,0,0,0,0,143.1, 0.5, -0.5,0,0,1024,1024,1039,1684,0,0,2,100,145.1,0,0,96,3.71,3.696,3.714,0,0,0,12.159,64.94,1069.8016251129,16.732284,6,P-GPS,
17400,2025-03-09 05:57:27,0,0,16.732284,,,1069.8016251129,18.700788,0,0,0,15,2,10.944,1069.8016251129,16.732284,7.941137,0,0,0,0,146.2, 2, -1.5,0,0,1024,1024,1038,1684,0,0,2,100,148.3,0,0,96,3.71,3.696,3.714,0,0,0,12.159,64.94,1069.8016251129,16.732284,6,P-GPS,
17500,2025-03-09 05:57:28,0,0,16.732284,,,1069.8016251129,18.700788,0,0,0,15,2,10.944,1069.8016251129,16.732284,7.941137,0,0,0,0,149.2, 2.1, -2.7,0,0,1024,1024,1034,1684,0,0,2,100,151.5,0,0,96,3.71,3.696,3.714,0,0,0,12.159,64.94,1069.8016251129,16.732284,6,P-GPS,
17600,2025-03-09 05:57:28,0,0,16.732284,,,1069.8016251129,18.700788,0,0,0,14,2,10.944,1069.8016251129,16.732284,7.941137,0,0,0,0,152.1, 0.8, -2.3,0,0,1024,1024,1024,1684,0,0,0,100,154.7,0,0,96,3.71,3.696,3.714,0,0,0,12.159,64.94,1069.8016251129,16.732284,6,P-GPS,
17700,2025-03-09 05:57:28,0,0,16.732284,,,1069.8016251129,18.700788,0.223694,0,0,14,2,10.944,1069.8016251129,16.732284,7.941137,0,0.223694,0,0,155.1, -1.1, -1,0,0,1024,1024,1024,1684,0,0,0,100,157.9,0,0,96,3.71,3.696,3.714,0,0,0,12.159,64.94,1069.8016251129,16.732284,6,P-GPS,
17800,2025-03-09 05:57:28,0,0,16.732284,,,1069.8016251129,18.700788,0,0,0,13,2,10.944,1069.8016251129,16.732284,7.941137,0,0,0,0,158.6, -2.2, -1.3,0,0,1024,1024,1024,1684,0,0,0,100,161.1,0,0,96,3.71,3.696,3.714,0,0,0,12.159,64.94,1069.8016251129,16.732284,6,P-GPS,
17900,2025-03-09 05:57:28,0,0,16.732284,,,1069.8016251129,18.700788,0,0,0,13,2,10.944,1069.8016251129,16.732284,7.941137,0,0,0,0,162, -1.3, -2.1,0,0,1024,1024,1024,1684,0,0,0,100,164.3,0,0,96,3.71,3.696,3.714,0,0,0,12.159,64.94,1069.8016251129,16.732284,6,P-GPS,
18000,2025-03-09 05:57:28,0,0,16.732284,,,1069.8016251129,18.700788,0,0,0,14,2,11.074,1069.8016251129,16.732284,7.941137,0,0,0,0,165.1, 0.3, -1.7,0,0,1024,1024,1024,1684,0,0,0,100,167.5,0,0,96,3.682,3.667,3.68,0,0,0,10.596,64.94,1069.8016251129,16.732284,6,P-GPS,
18100,2025-03-09 05:57:28,0,0,16.732284,,,1069.8016251129,18.700788,0,0,0,14,2,11.074,1069.8016251129,16.732284,7.941137,0,0,0,0,168.5, 0.2, -0.4,0,0,1024,1024,1024,1684,0,0,0,100,170.7,0,0,96,3.682,3.667,3.68,0,0,0,10.596,64.94,1069.8016251129,16.732284,6,P-GPS,
18200,2025-03-09 05:57:28,0,0,16.732284,,,1069.8016251129,19.028872,0,0,0,14,2,11.074,1069.8016251129,16.732284,7.941137,0,0,0,0,171.9, -1.6, 0.9,0,0,1024,1024,1024,1684,0,0,0,100,173.9,0,0,96,3.682,3.667,3.68,0,0,0,10.596,64.94,1069.8016251129,16.732284,6,P-GPS,
18300,2025-03-09 05:57:28,0,0,16.732284,,,1069.8016251129,19.028872,0,0,0,14,2,11.074,1069.8016251129,16.732284,7.941137,0,0,0,0,175.4, -2.2, 0.7,0,0,1024,1024,1024,1684,0,0,0,100,177.1,0,0,96,3.682,3.667,3.68,0,0,0,10.596,64.94,1069.8016251129,16.732284,6,P-GPS,
18400,2025-03-09 05:57:28,0,0,16.732284,,,1069.8016251129,19.028872,0,0,0,14,2,11.074,1069.8016251129,16.732284,7.941137,0,0,0,0,178.7, -0.6, -1,0,0,1024,1024,1024,1684,0,0,0,100,180.4,0,0,96,3.682,3.667,3.68,0,0,0,10.596,64.94,1069.8016251129,16.732284,6,P-GPS,
18500,2025-03-09 05:57:29,0,0,16.732284,,,1069.8016251129,19.028872,0,0,0,14,2,11.074,1069.8016251129,16.732284,7.941137,0,0,0,0,181.9, 0.8, -2.7,0,0,1024,1024,1024,1684,0,0,0,100,183.6,0,0,96,3.682,3.667,3.68,0,0,0,10.596,64.94,1069.8016251129,16.732284,6,P-GPS,
18600,2025-03-09 05:57:29,0,0,16.732284,,,1069.8016251129,19.028872,0,0,0,14,2,11.074,1069.8016251129,16.732284,7.941137,0,0,0,0,184.9, 0.1, -2.6,0,0,1024,1024,1024,1684,0,0,0,100,186.8,0,0,96,3.682,3.667,3.68,0,0,0,10.596,64.94,1069.8016251129,16.732284,6,P-GPS,
18700,2025-03-09 05:57:29,0,0,16.732284,,,1069.8016251129,19.028872,0,0,0,14,2,11.074,1069.8016251129,16.732284,7.941137,0,0,0,0,188.1, -2, -0.6,0,0,1024,1024,1024,1684,0,0,0,100,190,0,0,96,3.682,3.667,3.68,0,0,0,10.596,64.94,1069.8016251129,16.732284,6,P-GPS,
18800,2025-03-09 05:57:29,0,0,16.732284,,,1069.8016251129,19.028872,0,0,0,15,2,11.074,1069.8016251129,16.732284,7.941137,0,0,0,0,191.6, -3.3, 1.2,0,0,1024,1024,1024,1684,0,0,0,100,193.2,0,0,96,3.682,3.667,3.68,0,0,0,10.596,64.94,1069.8016251129,16.732284,6,P-GPS,
18900,2025-03-09 05:57:29,0,0,16.732284,,,1069.8016251129,19.028872,0,0,0,15,2,11.074,1069.8016251129,16.732284,7.941137,0,0,0,0,195.2, -1.2, 1.8,0,0,1024,1024,1024,1684,0,0,0,100,196.4,0,0,96,3.682,3.667,3.68,0,0,0,10.596,64.94,1069.8016251129,16.732284,6,P-GPS,
19000,2025-03-09 05:57:29,0,0,16.732284,,,1069.8016251129,19.028872,0,0,0,13,2,11.059,1069.8016251129,16.732284,7.941137,0,0,0,0,198.7, 2.2, 0.6,0,0,1024,1024,1024,1684,0,0,0,100,199.6,0,0,96,3.694,3.679,3.69,0,0,0,11.472,65.12,1069.8016251129,16.732284,6,P-GPS,
19100,2025-03-09 05:57:29,0,0,16.732284,,,1069.8016251129,19.028872,0,0,0,13,2,11.059,1069.8016251129,16.732284,7.941137,0,0,0,0,201.7, 2.7, -1,0,0,1024,1024,1024,1684,0,0,0,100,202.8,0,0,96,3.694,3.679,3.69,0,0,0,11.472,65.12,1069.8016251129,16.732284,6,P-GPS,
19200,2025-03-09 05:57:29,0,0,16.732284,,,1069.8016251129,19.028872,0,0,0,13,2,11.059,1069.8016251129,16.732284,7.941137,0,0,0,0,204.5, -0.6, -0.8,0,0,1024,1024,1024,1684,0,0,0,100,206,0,0,96,3.694,3.679,3.69,0,0,0,11.472,65.12,1069.8016251129,16.732284,6,P-GPS,
19300,2025-03-09 05:57:29,0,0,16.732284,,,1069.8016251129,19.028872,0,0,0,13,2,11.059,1069.8016251129,16.732284,7.941137,0,0,0,0,207.7, -4.3, 0.4,0,0,1024,1024,1024,1684,0,0,0,100,209.2,0,0,96,3.694,3.679,3.69,0,0,0,11.472,65.12,1069.8016251129,16.732284,6,P-GPS,
19400,2025-03-09 05:57:30,0,0,16.732284,,,1069.8016251129,19.028872,0,0,0,14,2,11.059,1069.8016251129,16.732284,7.941137,0,0,0,0,211.1, -4, 1.3,0,0,1024,1024,1024,1684,0,0,0,100,212.4,0,0,96,3.694,3.679,3.69,0,0,0,11.472,65.12,1069.8016251129,16.732284,6,P-GPS,
19500,2025-03-09 05:57:30,0,0,16.732284,,,1069.8016251129,19.028872,0,0,0,14,2,11.059,1069.8016251129,16.732284,7.941137,0,0,0,0,214.5, 0, 0.9,0,0,1024,1024,1024,1684,0,0,0,100,215.6,0,0,96,3.694,3.679,3.69,0,0,0,11.472,65.12,1069.8016251129,16.732284,6,P-GPS,
19600,2025-03-09 05:57:30,0,0,16.732284,,,1069.8016251129,19.028872,0,0,0,14,2,11.059,1069.8016251129,16.732284,7.941137,0,0,0,0,217.7, 3, 0.1,0,0,1024,1024,1024,1684,0,0,0,100,218.8,0,0,96,3.694,3.679,3.69,0,0,0,11.472,65.12,1069.8016251129,16.732284,6,P-GPS,
19700,2025-03-09 05:57:30,0,0,16.732284,,,1069.8016251129,19.028872,0,0,0,14,2,11.059,1069.8016251129,16.732284,7.941137,0,0,0,0,220.7, 1.5, 0,0,0,1024,1024,1024,1684,0,0,0,100,222,0,0,96,3.694,3.679,3.69,0,0,0,11.472,65.12,1069.8016251129,16.732284,6,P-GPS,
19800,2025-03-09 05:57:30,0,0,16.732284,,,1069.8016251129,19.028872,0,0,0,13,2,11.059,1069.8016251129,16.732284,7.941137,0,0,0,0,223.8, -1.6, 0,0,0,1024,1024,1024,1684,0,0,0,100,225.2,0,0,96,3.694,3.679,3.69,0,0,0,11.472,65.12,1069.8016251129,16.732284,6,P-GPS,
19900,2025-03-09 05:57:30,0,0,16.732284,,,1069.8016251129,19.028872,0,0,0,13,2,11.059,1069.8016251129,16.732284,7.941137,0,0,0,0,227.1, -2, -0.1,0,0,1024,1024,1024,1684,0,0,0,100,228.4,0,0,96,3.694,3.679,3.69,0,0,0,11.472,65.12,1069.8016251129,16.732284,6,P-GPS,
20000,2025-03-09 05:57:30,0,0,16.732284,,,1069.8016251129,19.028872,0,0,0,14,2,11.06,1069.8016251129,16.732284,7.941137,0,0,0,0,230.2, 0.4, -0.6,0,0,1024,1024,1024,1684,0,0,0,100,231.6,0,0,96,3.699,3.684,3.696,0,0,0,11.117,65.3,1069.8016251129,16.732284,6,P-GPS,
20100,2025-03-09 05:57:30,0,0,16.732284,,,1069.8016251129,19.028872,0,0,0,14,2,11.06,1069.8016251129,16.732284,7.941137,0,0,0,0,233.1, 1.9, -1,0,0,1024,1024,1024,1684,0,0,0,100,234.8,0,0,96,3.699,3.684,3.696,0,0,0,11.117,65.3,1069.8016251129,16.732284,6,P-GPS,
20200,2025-03-09 05:57:30,0,0,16.732284,,,1069.8016251129,19.028872,0,0,0,14,2,11.06,1069.8016251129,16.732284,7.941137,0,0,0,0,236, 1.1, -1.7,0,0,1024,1024,1024,1684,0,0,0,100,238,0,0,96,3.699,3.684,3.696,0,0,0,11.117,65.3,1069.8016251129,16.732284,6,P-GPS,
20300,2025-03-09 05:57:30,0,0,16.732284,,,1069.8016251129,19.028872,0,0,0,15,2,11.06,1069.8016251129,16.732284,7.941137,0,0,0,0,239.1, -0.3, -1.9,0,0,1024,1024,1024,1684,0,0,0,100,241.2,0,0,96,3.699,3.684,3.696,0,0,0,11.117,65.3,1069.8016251129,16.732284,6,P-GPS,
20400,2025-03-09 05:57:31,0,0,16.732284,,,1069.8016251129,19.028872,0,0,0,15,2,11.06,1069.8016251129,16.732284,7.941137,0,0,0,0,242.2, 0, -1.1,0,0,1024,1024,1024,1684,0,0,0,100,244.4,0,0,96,3.699,3.684,3.696,0,0,0,11.117,65.3,1069.8016251129,16.732284,6,P-GPS,
20500,2025-03-09 05:57:31,0,0,16.732284,,,1069.8016251129,19.028872,0,0,0,15,2,11.06,1069.8016251129,16.732284,7.941137,0,0,0,0,245.4, 0.6, -0.7,0,0,1024,1024,1024,1684,0,0,0,100,247.6,0,0,96,3.699,3.684,3.696,0,0,0,11.117,65.3,1069.8016251129,16.732284,6,P-GPS,
20600,2025-03-09 05:57:31,0,0,16.732284,,,1069.8016251129,19.028872,0,0,0,16,2,11.06,1069.8016251129,16.732284,7.941137,0,0,0,0,248.6, 0.4, -1,0,0,1024,1024,1024,1684,0,0,0,100,250.8,0,0,96,3.699,3.684,3.696,0,0,0,11.117,65.3,1069.8016251129,16.732284,6,P-GPS,
20700,2025-03-09 05:57:31,0,0,16.732284,,,1069.8016251129,19.028872,0,0,0,16,2,11.06,1069.8016251129,16.732284,7.941137,0,0,0,0,251.9, 0, -0.8,0,0,1024,1024,1024,1684,0,0,0,100,254,0,0,96,3.699,3.684,3.696,0,0,0,11.117,65.3,1069.8016251129,16.732284,6,P-GPS,
20800,2025-03-09 05:57:31,0,0,16.732284,,,1069.8016251129,19.028872,0,0,0,17,2,11.06,1069.8016251129,16.732284,7.941137,0,0,0,0,255.1, -0.2, -0.7,0,0,1024,1024,1024,1684,0,0,0,100,257.2,0,0,96,3.699,3.684,3.696,0,0,0,11.117,65.3,1069.8016251129,16.732284,6,P-GPS,
20900,2025-03-09 05:57:31,0,0,16.732284,,,1069.8016251129,19.028872,0,0,0,17,2,11.06,1069.8016251129,16.732284,7.941137,0,0,0,0,258.2, 0.1, -1.9,0,0,1024,1024,1024,1684,0,0,0,100,260.4,0,0,96,3.699,3.684,3.696,0,0,0,11.117,65.3,1069.8016251129,16.732284,6,P-GPS,
21000,2025-03-09 05:57:31,0,0,16.732284,,,1069.8016251129,19.028872,0,0,0,17,2,11.06,1069.8016251129,16.732284,7.941137,0,0,0,0,261.2, 0.2, -3.3,0,0,1024,1024,1031,1356,0,0,1,50,263.6,0,0,96,3.699,3.684,3.696,0,0,0,11.117,65.3,1069.8016251129,16.732284,6,P-GPS,
21100,2025-03-09 05:57:31,0,0,16.732284,,,1069.8016251129,19.028872,0,0,0,17,2,11.079,1069.8016251129,16.732284,7.941137,0,0,0,0,264.2, -0.7, -3.2,0,0,1024,1024,1024,1024,0,0,0,0,266.8,0,0,96,3.698,3.683,3.695,0,0,0,10.797,65.48,1069.8016251129,16.732284,6,P-GPS,
21200,2025-03-09 05:57:31,0,0,16.732284,,,1069.8016251129,19.028872,0,0,0,17,2,11.079,1069.8016251129,16.732284,7.941137,0,0,0,0,266.4, -1.2, -0.8,0,0,1024,1024,1024,1024,0,0,0,0,269.3,0,0,96,3.698,3.683,3.695,0,0,0,10.797,65.48,1069.8016251129,16.732284,6,P-GPS,
21300,2025-03-09 05:57:31,0,0,16.732284,,,1069.8016251129,19.028872,0,0,0,17,2,11.079,1069.8016251129,16.732284,7.941137,0,0,0,0,268.5, -0.8, 0,0,0,1024,1024,1024,1024,0,0,0,0,270.4,0,0,96,3.698,3.683,3.695,0,0,0,10.797,65.48,1069.8016251129,16.732284,6,P-GPS,
21400,2025-03-09 05:57:31,0,0,16.732284,,,1069.8016251129,19.028872,0,0,0,17,2,11.079,1069.8016251129,16.732284,7.941137,0,0,0,0,269.8, -0.3, -1.4,0,0,1024,1024,1024,1024,0,0,0,0,270.8,0,0,96,3.698,3.683,3.695,0,0,0,10.797,65.48,1069.8016251129,16.732284,6,P-GPS,
21500,2025-03-09 05:57:32,0,0,16.732284,,,1069.8016251129,19.028872,0,0,0,17,2,11.079,1069.8016251129,16.732284,7.941137,0,0,0,0,269.9, -0.2, -2.3,0,0,1024,1024,1024,1024,0,0,0,0,270.8,0,0,96,3.698,3.683,3.695,0,0,0,10.797,65.48,1069.8016251129,16.732284,6,P-GPS,
21600,2025-03-09 05:57:32,0,0,16.732284,,,1069.8016251129,19.028872,0,0,0,17,2,11.079,1069.8016251129,16.732284,7.941137,0,0,0,0,269.6, -0.2, -1.4,0,0,1024,1024,1024,1024,0,0,0,0,270.8,0,0,96,3.698,3.683,3.695,0,0,0,10.797,65.48,1069.8016251129,16.732284,6,P-GPS,
21700,2025-03-09 05:57:32,0,0,16.732284,,,1069.8016251129,19.028872,0,0,0,17,2,11.079,1069.8016251129,16.732284,7.941137,0,0,0,0,269.4, 0.1, -0.7,0,0,1024,1024,1024,1024,0,0,0,0,270.8,0,0,96,3.698,3.683,3.695,0,0,0,10.797,65.48,1069.8016251129,16.732284,6,P-GPS,
21800,2025-03-09 05:57:32,0,0,16.732284,,,1069.8016251129,19.028872,0,0,0,17,2,11.079,1069.8016251129,16.732284,7.941137,0,0,0,0,269.1, 0.5, -2.1,0,0,1024,1024,1024,1024,0,0,0,0,270.8,0,0,96,3.698,3.683,3.695,0,0,0,10.797,65.48,1069.8016251129,16.732284,6,P-GPS,
21900,2025-03-09 05:57:32,0,0,16.732284,,,1069.8016251129,19.028872,0,0,0,17,2,11.079,1069.8016251129,16.732284,7.941137,0,0,0,0,268.8, 0.2, -3.8,0,0,1024,1024,1024,1024,0,0,0,0,270.8,0,0,96,3.698,3.683,3.695,0,0,0,10.797,65.48,1069.8016251129,16.732284,6,P-GPS,
22000,2025-03-09 05:57:32,0,0,16.732284,,,1069.8016251129,19.028872,0,0,0,18,2,11.079,1069.8016251129,16.732284,7.941137,0,0,0,0,268.8, -0.7, -2.3,0,0,1024,1024,1024,1071,0,0,0,7,270.8,0,0,96,3.698,3.683,3.695,0,0,0,10.797,65.48,1069.8016251129,16.732284,6,P-GPS,
22100,2025-03-09 05:57:32,0,0,16.732284,,,1069.8016251129,19.028872,0.3131716,0,0,18,2,11.065,1069.8016251129,16.732284,7.941137,0,-0.223694,0.223694,0,269.2, -2.1, 0.2,0,0,1024,1024,1024,1116,0,0,0,14,270.8,0,0,96,3.694,3.679,3.691,0,0,0,10.917,65.66,1069.8016251129,16.732284,6,P-GPS,
22200,2025-03-09 05:57:32,0,0,16.732284,,,1069.8016251129,19.028872,0,0,0,18,2,11.065,1069.8016251129,16.732284,7.941137,0,0,0,0,269.9, -2.3, 0.6,0,0,1024,1024,1024,1192,0,0,0,25,270.9,0,0,96,3.694,3.679,3.691,0,0,0,10.917,65.66,1069.8016251129,16.732284,6,P-GPS,
