time(millisecond),datetime(utc),latitude,longitude,height_above_takeoff(feet),height_above_ground_at_drone_location(feet),ground_elevation_at_drone_location(feet),altitude_above_seaLevel(feet),height_sonar(feet),speed(mph),distance(feet),mileage(feet),satellites,gpslevel,voltage(v),max_altitude(feet),max_ascent(feet),max_speed(mph),max_distance(feet), xSpeed(mph), ySpeed(mph), zSpeed(mph), compass_heading(degrees), pitch(degrees), roll(degrees),isPhoto,isVideo,rc_elevator,rc_aileron,rc_throttle,rc_rudder,rc_elevator(percent),rc_aileron(percent),rc_throttle(percent),rc_rudder(percent),gimbal_heading(degrees),gimbal_pitch(degrees),gimbal_roll(degrees),battery_percent,voltageCell1,voltageCell2,voltageCell3,voltageCell4,voltageCell5,voltageCell6,current(A),battery_temperature(f),altitude(feet),ascent(feet),flycStateRaw,flycState,message
0,2025-03-09 05:54:53,0,0,0,Available with any HD 360 subscription,Available with any HD 360 subscription,1051.5442633082,0.328084,0,0,0,15,2,0,1051.5442633082,0,0,0,0,0,0,89.9, 3.9, 0.9,0,0,1024,1024,1024,1024,0,0,0,0,90,0,0,100,4.222,4.217,4.218,4.215,0,0,0,63.5,1051.5442633082,0,41,Motors_Started,"機体が高度区域 (500 m)にいます。慎重に飛行してください。 (Code: 190001). 機体は飛行していません。ビジョンシステムと障害物回避が無効です (Code: 180059). GNSS信号が微弱です。ホバリングが不安定です。慎重に飛行してください (Code: 30008)"
200,2025-03-09 05:54:54,0,0,0,,,1051.5442633082,0.328084,0,0,0,15,2,0,1051.5442633082,0,0,0,0,0,0,89.9, 3.9, 0.9,0,0,1024,1024,1024,1024,0,0,0,0,90,0,0,100,4.222,4.217,4.218,4.215,0,0,0,63.5,1051.5442633082,0,41,Motors_Started,"Setting new Return-To-Home altitude to 100m (328 ft). Data Recorder File Index is 110. Setting new Maximum Flight Altitude to 30m (98 ft). GNSSがありません。慎重に飛行してください GNSS信号が微弱です。ホバリングが不安定です。慎重に飛行してください (Code: 30002). 機体は飛行していません。ビジョンシステムと障害物回避が無効です (Code: 180059)"
400,2025-03-09 05:54:54,0,0,0,,,1051.5442633082,0,0,0,0,15,2,0,1051.5442633082,0,0,0,0,0,0,90, 3.9, 0.9,0,0,1024,1024,1024,1024,0,0,0,0,90,0,0,100,4.222,4.217,4.218,4.215,0,0,0,63.5,1051.5442633082,0,41,Motors_Started,
600,2025-03-09 05:54:54,0,0,0,,,1051.5442633082,0,0,0,0,15,2,0,1051.5442633082,0,0,0,0,0,0,89.9, 3.9, 0.9,0,0,1024,1024,1024,1024,0,0,0,0,90,0,0,100,4.222,4.217,4.218,4.215,0,0,0,63.5,1051.5442633082,0,41,Motors_Started,
800,2025-03-09 05:54:54,0,0,0,,,1051.5442633082,0,0,0,0,15,2,0,1051.5442633082,0,0,0,0,0,0,90, 3.9, 0.9,0,0,1024,1024,1024,1024,0,0,0,0,90,0,0,100,4.222,4.217,4.218,4.215,0,0,0,63.5,1051.5442633082,0,41,Motors_Started,
1000,2025-03-09 05:54:54,0,0,0,,,1051.5442633082,0,0,0,0,15,2,0,1051.5442633082,0,0,0,0,0,0,90, 3.9, 0.9,0,0,1024,1024,1024,1024,0,0,0,0,90,0,0,100,4.222,4.217,4.218,4.215,0,0,0,63.5,1051.5442633082,0,41,Motors_Started,
1200,2025-03-09 05:54:55,0,0,0,,,1051.5442633082,0,0,0,0,15,2,16.893,1051.5442633082,0,0,0,0,0,0,90, 3.9, 1,0,0,1024,1024,1024,1024,0,0,0,0,90,0,0,100,4.222,4.217,4.218,4.215,0,0,3.31,63.5,1051.5442633082,0,41,Motors_Started,
1400,2025-03-09 05:54:55,0,0,0,,,1051.5442633082,0,0,0,0,15,2,16.893,1051.5442633082,0,0,0,0,0,0,90, 3.9, 1,0,0,1024,1024,1024,1024,0,0,0,0,90,0,0,100,4.222,4.217,4.218,4.215,0,0,3.31,63.5,1051.5442633082,0,41,Motors_Started,
1600,2025-03-09 05:54:55,0,0,0,,,1051.5442633082,0,0,0,0,15,2,16.893,1051.5442633082,0,0,0,0,0,0,89.9, 3.9, 1,0,0,1024,1024,1024,1024,0,0,0,0,90,0,0,100,4.222,4.217,4.218,4.215,0,0,3.31,63.5,1051.5442633082,0,11,AutoTakeoff,
1800,2025-03-09 05:54:55,0,0,0,,,1051.5442633082,0,0,0,0,15,2,16.893,1051.5442633082,0,0,0,0,0,0,89.9, 3.7, 1,0,0,1024,1024,1024,1024,0,0,0,0,90,0,0,100,4.222,4.217,4.218,4.215,0,0,3.31,63.5,1051.5442633082,0,11,AutoTakeoff,"機体は飛行していません。ビジョンシステムと障害物回避が無効です (Code: 180059)"
2000,2025-03-09 05:54:55,0,0,0,,,1051.5442633082,0,0,0,0,15,2,16.893,1051.5442633082,0,0,0,0,0,0,90.4, 1.4, 1,0,0,1024,1024,1024,1024,0,0,0,0,90,0,0,100,4.222,4.217,4.218,4.215,0,0,3.31,63.5,1051.5442633082,0,11,AutoTakeoff,
2200,2025-03-09 05:54:56,0,0,0,,,1051.5442633082,0,0,0,0,15,2,17.034,1051.5442633082,0,0,0,0,0,-0.447388,91.4, -3.9, 0.4,0,0,1024,1024,1024,1024,0,0,0,0,90.1,0,0,100,4.231,4.226,4.224,4.217,0,0,3.346,63.5,1051.5442633082,0,11,AutoTakeoff,
2400,2025-03-09 05:54:56,0,0,0,,,1051.5442633082,0.328084,0.223694,0,0,15,2,17.034,1051.5442633082,0,0.223694,0,0,0.223694,-0.894776,91, 0.8, -0.2,0,0,1024,1024,1024,1024,0,0,0,0,90.2,0,0,100,4.231,4.226,4.224,4.217,0,0,3.346,63.5,1051.5442633082,0,11,AutoTakeoff,
2600,2025-03-09 05:54:56,0,0,0.328084,,,1051.8723473082,0.656168,0,0,0,15,2,17.034,1051.8723473082,0.328084,0.223694,0,0,0,-0.894776,91.1, 2.5, 0,0,0,1024,1024,1024,1024,0,0,0,0,90.2,0,0,100,4.231,4.226,4.224,4.217,0,0,3.346,63.5,1051.8723473082,0.328084,11,AutoTakeoff,
2800,2025-03-09 05:54:56,0,0,0.656168,,,1052.2004313082,0.984252,0,0,0,15,2,17.034,1052.2004313082,0.656168,0.223694,0,0,0,-0.894776,91.2, 1.6, 0.2,0,0,1024,1024,1024,1024,0,0,0,0,90.3,0,0,100,4.231,4.226,4.224,4.217,0,0,3.346,63.5,1052.2004313082,0.656168,11,AutoTakeoff,
3000,2025-03-09 05:54:56,0,0,0.984252,,,1052.5285153082,1.312336,0,0,0,14,2,17.034,1052.5285153082,0.984252,0.223694,0,0,0,-0.894776,91.1, 0.9, 0.2,0,0,1024,1024,1024,1024,0,0,0,0,90.3,0,0,100,4.231,4.226,4.224,4.217,0,0,3.346,63.5,1052.5285153082,0.984252,11,AutoTakeoff,
3200,2025-03-09 05:54:57,0,0,1.312336,,,1052.8565993082,1.64042,0,0,0,15,2,16.584,1052.8565993082,1.312336,0.223694,0,0,0,-0.894776,91, 0.6, 1.1,0,0,1024,1024,1114,1024,0,0,14,0,90.4,0,0,100,4.14,4.133,4.134,4.134,0,0,7.324,63.5,1052.8565993082,1.312336,11,AutoTakeoff,
3400,2025-03-09 05:54:57,0,0,1.64042,,,1053.1846833082,1.968504,0,0,0,16,2,16.584,1053.1846833082,1.64042,0.223694,0,0,0,-1.11847,91, 0.3, 1.4,0,0,1024,1024,1171,1024,0,0,22,0,90.4,0,0,100,4.14,4.133,4.134,4.134,0,0,7.324,63.5,1053.1846833082,1.64042,11,AutoTakeoff,飛行中
3600,2025-03-09 05:54:57,0,0,1.968504,,,1053.5127673082,2.296588,0,0,0,16,2,16.584,1053.5127673082,1.968504,0.223694,0,0,0,-1.11847,91, 0.7, 0.9,0,0,1024,1024,1229,1024,0,0,31,0,90.4,0,0,100,4.14,4.133,4.134,4.134,0,0,7.324,63.5,1053.5127673082,1.968504,11,AutoTakeoff,
3800,2025-03-09 05:54:57,0,0,2.296588,,,1053.8408513082,2.624672,0,0,0,16,2,16.584,1053.8408513082,2.296588,0.223694,0,0,0,-1.565858,91, 0.6, 0.4,0,0,1024,1024,1233,1068,0,0,32,7,90.4,0,0,100,4.14,4.133,4.134,4.134,0,0,7.324,63.5,1053.8408513082,2.296588,11,AutoTakeoff,
4000,2025-03-09 05:54:57,0,0,2.952756,,,1054.4970193082,3.28084,0,0,0,16,2,16.584,1054.4970193082,2.952756,0.223694,0,0,0,-2.013246,90.9, 0.7, 0.7,0,0,1024,1024,1034,1024,0,0,2,0,90.5,0,0,100,4.14,4.133,4.134,4.134,0,0,7.324,63.5,1054.4970193082,2.952756,11,AutoTakeoff,
4200,2025-03-09 05:54:58,0,0,3.608924,,,1055.1531873082,3.937008,0,0,0,16,2,16.486,1055.1531873082,3.608924,0.223694,0,0,0,-2.013246,90.8, 0.7, 1.1,0,0,1024,1442,1024,1024,0,63,0,0,90.5,0,0,100,4.104,4.096,4.1,4.104,0,0,9.082,63.5,1055.1531873082,3.608924,6,P-GPS,
4400,2025-03-09 05:54:58,0,0,4.265092,,,1055.8093553082,4.593176,0,0,0,16,2,16.486,1055.8093553082,4.265092,0.223694,0,0,0,-0.894776,90.6, 0, 1.6,0,0,1024,1493,1024,1024,0,71,0,0,90.5,0,0,100,4.104,4.096,4.1,4.104,0,0,9.082,63.5,1055.8093553082,4.265092,6,P-GPS,
4600,2025-03-09 05:54:58,0,0,4.265092,,,1055.8093553082,4.593176,0,0,0,16,2,16.486,1055.8093553082,4.265092,0.223694,0,0,0,0,90.5, -0.1, 5,0,0,1024,1566,1024,1024,0,82,0,0,90.5,0,0,100,4.104,4.096,4.1,4.104,0,0,9.082,63.5,1055.8093553082,4.265092,6,P-GPS,
4800,2025-03-09 05:54:58,0,0,4.265092,,,1055.8093553082,4.593176,0.447388,0,0,16,2,16.486,1055.8093553082,4.265092,0.447388,0,-0.447388,0,0,90.8, -0.1, 6.9,0,0,1024,1448,1024,1024,0,64,0,0,90.5,0,0,100,4.104,4.096,4.1,4.104,0,0,9.082,63.5,1055.8093553082,4.265092,6,P-GPS,
5000,2025-03-09 05:54:58,0,0,4.265092,,,1055.8093553082,4.593176,0.894776,0,0,16,2,16.486,1055.8093553082,4.265092,0.894776,0,-0.894776,0,0,90.3, 0, 6.9,0,0,1024,1024,1024,1047,0,0,0,3,90.5,0,0,100,4.104,4.096,4.1,4.104,0,0,9.082,63.5,1055.8093553082,4.265092,6,P-GPS,
5200,2025-03-09 05:54:59,0,0,4.265092,,,1055.8093553082,4.593176,1.565858,0,0,16,2,16.606,1055.8093553082,4.265092,1.565858,0,-1.565858,0,0,89.2, 0.4, 1.7,0,0,1024,1024,1024,1363,0,0,0,51,90.5,0,0,100,4.14,4.13,4.133,4.129,0,0,8.299,63.68,1055.8093553082,4.265092,6,P-GPS,
5400,2025-03-09 05:54:59,0,0,4.265092,,,1055.8093553082,4.593176,1.11847,0,0,15,2,16.606,1055.8093553082,4.265092,1.565858,0,-1.11847,0,0,91.6, 0.7, -8.1,0,0,1024,1024,1024,1615,0,0,0,90,91.5,0,0,100,4.14,4.13,4.133,4.129,0,0,8.299,63.68,1055.8093553082,4.265092,6,P-GPS,
5600,2025-03-09 05:54:59,0,0,4.265092,,,1055.8093553082,4.593176,0.447388,0,0,15,2,16.606,1055.8093553082,4.265092,1.565858,0,-0.447388,0,0,88.9, 0.9, -6,0,0,1024,1024,1024,1684,0,0,0,100,96.8,0,0,100,4.14,4.13,4.133,4.129,0,0,8.299,63.68,1055.8093553082,4.265092,6,P-GPS,
5800,2025-03-09 05:54:59,0,0,4.265092,,,1055.8093553082,4.593176,0,0,0,15,2,16.606,1055.8093553082,4.265092,1.565858,0,0,0,0,83.4, 0.7, -1.8,0,0,1024,1024,1024,1684,0,0,0,100,107.4,0,0,100,4.14,4.13,4.133,4.129,0,0,8.299,63.68,1055.8093553082,4.265092,6,P-GPS,
6000,2025-03-09 05:54:59,0,0,4.265092,,,1055.8093553082,4.593176,0,0,0,14,2,16.606,1055.8093553082,4.265092,1.565858,0,0,0,0,97.5, 0.7, 0,0,0,1024,1024,1024,1306,0,0,0,43,119.3,0,0,100,4.14,4.13,4.133,4.129,0,0,8.299,63.68,1055.8093553082,4.265092,6,P-GPS,
6200,2025-03-09 05:55:00,0,0,4.265092,,,1055.8093553082,4.593176,0,0,0,14,2,16.477,1055.8093553082,4.265092,1.565858,0,0,0,0,113.9, 0.7, 0,0,0,1024,1024,1024,1024,0,0,0,0,127.4,0,0,100,4.13,4.117,4.122,4.12,0,0,8.784,63.68,1055.8093553082,4.265092,6,P-GPS,
6400,2025-03-09 05:55:00,0,0,4.265092,,,1055.8093553082,4.593176,0,0,0,15,2,16.477,1055.8093553082,4.265092,1.565858,0,0,0,0,119.9, 0.3, 0.3,0,0,1024,1024,1024,1036,0,0,0,2,127.8,0,0,100,4.13,4.117,4.122,4.12,0,0,8.784,63.68,1055.8093553082,4.265092,6,P-GPS,
6600,2025-03-09 05:55:00,0,0,4.265092,,,1055.8093553082,4.593176,0,0,0,14,2,16.477,1055.8093553082,4.265092,1.565858,0,0,0,0,119, -0.1, -0.3,0,0,1024,1024,1024,1485,0,0,0,70,127.8,0,0,100,4.13,4.117,4.122,4.12,0,0,8.784,63.68,1055.8093553082,4.265092,6,P-GPS,
6800,2025-03-09 05:55:00,0,0,4.593176,,,1056.1374393082,4.593176,0,0,0,14,2,16.477,1056.1374393082,4.593176,1.565858,0,0,0,0,119.2, 0, 0,0,0,1024,1024,1024,1024,0,0,0,0,129.1,0,0,100,4.13,4.117,4.122,4.12,0,0,8.784,63.68,1056.1374393082,4.593176,6,P-GPS,
7000,2025-03-09 05:55:00,0,0,4.593176,,,1056.1374393082,4.593176,0,0,0,14,2,16.477,1056.1374393082,4.593176,1.565858,0,0,0,0,120.8, 0.2, 0,0,0,1024,1024,1024,1024,0,0,0,0,131.7,0,0,100,4.13,4.117,4.122,4.12,0,0,8.784,63.68,1056.1374393082,4.593176,6,P-GPS,
7200,2025-03-09 05:55:01,0,0,4.593176,,,1056.1374393082,4.593176,0,0,0,13,2,16.472,1056.1374393082,4.593176,1.565858,0,0,0,0,123.1, -0.4, 1.6,0,0,1519,1024,1024,1024,75,0,0,0,131.7,0,0,100,4.12,4.114,4.115,4.118,0,0,8.702,63.86,1056.1374393082,4.593176,6,P-GPS,
7400,2025-03-09 05:55:01,0,0,4.593176,,,1056.1374393082,4.593176,0,0,0,13,2,16.472,1056.1374393082,4.593176,1.565858,0,0,0,0,122.8, -1, 0.5,0,0,1613,1024,1024,1024,89,0,0,0,131.7,0,0,100,4.12,4.114,4.115,4.118,0,0,8.702,63.86,1056.1374393082,4.593176,6,P-GPS,
7600,2025-03-09 05:55:01,0,0,4.593176,,,1056.1374393082,4.593176,0,0,0,13,2,16.472,1056.1374393082,4.593176,1.565858,0,0,0,0,122.9, -5.1, -0.7,0,0,1629,1024,1024,1024,92,0,0,0,131.7,0,0,100,4.12,4.114,4.115,4.118,0,0,8.702,63.86,1056.1374393082,4.593176,6,P-GPS,
7800,2025-03-09 05:55:01,0,0,4.593176,,,1056.1374393082,4.593176,0.4921268,0,0,13,2,16.472,1056.1374393082,4.593176,1.565858,0,-0.223694,0.447388,0,123, -6.7, -0.6,0,0,1683,1024,1024,1024,100,0,0,0,131.7,0,0,100,4.12,4.114,4.115,4.118,0,0,8.702,63.86,1056.1374393082,4.593176,6,P-GPS,
8000,2025-03-09 05:55:01,0,0,4.593176,,,1056.1374393082,4.593176,1.11847,0,0,13,2,16.472,1056.1374393082,4.593176,1.565858,0,-0.671082,0.894776,0,123, -6.7, -0.3,0,0,1684,1024,1024,1024,100,0,0,0,131.7,0,0,100,4.12,4.114,4.115,4.118,0,0,8.702,63.86,1056.1374393082,4.593176,6,P-GPS,
8200,2025-03-09 05:55:02,0,0,4.593176,,,1056.1374393082,4.593176,1.2974252,0,0,13,2,16.461,1056.1374393082,4.593176,1.565858,0,-0.671082,1.11847,0,123, -6.4, -0.8,0,0,1684,1024,1024,1024,100,0,0,0,131.7,0,0,100,4.115,4.109,4.111,4.112,0,0,8.779,63.86,1056.1374393082,4.593176,6,P-GPS,
8400,2025-03-09 05:55:02,0,0,4.593176,,,1056.1374393082,4.593176,1.8119214,0,0,13,2,16.461,1056.1374393082,4.593176,1.8119214,0,-0.894776,1.565858,0,123, 2.3, -1.7,0,0,1684,1024,1024,1024,100,0,0,0,131.7,0,0,100,4.115,4.109,4.111,4.112,0,0,8.779,63.86,1056.1374393082,4.593176,6,P-GPS,
8600,2025-03-09 05:55:02,0,0,4.593176,,,1056.1374393082,4.593176,1.2079476,0,0,12,2,16.461,1056.1374393082,4.593176,1.8119214,0,-0.447388,1.11847,0,123.3, 14.3, 0,0,0,1683,1024,1024,1024,100,0,0,0,131.7,0,0,100,4.115,4.109,4.111,4.112,0,0,8.779,63.86,1056.1374393082,4.593176,6,P-GPS,
8800,2025-03-09 05:55:02,0,0,4.593176,,,1056.1374393082,5.577428,0.223694,0,0,12,2,16.461,1056.1374393082,4.593176,1.8119214,0,0,0.223694,0,123.3, 6.1, 1.6,0,0,1675,1024,1024,1024,99,0,0,0,131.7,0,0,100,4.115,4.109,4.111,4.112,0,0,8.779,63.86,1056.1374393082,4.593176,6,P-GPS,
9000,2025-03-09 05:55:02,0,0,4.593176,,,1056.1374393082,5.905512,0,0,0,11,2,16.461,1056.1374393082,4.593176,1.8119214,0,0,0,0,123.2, 2.5, 1.6,0,0,1024,1024,1024,1024,0,0,0,0,131.7,0,0,100,4.115,4.109,4.111,4.112,0,0,8.779,63.86,1056.1374393082,4.593176,6,P-GPS,
9200,2025-03-09 05:55:02,0,0,4.593176,,,1056.1374393082,5.249344,0,0,0,11,2,16.459,1056.1374393082,4.593176,1.8119214,0,0,0,0,122.2, -1.5, 1.5,0,0,1024,1024,1056,1024,0,0,5,0,131.7,0,0,100,4.124,4.113,4.118,4.119,0,0,8.975,64.04,1056.1374393082,4.593176,6,P-GPS,
9400,2025-03-09 05:55:03,0,0,4.593176,,,1056.1374393082,4.593176,0,0,0,11,2,16.459,1056.1374393082,4.593176,1.8119214,0,0,0,0,121, 0.3, 1,0,0,1024,1024,1396,1024,0,0,56,0,131.7,0,0,100,4.124,4.113,4.118,4.119,0,0,8.975,64.04,1056.1374393082,4.593176,6,P-GPS,
9600,2025-03-09 05:55:03,0,0,4.593176,,,1056.1374393082,4.593176,0,0,0,12,2,16.459,1056.1374393082,4.593176,1.8119214,0,0,0,-0.671082,121, 0.1, 0.4,0,0,1024,1024,1524,1024,0,0,76,0,131.7,0,0,100,4.124,4.113,4.118,4.119,0,0,8.975,64.04,1056.1374393082,4.593176,6,P-GPS,
9800,2025-03-09 05:55:03,0,0,5.249344,,,1056.7936073082,5.249344,0,0,0,12,2,16.459,1056.7936073082,5.249344,1.8119214,0,0,0,-2.684328,120.8, 0.3, 0,0,0,1024,1024,1024,1024,0,0,0,0,131.7,0,0,100,4.124,4.113,4.118,4.119,0,0,8.975,64.04,1056.7936073082,5.249344,6,P-GPS,
10000,2025-03-09 05:55:03,0,0,6.56168,,,1058.1059433082,6.233596,0,0,0,13,2,16.459,1058.1059433082,6.56168,1.8119214,0,0,0,-4.697574,120.8, 0.1, 0.1,0,0,1024,1024,1024,1024,0,0,0,0,131.7,0,0,100,4.124,4.113,4.118,4.119,0,0,8.975,64.04,1058.1059433082,6.56168,6,P-GPS,
10200,2025-03-09 05:55:04,0,0,7.874016,,,1059.4182793082,7.874016,0,0,0,14,2,16.254,1059.4182793082,7.874016,1.8119214,0,0,0,-3.579104,120.8, 1.3, -0.9,0,0,1684,1024,1024,1024,100,0,0,0,131.7,0,0,100,4.024,4.012,4.006,3.997,0,0,9.986,64.22,1059.4182793082,7.874016,6,P-GPS,
10400,2025-03-09 05:55:04,0,0,8.530184,,,1060.0744473082,8.530184,0,0,0,13,2,16.254,1060.0744473082,8.530184,1.8119214,0,0,0,-1.565858,120.3, 0.6, -1.3,0,0,1684,1024,1024,1024,100,0,0,0,131.7,0,0,100,4.024,4.012,4.006,3.997,0,0,9.986,64.22,1060.0744473082,8.530184,6,P-GPS,
10600,2025-03-09 05:55:04,0,0,8.858268,,,1060.4025313082,8.858268,0,0,0,14,2,16.254,1060.4025313082,8.858268,1.8119214,0,0,0,-0.223694,119.7, -5, -0.6,0,0,1684,1024,1024,1024,100,0,0,0,131.7,0,0,100,4.024,4.012,4.006,3.997,0,0,9.986,64.22,1060.4025313082,8.858268,6,P-GPS,
10800,2025-03-09 05:55:04,0,0,8.858268,,,1060.4025313082,8.858268,0.447388,0,0,14,2,16.254,1060.4025313082,8.858268,1.8119214,0,0,0.447388,0,120.6, -7.7, -0.2,0,0,1684,1024,1024,1024,100,0,0,0,131.7,0,0,100,4.024,4.012,4.006,3.997,0,0,9.986,64.22,1060.4025313082,8.858268,6,P-GPS,
11000,2025-03-09 05:55:04,0,0,8.858268,,,1060.4025313082,8.530184,0.9171454,0,0,14,2,16.254,1060.4025313082,8.858268,1.8119214,0,-0.223694,0.894776,0,123.6, -7.4, 0,0,0,1684,1024,1024,1024,100,0,0,0,131.7,0,0,100,4.024,4.012,4.006,3.997,0,0,9.986,64.22,1060.4025313082,8.858268,6,P-GPS,
11200,2025-03-09 05:55:05,0,0,8.858268,,,1060.4025313082,8.530184,1.4987498,0,0,15,2,16.584,1060.4025313082,8.858268,1.8119214,0,-0.671082,1.342164,0,127.4, -6.7, 0.6,0,0,1684,1024,1024,1024,100,0,0,0,131.7,0,0,99,4.119,4.114,4.119,4.116,0,0,8.329,64.22,1060.4025313082,8.858268,6,P-GPS,
11400,2025-03-09 05:55:05,0,0,8.858268,,,1060.4025313082,8.530184,1.9237684,0,0,16,2,16.584,1060.4025313082,8.858268,1.9237684,0,-1.11847,1.565858,0,131.8, -6.4, 1.1,0,0,1684,1024,1024,1024,100,0,0,0,131.7,0,0,99,4.119,4.114,4.119,4.116,0,0,8.329,64.22,1060.4025313082,8.858268,6,P-GPS,
11600,2025-03-09 05:55:05,0,0,8.858268,,,1060.4025313082,8.530184,2.23694,0,0,17,2,16.584,1060.4025313082,8.858268,2.23694,0,-1.342164,1.789552,0,130.6, -5.8, 1.5,0,0,1684,1024,1024,1024,100,0,0,0,131.7,0,0,99,4.119,4.114,4.119,4.116,0,0,8.329,64.22,1060.4025313082,8.858268,6,P-GPS,
11800,2025-03-09 05:55:05,0,0,8.858268,,,1060.4025313082,9.186352,2.7290668,0,0,17,2,16.584,1060.4025313082,8.858268,2.7290668,0,-1.565858,2.23694,0,127.3, 2, 1.8,0,0,1684,1024,1024,1024,100,0,0,0,131.7,0,0,99,4.119,4.114,4.119,4.116,0,0,8.329,64.22,1060.4025313082,8.858268,6,P-GPS,
12000,2025-03-09 05:55:05,0,0,8.858268,,,1060.4025313082,9.514436,1.6105968,0,0,17,2,16.584,1060.4025313082,8.858268,2.7290668,0,-0.894776,1.342164,0,123.8, 19.5, 1.3,0,0,1684,1024,1024,1024,100,0,0,0,131.7,0,0,99,4.119,4.114,4.119,4.116,0,0,8.329,64.22,1060.4025313082,8.858268,6,P-GPS,
12200,2025-03-09 05:55:06,0,0,8.858268,,,1060.4025313082,9.84252,0.3131716,0,0,17,2,16.458,1060.4025313082,8.858268,2.7290668,0,-0.223694,0.223694,0,123.1, 7.1, 0.6,0,0,1684,1024,1024,1024,100,0,0,0,131.7,0,0,99,4.105,4.101,4.086,4.106,0,0,8.243,64.58,1060.4025313082,8.858268,6,P-GPS,
12400,2025-03-09 05:55:06,0,0,8.858268,,,1060.4025313082,10.170604,0,0,0,18,2,16.458,1060.4025313082,8.858268,2.7290668,0,0,0,0,126.4, -0.4, 0.4,0,0,1684,1024,1024,1024,100,0,0,0,131.7,0,0,99,4.105,4.101,4.086,4.106,0,0,8.243,64.58,1060.4025313082,8.858268,6,P-GPS,
12600,2025-03-09 05:55:06,0,0,9.186352,,,1060.7306153082,9.84252,0,0,0,18,2,16.458,1060.7306153082,9.186352,2.7290668,0,0,0,0,122.4, -4.6, 0.2,0,0,1684,1024,1024,1024,100,0,0,0,131.7,0,0,99,4.105,4.101,4.086,4.106,0,0,8.243,64.58,1060.7306153082,9.186352,6,P-GPS,
12800,2025-03-09 05:55:06,0,0,9.186352,,,1060.7306153082,9.84252,0.4921268,0,0,18,2,16.458,1060.7306153082,9.186352,2.7290668,0,-0.223694,0.447388,0,119.1, -5.9, -0.2,0,0,1024,1024,1024,1024,0,0,0,0,131.7,0,0,99,4.105,4.101,4.086,4.106,0,0,8.243,64.58,1060.7306153082,9.186352,6,P-GPS,
13000,2025-03-09 05:55:06,0,0,9.186352,,,1060.7306153082,9.514436,1.006623,0,0,18,2,16.458,1060.7306153082,9.186352,2.7290668,0,-0.447388,0.894776,0,119.9, -3.3, 0,0,0,1024,1024,1024,1024,0,0,0,0,131.7,0,0,99,4.105,4.101,4.086,4.106,0,0,8.243,64.58,1060.7306153082,9.186352,6,P-GPS,
13200,2025-03-09 05:55:07,0,0,9.186352,,,1060.7306153082,9.514436,0.7158208,0,0,18,2,16.444,1060.7306153082,9.186352,2.7290668,0,-0.223694,0.671082,0,120.1, 5.4, 0.6,0,0,1024,1024,1024,1024,0,0,0,0,131.7,0,0,99,4.114,4.104,4.119,4.106,0,0,8.619,64.76,1060.7306153082,9.186352,6,P-GPS,
13400,2025-03-09 05:55:07,0,0,9.186352,,,1060.7306153082,9.84252,0.447388,0,0,18,2,16.444,1060.7306153082,9.186352,2.7290668,0,0,0.447388,0,118.8, 3.9, 0.9,0,0,1024,1024,1024,1024,0,0,0,0,131.7,0,0,99,4.114,4.104,4.119,4.106,0,0,8.619,64.76,1060.7306153082,9.186352,6,P-GPS,
13600,2025-03-09 05:55:07,0,0,9.186352,,,1060.7306153082,9.84252,0,0,0,18,2,16.444,1060.7306153082,9.186352,2.7290668,0,0,0,0,117.5, 2, 1.3,0,0,1073,1024,1024,1024,7,0,0,0,131.7,0,0,99,4.114,4.104,4.119,4.106,0,0,8.619,64.76,1060.7306153082,9.186352,6,P-GPS,
13800,2025-03-09 05:55:07,0,0,9.186352,,,1060.7306153082,9.84252,0,0,0,19,2,16.444,1060.7306153082,9.186352,2.7290668,0,0,0,0,117.5, 0.3, 1.2,0,0,1637,1024,1024,1024,93,0,0,0,131.7,0,0,99,4.114,4.104,4.119,4.106,0,0,8.619,64.76,1060.7306153082,9.186352,6,P-GPS,
14000,2025-03-09 05:55:07,0,0,9.186352,,,1060.7306153082,9.84252,0,0,0,19,2,16.444,1060.7306153082,9.186352,2.7290668,0,0,0,0,116.1, -3.3, 0.8,0,0,1684,1024,1024,1024,100,0,0,0,131.7,0,0,99,4.114,4.104,4.119,4.106,0,0,8.619,64.76,1060.7306153082,9.186352,6,P-GPS,
14200,2025-03-09 05:55:08,0,0,9.186352,,,1060.7306153082,9.84252,0.223694,0,0,19,2,16.438,1060.7306153082,9.186352,2.7290668,0,0,0.223694,0,115, -6.7, 0.5,0,0,1684,1024,1024,1024,100,0,0,0,131.7,0,0,99,4.11,4.109,4.109,4.11,0,0,8.3,64.76,1060.7306153082,9.186352,6,P-GPS,
14400,2025-03-09 05:55:08,0,0,9.186352,,,1060.7306153082,9.84252,0.7158208,0,0,19,2,16.438,1060.7306153082,9.186352,2.7290668,0,-0.223694,0.671082,0,114.9, -1.3, 0.5,0,0,1684,1024,1024,1024,100,0,0,0,131.7,0,0,99,4.11,4.109,4.109,4.11,0,0,8.3,64.76,1060.7306153082,9.186352,6,P-GPS,
14600,2025-03-09 05:55:08,0,0,9.186352,,,1060.7306153082,9.514436,0.7158208,0,0,18,2,16.438,1060.7306153082,9.186352,2.7290668,0,-0.223694,0.671082,0,114.9, -1.1, 0.3,0,0,1684,1024,1024,1024,100,0,0,0,131.7,0,0,99,4.11,4.109,4.109,4.11,0,0,8.3,64.76,1060.7306153082,9.186352,6,P-GPS,
14800,2025-03-09 05:55:08,0,0,9.186352,,,1060.7306153082,9.84252,0.7158208,0,0,19,2,16.438,1060.7306153082,9.186352,2.7290668,0,-0.223694,0.671082,0,114.7, -2.4, 0.7,0,0,1684,1024,1024,1024,100,0,0,0,131.7,0,0,99,4.11,4.109,4.109,4.11,0,0,8.3,64.76,1060.7306153082,9.186352,6,P-GPS,
15000,2025-03-09 05:55:08,0,0,9.186352,,,1060.7306153082,9.84252,0.7158208,0,0,19,2,16.438,1060.7306153082,9.186352,2.7290668,0,-0.223694,0.671082,0,114.5, -0.9, 1,0,0,1684,1024,1024,1024,100,0,0,0,131.7,0,0,99,4.11,4.109,4.109,4.11,0,0,8.3,64.76,1060.7306153082,9.186352,6,P-GPS,
15200,2025-03-09 05:55:09,0,0,9.186352,,,1060.7306153082,9.84252,0.7158208,0,0,18,2,16.426,1060.7306153082,9.186352,2.7290668,0,-0.223694,0.671082,0,114.5, 0.8, 0.7,0,0,1684,1024,1024,1024,100,0,0,0,131.7,0,0,99,4.114,4.111,4.111,4.111,0,0,8.368,64.94,1060.7306153082,9.186352,6,P-GPS,
15400,2025-03-09 05:55:09,0,0,9.514436,,,1061.0586993082,9.84252,0.7158208,0,0,18,2,16.426,1061.0586993082,9.514436,2.7290668,0,-0.223694,0.671082,0,114.5, -0.3, 0.1,0,0,1684,1024,1024,1024,100,0,0,0,131.7,0,0,99,4.114,4.111,4.111,4.111,0,0,8.368,64.94,1061.0586993082,9.514436,6,P-GPS,
15600,2025-03-09 05:55:09,0,0,9.514436,,,1061.0586993082,9.84252,0.4921268,0,0,18,2,16.426,1061.0586993082,9.514436,2.7290668,0,-0.223694,0.447388,0,114.5, 0, 0.2,0,0,1684,1024,1024,1024,100,0,0,0,131.7,0,0,99,4.114,4.111,4.111,4.111,0,0,8.368,64.94,1061.0586993082,9.514436,6,P-GPS,
15800,2025-03-09 05:55:09,0,0,9.514436,,,1061.0586993082,9.84252,0.4921268,0,0,17,2,16.426,1061.0586993082,9.514436,2.7290668,0,-0.223694,0.447388,0,114.5, -0.4, 0.4,0,0,1684,1024,1024,1024,100,0,0,0,131.7,0,0,99,4.114,4.111,4.111,4.111,0,0,8.368,64.94,1061.0586993082,9.514436,6,P-GPS,
16000,2025-03-09 05:55:09,0,0,9.514436,,,1061.0586993082,9.84252,0.7158208,0,0,17,2,16.426,1061.0586993082,9.514436,2.7290668,0,-0.223694,0.671082,0,114.6, 2.8, 0.9,0,0,1684,1024,1024,1024,100,0,0,0,131.7,0,0,99,4.114,4.111,4.111,4.111,0,0,8.368,64.94,1061.0586993082,9.514436,6,P-GPS,
16200,2025-03-09 05:55:10,0,0,9.514436,,,1061.0586993082,9.84252,0.447388,0,0,19,2,16.428,1061.0586993082,9.514436,2.7290668,0,0,0.447388,0,114.7, 0.7, 0.6,0,0,1684,1024,1024,1024,100,0,0,0,131.7,0,0,99,4.108,4.102,4.093,4.101,0,0,8.105,64.94,1061.0586993082,9.514436,6,P-GPS,
16400,2025-03-09 05:55:10,0,0,9.514436,,,1061.0586993082,9.84252,0.223694,0,0,19,2,16.428,1061.0586993082,9.514436,2.7290668,0,0,0.223694,0,114.6, 0.9, 0.6,0,0,1684,1024,1024,1024,100,0,0,0,131.7,0,0,99,4.108,4.102,4.093,4.101,0,0,8.105,64.94,1061.0586993082,9.514436,6,P-GPS,
16600,2025-03-09 05:55:10,0,0,9.514436,,,1061.0586993082,9.84252,0.223694,0,0,19,2,16.428,1061.0586993082,9.514436,2.7290668,0,0,0.223694,0,114.5, 1, 0.4,0,0,1684,1024,1024,1024,100,0,0,0,131.7,0,0,99,4.108,4.102,4.093,4.101,0,0,8.105,64.94,1061.0586993082,9.514436,6,P-GPS,
16800,2025-03-09 05:55:10,0,0,9.514436,,,1061.0586993082,9.84252,0,0,0,19,2,16.428,1061.0586993082,9.514436,2.7290668,0,0,0,0,114.6, 1.1, 0.6,0,0,1024,1024,1024,1024,0,0,0,0,131.7,0,0,99,4.108,4.102,4.093,4.101,0,0,8.105,64.94,1061.0586993082,9.514436,6,P-GPS,
17000,2025-03-09 05:55:10,0,0,9.514436,,,1061.0586993082,9.84252,0,0,0,19,2,16.428,1061.0586993082,9.514436,2.7290668,0,0,0,0,114.7, 0.1, 0.4,0,0,1024,1024,1024,1024,0,0,0,0,131.7,0,0,99,4.108,4.102,4.093,4.101,0,0,8.105,64.94,1061.0586993082,9.514436,6,P-GPS,
17200,2025-03-09 05:55:11,0,0,9.514436,,,1061.0586993082,9.84252,0,0,0,19,2,16.42,1061.0586993082,9.514436,2.7290668,0,0,0,0,114.7, 1, 0.4,0,0,1024,1024,1024,1024,0,0,0,0,131.7,0,0,99,4.105,4.1,4.103,4.102,0,0,8.424,64.94,1061.0586993082,9.514436,6,P-GPS,
17400,2025-03-09 05:55:11,0,0,9.514436,,,1061.0586993082,9.84252,0,0,0,19,2,16.42,1061.0586993082,9.514436,2.7290668,0,0,0,0,114.7, 0.6, 1.1,0,0,1024,1024,1024,1024,0,0,0,0,131.7,0,0,99,4.105,4.1,4.103,4.102,0,0,8.424,64.94,1061.0586993082,9.514436,6,P-GPS,
17600,2025-03-09 05:55:11,0,0,9.514436,,,1061.0586993082,9.84252,0,0,0,19,2,16.42,1061.0586993082,9.514436,2.7290668,0,0,0,0,114.5, -0.3, 2.3,0,0,1024,1024,1024,1024,0,0,0,0,131.7,0,0,99,4.105,4.1,4.103,4.102,0,0,8.424,64.94,1061.0586993082,9.514436,6,P-GPS,
17800,2025-03-09 05:55:11,0,0,9.514436,,,1061.0586993082,9.84252,0,0,0,19,2,16.42,1061.0586993082,9.514436,2.7290668,0,0,0,0,114.6, -0.1, 0.8,0,0,1024,1024,1024,1024,0,0,0,0,131.7,0,0,99,4.105,4.1,4.103,4.102,0,0,8.424,64.94,1061.0586993082,9.514436,31,Sport,
18000,2025-03-09 05:55:11,0,0,9.514436,,,1061.0586993082,9.84252,0,0,0,19,2,16.42,1061.0586993082,9.514436,2.7290668,0,0,0,0,114.6, 0.1, 0.6,0,0,1024,1024,1024,1024,0,0,0,0,131.7,0,0,99,4.105,4.1,4.103,4.102,0,0,8.424,64.94,1061.0586993082,9.514436,31,Sport,
18200,2025-03-09 05:55:12,0,0,9.514436,,,1061.0586993082,9.84252,0,0,0,19,2,16.404,1061.0586993082,9.514436,2.7290668,0,0,0,0,114.4, -0.1, 1.6,0,0,1550,1024,1024,1024,80,0,0,0,131.7,0,0,99,4.103,4.097,4.101,4.101,0,0,8.42,64.94,1061.0586993082,9.514436,31,Sport,
18400,2025-03-09 05:55:12,0,0,9.514436,,,1061.0586993082,9.84252,0,0,0,19,2,16.404,1061.0586993082,9.514436,2.7290668,0,0,0,0,114.4, -1.5, 1.6,0,0,1614,1024,1024,1024,89,0,0,0,131.7,0,0,99,4.103,4.097,4.101,4.101,0,0,8.42,64.94,1061.0586993082,9.514436,31,Sport,
18600,2025-03-09 05:55:12,0,0,9.514436,,,1061.0586993082,9.84252,0.4921268,0,0,19,2,16.404,1061.0586993082,9.514436,2.7290668,0,-0.223694,0.447388,0,114.2, -20.5, 1.6,0,0,1584,1024,1024,1024,85,0,0,0,131.7,0,0,99,4.103,4.097,4.101,4.101,0,0,8.42,64.94,1061.0586993082,9.514436,31,Sport,
18800,2025-03-09 05:55:12,0,0,9.514436,,,1061.0586993082,9.84252,2.4158952,0,0,19,2,16.404,1061.0586993082,9.514436,2.7290668,0,-0.894776,2.23694,0,114, -32.3, 1.3,0,0,1495,1024,1024,1024,71,0,0,0,131.7,0,0,99,4.103,4.097,4.101,4.101,0,0,8.42,64.94,1061.0586993082,9.514436,31,Sport,
19000,2025-03-09 05:55:12,0,0,9.84252,,,1061.3867833082,9.514436,5.2120702,0,0,18,2,16.404,1061.3867833082,9.84252,5.2120702,0,-2.23694,4.697574,0,114, -33.5, 1.6,0,0,1024,1024,1024,1024,0,0,0,0,131.7,0,0,99,4.103,4.097,4.101,4.101,0,0,8.42,64.94,1061.3867833082,9.84252,31,Sport,
19200,2025-03-09 05:55:13,0,0,9.84252,,,1061.3867833082,9.514436,7.8069206,0,0,17,2,16.396,1061.3867833082,9.84252,7.8069206,0,-3.131716,7.158208,0,113.7, -23.8, 1.2,0,0,1024,1024,1024,1024,0,0,0,0,131.7,0,0,99,4.068,4.065,4.063,4.069,0,0,8.572,65.12,1061.3867833082,9.84252,31,Sport,
19400,2025-03-09 05:55:13,0,0,9.84252,,,1061.3867833082,9.84252,8.3214168,0,0,19,2,16.396,1061.3867833082,9.84252,8.3214168,0,-3.35541,7.605596,-0.223694,113.7, 19.6, 0.9,0,0,1024,1024,1024,1024,0,0,0,0,131.7,0,0,99,4.068,4.065,4.063,4.069,0,0,8.572,65.12,1061.3867833082,9.84252,31,Sport,
19600,2025-03-09 05:55:13,0,0,9.84252,,,1061.3867833082,9.84252,6.1068462,0,0,19,2,16.396,1061.3867833082,9.84252,8.3214168,0,-2.460634,5.59235,0,114.1, 31.8, 0.4,0,0,1024,1024,1024,1024,0,0,0,0,131.7,0,0,99,4.068,4.065,4.063,4.069,0,0,8.572,65.12,1061.3867833082,9.84252,31,Sport,
19800,2025-03-09 05:55:13,0,0,9.84252,,,1061.3867833082,9.514436,3.3330406,0,0,19,2,16.396,1061.3867833082,9.84252,8.3214168,0,-1.11847,3.131716,0,114.3, 26, 1.2,0,0,1024,1024,1073,1024,0,0,7,0,131.7,0,0,99,4.068,4.065,4.063,4.069,0,0,8.572,65.12,1061.3867833082,9.84252,31,Sport,
20000,2025-03-09 05:55:13,0,0,9.84252,,,1061.3867833082,9.84252,1.4092722,0,0,20,2,16.396,1061.3867833082,9.84252,8.3214168,0,-0.447388,1.342164,0,114.4, 15.8, 2.4,0,0,1024,1024,1230,1024,0,0,31,0,131.7,0,0,99,4.068,4.065,4.063,4.069,0,0,8.572,65.12,1061.3867833082,9.84252,31,Sport,
20200,2025-03-09 05:55:14,0,0,9.84252,,,1061.3867833082,9.84252,0.4921268,0,0,18,2,16.318,1061.3867833082,9.84252,8.3214168,0,-0.223694,0.447388,-0.671082,113.3, 7.7, 2.1,0,0,1024,1024,1242,1024,0,0,33,0,131.7,0,0,99,4.086,4.079,4.079,4.07,0,0,9.798,65.12,1061.3867833082,9.84252,31,Sport,
20400,2025-03-09 05:55:14,0,0,10.170604,,,1061.7148673082,10.170604,0,0,0,18,2,16.318,1061.7148673082,10.170604,8.3214168,0,0,0,-1.789552,113.5, 3.3, 2,0,0,1024,1024,1244,1024,0,0,33,0,131.7,0,0,99,4.086,4.079,4.079,4.07,0,0,9.798,65.12,1061.7148673082,10.170604,31,Sport,
20600,2025-03-09 05:55:14,0,0,10.826772,,,1062.3710353082,10.826772,0,0,0,20,2,16.318,1062.3710353082,10.826772,8.3214168,0,0,0,-2.23694,113.7, 2, 2,0,0,1024,1024,1241,1024,0,0,33,0,131.7,0,0,99,4.086,4.079,4.079,4.07,0,0,9.798,65.12,1062.3710353082,10.826772,31,Sport,
20800,2025-03-09 05:55:14,0,0,11.48294,,,1063.0272033082,11.811024,0.223694,0,0,20,2,16.318,1063.0272033082,11.48294,8.3214168,0,-0.223694,0,-2.23694,113.6, 1.1, -1,0,0,1024,1024,1242,1024,0,0,33,0,131.7,0,0,99,4.086,4.079,4.079,4.07,0,0,9.798,65.12,1063.0272033082,11.48294,31,Sport,
21000,2025-03-09 05:55:14,0,0,12.467192,,,1064.0114553082,12.467192,0,0,0,20,2,16.318,1064.0114553082,12.467192,8.3214168,0,0,0,-2.23694,113.6, 1.2, -3.3,0,0,1024,1024,1241,1024,0,0,33,0,131.7,0,0,99,4.086,4.079,4.079,4.07,0,0,9.798,65.12,1064.0114553082,12.467192,31,Sport,
21200,2025-03-09 05:55:15,0,0,13.12336,,,1064.6676233082,12.795276,0,0,0,20,2,16.266,1064.6676233082,13.12336,8.3214168,0,0,0,-2.23694,113.6, 2.9, -1.6,0,0,1024,1024,1244,1024,0,0,33,0,131.7,0,0,99,4.085,4.083,4.085,4.084,0,0,10.239,65.3,1064.6676233082,13.12336,31,Sport,
21400,2025-03-09 05:55:15,0,0,13.779528,,,1065.3237913082,13.451444,0,0,0,20,2,16.266,1065.3237913082,13.779528,8.3214168,0,0,0,-2.23694,113.6, 3.4, 0.7,0,0,1024,1024,1251,1024,0,0,34,0,131.7,0,0,99,4.085,4.083,4.085,4.084,0,0,10.239,65.3,1065.3237913082,13.779528,31,Sport,
21600,2025-03-09 05:55:15,0,0,14.435696,,,1065.9799593082,14.435696,0,0,0,20,2,16.266,1065.9799593082,14.435696,8.3214168,0,0,0,-2.23694,113.9, 3.1, 2.2,0,0,1024,1024,1255,1024,0,0,35,0,131.7,0,0,99,4.085,4.083,4.085,4.084,0,0,10.239,65.3,1065.9799593082,14.435696,31,Sport,
21800,2025-03-09 05:55:15,0,0,15.091864,,,1066.6361273082,15.091864,0,0,0,18,2,16.266,1066.6361273082,15.091864,8.3214168,0,0,0,-2.460634,114.2, 2.9, 3.3,0,0,1024,1024,1246,1024,0,0,34,0,131.7,0,0,99,4.085,4.083,4.085,4.084,0,0,10.239,65.3,1066.6361273082,15.091864,31,Sport,
22000,2025-03-09 05:55:15,0,0,16.076116,,,1067.6203793082,15.748032,0,0,0,17,2,16.266,1067.6203793082,16.076116,8.3214168,0,0,0,-2.460634,114.2, 2.9, 0.5,0,0,1024,1024,1250,1024,0,0,34,0,131.7,0,0,99,4.085,4.083,4.085,4.084,0,0,10.239,65.3,1067.6203793082,16.076116,31,Sport,
22200,2025-03-09 05:55:16,0,0,16.732284,,,1068.2765473082,16.4042,0.223694,0,0,16,2,16.266,1068.2765473082,16.732284,8.3214168,0,0,-0.223694,-2.460634,114.3, 2.2, 1.2,0,0,1024,1024,1244,1024,0,0,33,0,131.7,0,0,99,4.085,4.083,4.085,4.084,0,0,10.239,65.3,1068.2765473082,16.732284,31,Sport,
22400,2025-03-09 05:55:16,0,0,18.04462,,,1069.5888833082,17.388452,0.223694,0,0,17,2,16.265,1069.5888833082,18.04462,8.3214168,0,0,-0.223694,-2.460634,114.4, 1.2, -0.8,0,0,1024,1024,1228,1024,0,0,31,0,131.7,0,0,99,4.076,4.063,4.061,4.068,0,0,9.565,65.48,1069.5888833082,18.04462,31,Sport,
22600,2025-03-09 05:55:16,0,0,19.028872,,,1070.5731353082,18.04462,0,0,0,18,2,16.265,1070.5731353082,19.028872,8.3214168,0,0,0,-2.23694,113.8, 2.3, -2.7,0,0,1024,1024,1257,1024,0,0,35,0,131.7,0,0,99,4.076,4.063,4.061,4.068,0,0,9.565,65.48,1070.5731353082,19.028872,31,Sport,
22800,2025-03-09 05:55:16,0,0,19.356956,,,1070.9012193082,18.700788,0,0,0,18,2,16.265,1070.9012193082,19.356956,8.3214168,0,0,0,-2.23694,113.8, 2.1, -2.6,0,0,1024,1024,1024,1024,0,0,0,0,131.7,0,0,99,4.076,4.063,4.061,4.068,0,0,9.565,65.48,1070.9012193082,19.356956,31,Sport,
23000,2025-03-09 05:55:16,0,0,20.013124,,,1071.5573873082,19.356956,0,0,0,18,2,16.265,1071.5573873082,20.013124,8.3214168,0,0,0,-2.460634,113.3, 3.3, -0.7,0,0,1024,1453,1024,1024,0,65,0,0,131.7,0,0,99,4.076,4.063,4.061,4.068,0,0,9.565,65.48,1071.5573873082,20.013124,31,Sport,
23200,2025-03-09 05:55:16,0,0,20.341208,,,1071.8854713082,19.68504,0,0,0,18,2,16.265,1071.8854713082,20.341208,8.3214168,0,0,0,-0.894776,113.6, 3.7, -0.1,0,0,1024,1541,1024,1024,0,78,0,0,131.7,0,0,99,4.076,4.063,4.061,4.068,0,0,9.565,65.48,1071.8854713082,20.341208,31,Sport,
23400,2025-03-09 05:55:17,0,0,20.669292,,,1072.2135553082,20.013124,0.223694,0,0,18,2,16.348,1072.2135553082,20.669292,8.3214168,0,-0.223694,0,0,114.1, 2.6, 12.5,0,0,1024,1541,1024,1024,0,78,0,0,131.7,0,0,99,4.126,4.142,4.148,4.145,0,0,9.446,65.66,1072.2135553082,20.669292,31,Sport,
23600,2025-03-09 05:55:17,0,0,20.669292,,,1072.2135553082,20.013124,1.4987498,0,0,18,2,16.348,1072.2135553082,20.669292,8.3214168,0,-1.342164,-0.671082,0,113.3, 2.6, 26.9,0,0,1024,1421,1024,1024,0,60,0,0,131.7,0,0,99,4.126,4.142,4.148,4.145,0,0,9.446,65.66,1072.2135553082,20.669292,31,Sport,
24000,2025-03-09 05:55:17,0,0,20.341208,,,1071.8854713082,20.013124,6.1068462,0,0,18,2,16.348,1072.2135553082,20.669292,8.3214168,0,-5.59235,-2.460634,0,112.2, 4.3, 27.5,0,0,1024,1024,1024,1024,0,0,0,0,131.7,0,0,99,4.126,4.142,4.148,4.145,0,0,9.446,65.66,1071.8854713082,20.341208,31,Sport,
24200,2025-03-09 05:55:18,0,0,20.341208,,,1071.8854713082,20.013124,8.0977228,0,0,18,2,16.348,1072.2135553082,20.669292,8.3214168,0,-7.381902,-3.35541,0,112.1, 3.4, 20.1,0,0,1024,1024,1024,1024,0,0,0,0,131.7,0,0,99,4.126,4.142,4.148,4.145,0,0,9.446,65.66,1071.8854713082,20.341208,31,Sport,
24400,2025-03-09 05:55:18,0,0,20.341208,,,1071.8854713082,20.013124,8.4108944,0,0,18,2,16.348,1072.2135553082,20.669292,8.4108944,0,-7.605596,-3.579104,0,113.6, 1.9, -20.1,0,0,1024,1024,1024,1024,0,0,0,0,131.7,0,0,99,4.126,4.142,4.148,4.145,0,0,9.446,65.66,1071.8854713082,20.341208,31,Sport,
24600,2025-03-09 05:55:18,0,0,20.669292,,,1072.2135553082,20.013124,5.704197,0,0,18,2,16.35,1072.2135553082,20.669292,8.4108944,0,-5.144962,-2.460634,0,115.5, 1.9, -32.4,0,0,1024,1024,1024,1024,0,0,0,0,131.7,0,0,99,4.054,4.051,4.053,4.055,0,0,8.199,65.66,1072.2135553082,20.669292,31,Sport,
24800,2025-03-09 05:55:18,0,0,20.669292,,,1072.2135553082,19.68504,2.7066974,0,0,20,2,16.35,1072.2135553082,20.669292,8.4108944,0,-2.460634,-1.11847,0,116, 2.7, -27.1,0,0,1024,1024,1024,1024,0,0,0,0,131.7,0,0,99,4.054,4.051,4.053,4.055,0,0,8.199,65.66,1072.2135553082,20.669292,31,Sport,
25000,2025-03-09 05:55:18,0,0,20.669292,,,1072.2135553082,20.013124,1.006623,0,0,20,2,16.35,1072.2135553082,20.669292,8.4108944,0,-0.894776,-0.447388,0,115.4, 2.4, -11.9,0,0,1024,1024,1024,1024,0,0,0,0,131.7,0,0,99,4.054,4.051,4.053,4.055,0,0,8.199,65.66,1072.2135553082,20.669292,31,Sport,
25200,2025-03-09 05:55:19,0,0,20.669292,,,1072.2135553082,20.013124,0.3131716,0,0,20,2,16.35,1072.2135553082,20.669292,8.4108944,0,-0.223694,-0.223694,0,113.9, 0.8, -3.7,0,0,1024,1024,1024,1024,0,0,0,0,131.7,0,0,99,4.054,4.051,4.053,4.055,0,0,8.199,65.66,1072.2135553082,20.669292,31,Sport,
25400,2025-03-09 05:55:19,0,0,20.669292,,,1072.2135553082,20.013124,0.223694,0,0,20,2,16.35,1072.2135553082,20.669292,8.4108944,0,0,-0.223694,0,114.1, 0.7, -1.7,0,0,1024,1024,1024,1093,0,0,0,10,131.7,0,0,99,4.054,4.051,4.053,4.055,0,0,8.199,65.66,1072.2135553082,20.669292,31,Sport,
25600,2025-03-09 05:55:19,0,0,20.669292,,,1072.2135553082,20.013124,0,0,0,20,2,16.181,1072.2135553082,20.669292,8.4108944,0,0,0,0,114.2, 1.4, -2.1,0,0,1024,1024,1024,1354,0,0,0,50,131.9,0,0,99,4.068,4.064,4.069,4.071,0,0,10.647,65.84,1072.2135553082,20.669292,31,Sport,
25800,2025-03-09 05:55:19,0,0,20.669292,,,1072.2135553082,20.013124,0,0,0,20,2,16.181,1072.2135553082,20.669292,8.4108944,0,0,0,0,114.1, 1.3, -1.5,0,0,1024,1024,1024,1677,0,0,0,99,138.8,0,0,99,4.068,4.064,4.069,4.071,0,0,10.647,65.84,1072.2135553082,20.669292,31,Sport,
26000,2025-03-09 05:55:19,0,0,20.669292,,,1072.2135553082,20.013124,0,0,0,20,2,16.181,1072.2135553082,20.669292,8.4108944,0,0,0,0,122.8, 1.7, -0.6,0,0,1024,1024,1024,1684,0,0,0,100,157.4,0,0,99,4.068,4.064,4.069,4.071,0,0,10.647,65.84,1072.2135553082,20.669292,31,Sport,
26200,2025-03-09 05:55:20,0,0,20.669292,,,1072.2135553082,20.013124,0,0,0,20,2,16.181,1072.2135553082,20.669292,8.4108944,0,0,0,0,144.4, 1, 1.2,0,0,1024,1024,1024,1684,0,0,0,100,178.2,0,0,99,4.068,4.064,4.069,4.071,0,0,10.647,65.84,1072.2135553082,20.669292,31,Sport,
26400,2025-03-09 05:55:20,0,0,20.669292,,,1072.2135553082,20.013124,0,0,0,19,2,16.181,1072.2135553082,20.669292,8.4108944,0,0,0,0,164.9, 0.5, 1.8,0,0,1024,1024,1024,1678,0,0,0,99,199,0,0,99,4.068,4.064,4.069,4.071,0,0,10.647,65.84,1072.2135553082,20.669292,31,Sport,
26600,2025-03-09 05:55:20,0,0,20.669292,,,1072.2135553082,20.013124,0,0,0,20,2,16.322,1072.2135553082,20.669292,8.4108944,0,0,0,0,185.9, -0.3, 1.4,0,0,1024,1024,1024,1450,0,0,0,65,218.7,0,0,99,4.078,4.072,4.074,4.076,0,0,9.195,65.84,1072.2135553082,20.669292,31,Sport,
26800,2025-03-09 05:55:20,0,0,20.669292,,,1072.2135553082,20.013124,0,0,0,21,2,16.322,1072.2135553082,20.669292,8.4108944,0,0,0,0,204.1, -0.4, 1.4,0,0,1024,1024,1024,1024,0,0,0,0,228.1,0,0,99,4.078,4.072,4.074,4.076,0,0,9.195,65.84,1072.2135553082,20.669292,31,Sport,
27000,2025-03-09 05:55:20,0,0,20.669292,,,1072.2135553082,20.013124,0,0,0,20,2,16.322,1072.2135553082,20.669292,8.4108944,0,0,0,0,211, -1.2, 1.9,0,0,1024,1024,1024,1196,0,0,0,26,228.1,0,0,99,4.078,4.072,4.074,4.076,0,0,9.195,65.84,1072.2135553082,20.669292,31,Sport,
27200,2025-03-09 05:55:21,0,0,20.341208,,,1071.8854713082,20.013124,0,0,0,20,2,16.322,1072.2135553082,20.669292,8.4108944,0,0,0,0,209.7, -2, 2.8,0,0,1024,1024,1024,1620,0,0,0,90,231.7,0,0,99,4.078,4.072,4.074,4.076,0,0,9.195,65.84,1071.8854713082,20.341208,31,Sport,
27400,2025-03-09 05:55:21,0,0,20.341208,,,1071.8854713082,20.013124,0,0,0,20,2,16.322,1072.2135553082,20.669292,8.4108944,0,0,0,0,215.2, -1.1, 2.2,0,0,1024,1024,1024,958,0,0,0,-10,247.1,0,0,99,4.078,4.072,4.074,4.076,0,0,9.195,65.84,1071.8854713082,20.341208,31,Sport,
27600,2025-03-09 05:55:21,0,0,20.341208,,,1071.8854713082,20.013124,0,0,0,18,2,16.313,1072.2135553082,20.669292,8.4108944,0,0,0,0,233.5, 0.8, 1.7,0,0,1024,1024,1024,1024,0,0,0,0,254.7,0,0,99,4.087,4.081,4.081,4.083,0,0,8.922,66.02,1071.8854713082,20.341208,31,Sport,
27800,2025-03-09 05:55:21,0,0,20.341208,,,1071.8854713082,20.013124,0,0,0,19,2,16.313,1072.2135553082,20.669292,8.4108944,0,0,0,0,237.7, 0.3, 0.7,0,0,1024,1024,1024,1253,0,0,0,35,254.7,0,0,99,4.087,4.081,4.081,4.083,0,0,8.922,66.02,1071.8854713082,20.341208,31,Sport,
28000,2025-03-09 05:55:21,0,0,20.341208,,,1071.8854713082,20.013124,0,0,0,17,2,16.313,1072.2135553082,20.669292,8.4108944,0,0,0,0,236.3, 0.9, -0.6,0,0,1024,1024,1024,1652,0,0,0,95,265.2,0,0,99,4.087,4.081,4.081,4.083,0,0,8.922,66.02,1071.8854713082,20.341208,31,Sport,
28200,2025-03-09 05:55:22,0,0,20.341208,,,1071.8854713082,20.013124,0,0,0,17,2,16.313,1072.2135553082,20.669292,8.4108944,0,0,0,0,250.5, 0.9, 0.4,0,0,1024,1024,1024,1024,0,0,0,0,285.3,0,0,99,4.087,4.081,4.081,4.083,0,0,8.922,66.02,1071.8854713082,20.341208,31,Sport,
28400,2025-03-09 05:55:22,0,0,20.341208,,,1071.8854713082,20.013124,0,0,0,18,2,16.313,1072.2135553082,20.669292,8.4108944,0,0,0,0,271, 0.2, 2.3,0,0,1024,1024,1024,1024,0,0,0,0,286.6,0,0,99,4.087,4.081,4.081,4.083,0,0,8.922,66.02,1071.8854713082,20.341208,31,Sport,
28600,2025-03-09 05:55:22,0,0,20.341208,,,1071.8854713082,20.013124,0,0,0,16,2,16.327,1072.2135553082,20.669292,8.4108944,0,0,0,0,268.4, 0, 0.2,0,0,1024,1024,1024,1024,0,0,0,0,286.6,0,0,99,4.085,4.081,4.084,4.08,0,0,8.579,66.02,1071.8854713082,20.341208,31,Sport,
28800,2025-03-09 05:55:22,0,0,20.341208,,,1071.8854713082,20.013124,0,0,0,16,2,16.327,1072.2135553082,20.669292,8.4108944,0,0,0,0,268.8, -0.3, -0.8,0,0,1024,1024,1024,1024,0,0,0,0,286.6,0,0,99,4.085,4.081,4.084,4.08,0,0,8.579,66.02,1071.8854713082,20.341208,31,Sport,
29000,2025-03-09 05:55:22,0,0,20.341208,,,1071.8854713082,20.013124,0,0,0,15,2,16.327,1072.2135553082,20.669292,8.4108944,0,0,0,0,268.9, -0.1, -0.5,0,0,1024,1024,1024,1025,0,0,0,0,286.6,0,0,99,4.085,4.081,4.084,4.08,0,0,8.579,66.02,1071.8854713082,20.341208,31,Sport,
29200,2025-03-09 05:55:23,0,0,20.341208,,,1071.8854713082,20.013124,0,0,0,15,2,16.327,1072.2135553082,20.669292,8.4108944,0,0,0,0,269, -0.9, 0.3,0,0,1024,1024,1024,1181,0,0,0,24,286.7,0,0,99,4.085,4.081,4.084,4.08,0,0,8.579,66.02,1071.8854713082,20.341208,31,Sport,
29400,2025-03-09 05:55:23,0,0,20.341208,,,1071.8854713082,20.013124,0,0,0,15,2,16.327,1072.2135553082,20.669292,8.4108944,0,0,0,0,269, -0.9, 1,0,0,1024,1024,1024,1024,0,0,0,0,288.6,0,0,99,4.085,4.081,4.084,4.08,0,0,8.579,66.02,1071.8854713082,20.341208,31,Sport,
29800,2025-03-09 05:55:23,0,0,20.341208,,,1071.8854713082,20.013124,0,0,0,15,2,16.327,1072.2135553082,20.669292,8.4108944,0,0,0,0,273, 0, 0.9,0,0,1024,1024,1024,1024,0,0,0,0,290.7,0,0,99,4.085,4.081,4.084,4.08,0,0,8.579,66.02,1071.8854713082,20.341208,31,Sport,
30000,2025-03-09 05:55:23,0,0,20.341208,,,1071.8854713082,20.341208,0,0,0,16,2,16.327,1072.2135553082,20.669292,8.4108944,0,0,0,0,272.6, 0.1, -0.8,0,0,1024,1024,1024,1456,0,0,0,65,290.7,0,0,99,4.085,4.081,4.084,4.08,0,0,8.579,66.02,1071.8854713082,20.341208,31,Sport,
30200,2025-03-09 05:55:24,0,0,20.341208,,,1071.8854713082,20.341208,0,0,0,15,2,16.327,1072.2135553082,20.669292,8.4108944,0,0,0,0,272.8, 0.2, -0.9,0,0,1024,1024,1024,1465,0,0,0,67,296.3,0,0,99,4.085,4.081,4.084,4.08,0,0,8.579,66.02,1071.8854713082,20.341208,31,Sport,
30400,2025-03-09 05:55:24,0,0,20.341208,,,1071.8854713082,20.013124,0,0,0,15,2,16.352,1072.2135553082,20.669292,8.4108944,0,0,0,0,279.9, 0, -0.4,0,0,1024,1024,1024,1024,0,0,0,0,300.6,0,0,98,4.091,4.084,4.086,4.087,0,0,8.234,66.2,1071.8854713082,20.341208,31,Sport,
30600,2025-03-09 05:55:24,0,0,20.341208,,,1071.8854713082,20.013124,0,0,0,15,2,16.352,1072.2135553082,20.669292,8.4108944,0,0,0,0,283.2, 0.2, -0.4,0,0,1024,1024,1024,1024,0,0,0,0,300.6,0,0,98,4.091,4.084,4.086,4.087,0,0,8.234,66.2,1071.8854713082,20.341208,31,Sport,
30800,2025-03-09 05:55:24,0,0,20.341208,,,1071.8854713082,20.013124,0,0,0,15,2,16.352,1072.2135553082,20.669292,8.4108944,0,0,0,0,282.5, -0.3, -1.3,0,0,1024,1024,1024,1024,0,0,0,0,300.6,0,0,98,4.091,4.084,4.086,4.087,0,0,8.234,66.2,1071.8854713082,20.341208,31,Sport,
31000,2025-03-09 05:55:24,0,0,20.341208,,,1071.8854713082,20.013124,0,0,0,15,2,16.352,1072.2135553082,20.669292,8.4108944,0,0,0,0,282.7, -0.2, -1,0,0,1024,1024,1024,1268,0,0,0,37,300.6,0,0,98,4.091,4.084,4.086,4.087,0,0,8.234,66.2,1071.8854713082,20.341208,31,Sport,
31200,2025-03-09 05:55:25,0,0,20.341208,,,1071.8854713082,20.013124,0,0,0,14,2,16.352,1072.2135553082,20.669292,8.4108944,0,0,0,0,282.6, -0.2, -0.7,0,0,1024,1024,1024,1024,0,0,0,0,301.7,0,0,98,4.091,4.084,4.086,4.087,0,0,8.234,66.2,1071.8854713082,20.341208,31,Sport,
31400,2025-03-09 05:55:25,0,0,20.341208,,,1071.8854713082,20.341208,0,0,0,15,2,16.329,1072.2135553082,20.669292,8.4108944,0,0,0,0,283.9, -0.2, -0.9,0,0,1024,1024,1024,1024,0,0,0,0,301.8,0,0,98,4.089,4.084,4.086,4.086,0,0,8.328,66.38,1071.8854713082,20.341208,31,Sport,
31600,2025-03-09 05:55:25,0,0,20.341208,,,1071.8854713082,20.013124,0.223694,0,0,17,2,16.329,1072.2135553082,20.669292,8.4108944,0,-0.223694,0,0,284, -0.6, 0,0,0,1024,1024,1024,1024,0,0,0,0,301.8,0,0,98,4.089,4.084,4.086,4.086,0,0,8.328,66.38,1071.8854713082,20.341208,31,Sport,
31800,2025-03-09 05:55:25,0,0,20.341208,,,1071.8854713082,20.013124,0.223694,0,0,16,2,16.329,1072.2135553082,20.669292,8.4108944,0,-0.223694,0,0,284.2, 0, 1.2,0,0,1024,1024,1024,1024,0,0,0,0,301.8,0,0,98,4.089,4.084,4.086,4.086,0,0,8.328,66.38,1071.8854713082,20.341208,31,Sport,
32200,2025-03-09 05:55:25,0,0,20.341208,,,1071.8854713082,20.341208,0,0,0,15,2,16.329,1072.2135553082,20.669292,8.4108944,0,0,0,0,284.5, 0, 3.1,0,0,1024,1024,1024,1024,0,0,0,0,301.8,0,0,98,4.089,4.084,4.086,4.086,0,0,8.328,66.38,1071.8854713082,20.341208,31,Sport,
32400,2025-03-09 05:55:26,0,0,20.341208,,,1071.8854713082,20.341208,0,0,0,16,2,16.329,1072.2135553082,20.669292,8.4108944,0,0,0,0,284.5, -0.4, 2,0,0,1024,1024,1024,1024,0,0,0,0,301.8,0,0,98,4.089,4.084,4.086,4.086,0,0,8.328,66.38,1071.8854713082,20.341208,31,Sport,
32600,2025-03-09 05:55:26,0,0,20.341208,,,1071.8854713082,20.341208,0,0,0,17,2,16.337,1072.2135553082,20.669292,8.4108944,0,0,0,0,284.5, -0.9, 1.2,0,0,1024,1024,1024,1024,0,0,0,0,301.8,0,0,98,4.092,4.087,4.089,4.09,0,0,8.302,66.38,1071.8854713082,20.341208,6,P-GPS,
32800,2025-03-09 05:55:26,0,0,20.341208,,,1071.8854713082,20.341208,0,0,0,17,2,16.337,1072.2135553082,20.669292,8.4108944,0,0,0,0,284.3, -0.4, 0,0,0,1024,1024,1024,1024,0,0,0,0,301.8,0,0,98,4.092,4.087,4.089,4.09,0,0,8.302,66.38,1071.8854713082,20.341208,6,P-GPS,
33200,2025-03-09 05:55:27,37.0151859385646,140.149102128513,20.341208,,,1071.8854713082,20.341208,0,0,0,17,2,16.337,1072.2135553082,20.669292,8.4108944,0,0,0,0,284, 0, 0,0,0,1024,1024,1024,1024,0,0,0,0,301.8,0,0,98,4.092,4.087,4.089,4.09,0,0,8.302,66.38,1071.8854713082,20.341208,6,P-GPS,
33400,2025-03-09 05:55:27,37.015186003413,140.14910216174,20.341208,,,1071.8854713082,20.341208,0,0.0255634194532,0.0255634194532,17,2,16.337,1072.2135553082,20.669292,8.4108944,0.0255634194532,0,0,0,284, -0.5, 0.3,0,0,1024,1024,1024,1024,0,0,0,0,301.8,0,0,98,4.092,4.087,4.089,4.09,0,0,8.302,66.38,1071.8854713082,20.341208,6,P-GPS,
33600,2025-03-09 05:55:27,37.0151860681008,140.149102186181,20.341208,,,1071.8854713082,20.341208,0,0.050158466172,0.050215224704,17,2,16.337,1072.2135553082,20.669292,8.4108944,0.050158466172,0,0,0,283.9, -0.7, 0,0,0,1024,1024,1024,1024,0,0,0,0,301.8,0,0,98,4.092,4.087,4.089,4.09,0,0,8.302,66.38,1071.8854713082,20.341208,6,P-GPS,
33800,2025-03-09 05:55:27,37.0151861335946,140.149102187151,20.341208,,,1071.8854713082,20.341208,0,0.073178480032,0.07411253518,17,2,16.337,1072.2135553082,20.669292,8.4108944,0.073178480032,0,0,0,283.8, -0.4, 0,0,0,1024,1024,1024,1024,0,0,0,0,301.8,0,0,98,4.092,4.087,4.089,4.09,0,0,8.302,66.38,1071.8854713082,20.341208,6,P-GPS,"GNSSがありません。慎重に飛行してください GNSS信号が微弱です。ホバリングが不安定です。慎重に飛行してください (Code: 30002)"
34000,2025-03-09 05:55:28,37.0151861845069,140.149102174262,20.341208,,,1071.8854713082,20.341208,0,0.090716210252,0.093063323188,17,5,16.337,1072.2135553082,20.669292,8.4108944,0.090716210252,0,0,0,283.8, -0.5, 0.9,0,0,1024,1024,1024,1024,0,0,0,0,301.8,0,0,98,4.092,4.087,4.089,4.09,0,0,8.302,66.38,1071.8854713082,20.341208,6,P-GPS,
34200,2025-03-09 05:55:28,37.0151862664143,140.149102161322,20.341208,,,1071.8854713082,20.341208,0,0.119997051084,0.12318405906,16,5,16.337,1072.2135553082,20.669292,8.4108944,0.119997051084,0,0,0,283.8, -0.4, 1.3,0,0,1024,1024,1024,1024,0,0,0,0,301.8,0,0,98,4.092,4.087,4.089,4.09,0,0,8.302,66.38,1071.8854713082,20.341208,6,P-GPS,"Setting new Maximum Flight Altitude to 150m (492 ft)"
34400,2025-03-09 05:55:28,37.0151863984841,140.149102165159,20.341208,,,1071.8854713082,20.341208,0,0.168140753412,0.171382551416,18,5,16.35,1072.2135553082,20.669292,8.4108944,0.168140753412,0,0,0,283.9, -0.3, 0.6,0,0,1024,1024,1024,1024,0,0,0,0,301.8,0,0,98,4.089,4.084,4.085,4.087,0,0,8.101,66.56,1071.8854713082,20.341208,6,P-GPS,
34600,2025-03-09 05:55:28,37.0151865245208,140.149102169766,20.341208,,,1071.8854713082,20.341208,0,0.214123366432,0.21738681798,17,5,16.35,1072.2135553082,20.669292,8.4108944,0.214123366432,0,0,0,283.8, -0.3, 1.2,0,0,1024,1024,1024,1024,0,0,0,0,301.8,0,0,98,4.089,4.084,4.085,4.087,0,0,8.101,66.56,1071.8854713082,20.341208,6,P-GPS,
34800,2025-03-09 05:55:28,37.0151867077359,140.14910218971,20.341208,,,1071.8854713082,20.013124,0,0.28119751556,0.284484589156,18,5,16.35,1072.2135553082,20.669292,8.4108944,0.28119751556,0,0,0,283.8, -0.1, 2.1,0,0,1024,1024,1024,1024,0,0,0,0,301.8,0,0,98,4.089,4.084,4.085,4.087,0,0,8.101,66.56,1071.8854713082,20.341208,6,P-GPS,
35000,2025-03-09 05:55:28,37.0151869653266,140.149102257097,20.341208,,,1071.8854713082,20.013124,0,0.37648295168,0.380495419,18,5,16.35,1072.2135553082,20.669292,8.4108944,0.37648295168,0,0,0,284, 0, 1.5,0,0,1024,1024,1024,1024,0,0,0,0,301.8,0,0,98,4.089,4.084,4.085,4.087,0,0,8.101,66.56,1071.8854713082,20.341208,6,P-GPS,
35200,2025-03-09 05:55:29,37.0151872723789,140.149102367139,20.341208,,,1071.8854713082,20.341208,0,0.49158138056,0.49701773244,18,5,16.35,1072.2135553082,20.669292,8.4108944,0.49158138056,0,0,0,284.1, 0.2, -0.1,0,0,1024,1024,1024,1024,0,0,0,0,301.8,0,0,98,4.089,4.084,4.085,4.087,0,0,8.101,66.56,1071.8854713082,20.341208,6,P-GPS,
35400,2025-03-09 05:55:29,37.0151874966962,140.149102507251,20.341208,,,1071.8854713082,20.341208,0,0.57909122588,0.58847442828,18,5,16.35,1072.2135553082,20.669292,8.4108944,0.57909122588,0,0,0,284, -0.1, 0,0,0,1024,1024,1024,1024,0,0,0,0,301.8,0,0,98,4.089,4.084,4.085,4.087,0,0,8.101,66.56,1071.8854713082,20.341208,6,P-GPS,
35600,2025-03-09 05:55:29,37.0151876439523,140.149102630252,20.341208,,,1071.8854713082,20.341208,0,0.63914700208,0.65305448284,18,5,16.329,1072.2135553082,20.669292,8.4108944,0.63914700208,0,0,0,284.1, -0.4, 0.7,0,0,1024,1024,1024,1024,0,0,0,0,301.8,0,0,98,4.088,4.082,4.085,4.084,0,0,8.246,66.56,1071.8854713082,20.341208,6,P-GPS,
35800,2025-03-09 05:55:29,37.0151877601045,140.149102737464,20.341208,,,1071.8854713082,20.013124,0,0.68785763356,0.70569884148,18,5,16.329,1072.2135553082,20.669292,8.4108944,0.68785763356,0,0,0,284.2, -1.1, 1,0,0,1024,1024,1024,1024,0,0,0,0,301.8,0,0,98,4.088,4.082,4.085,4.084,0,0,8.246,66.56,1071.8854713082,20.341208,6,P-GPS,
36000,2025-03-09 05:55:29,37.0151879060963,140.149102818193,20.669292,,,1072.2135553082,20.013124,0,0.7454396564,0.76392390896,18,5,16.329,1072.2135553082,20.669292,8.4108944,0.7454396564,0,0,0,284.1, -0.6, 0.2,0,0,1024,1024,1024,1024,0,0,0,0,301.8,0,0,98,4.088,4.082,4.085,4.084,0,0,8.246,66.56,1072.2135553082,20.669292,6,P-GPS,
36200,2025-03-09 05:55:30,37.015188057122,140.14910285659,20.669292,,,1072.2135553082,20.013124,0,0.80152889704,0.82015094488,18,5,16.329,1072.2135553082,20.669292,8.4108944,0.80152889704,0,0,0,283.9, -0.8, -0.2,0,0,1024,1024,1024,1024,0,0,0,0,301.8,0,0,98,4.088,4.082,4.085,4.084,0,0,8.246,66.56,1072.2135553082,20.669292,6,P-GPS,
36400,2025-03-09 05:55:30,37.0151881661635,140.149102864781,20.669292,,,1072.2135553082,20.013124,0,0.84056433136,0.8600065892,18,5,16.329,1072.2135553082,20.669292,8.4108944,0.84056433136,0,0,0,283.9, -0.6, 0.1,0,0,1024,1024,1024,1024,0,0,0,0,301.8,0,0,98,4.088,4.082,4.085,4.084,0,0,8.246,66.56,1072.2135553082,20.669292,6,P-GPS,
36600,2025-03-09 05:55:30,37.0151882774365,140.149102885885,20.669292,,,1072.2135553082,20.013124,0,0.881397666,0.9010663018,18,5,16.329,1072.2135553082,20.669292,8.4108944,0.881397666,0,0,0,283.6, -1.1, 0.1,0,0,1024,1024,1024,1024,0,0,0,0,301.8,0,0,98,4.088,4.082,4.085,4.084,0,0,8.246,66.56,1072.2135553082,20.669292,6,P-GPS,"ホームポイントを更新 (Code: 3000001)"
36800,2025-03-09 05:55:30,37.0151883921102,140.149102898571,20.669292,,,1072.2135553082,20.013124,0,0.92285764108,0.94306761548,17,5,16.329,1072.2135553082,20.669292,8.4108944,0.92285764108,0,0,0,283.5, -1.3, -0.9,0,0,1024,1024,1024,1024,0,0,0,0,301.8,0,0,98,4.088,4.082,4.085,4.084,0,0,8.246,66.56,1072.2135553082,20.669292,6,P-GPS,
37000,2025-03-09 05:55:30,37.0151885026184,140.149102870138,20.669292,,,1072.2135553082,20.013124,0,0.96011814096,0.98422903412,16,5,16.329,1072.2135553082,20.669292,8.4108944,0.96011814096,0,0,0,283.4, -0.8, -1.5,0,0,1024,1024,1024,1024,0,0,0,0,301.8,0,0,98,4.088,4.082,4.085,4.084,0,0,8.246,66.56,1072.2135553082,20.669292,6,P-GPS,飛行中
37200,2025-03-09 05:55:31,37.0151885383718,140.149102825931,20.669292,,,1072.2135553082,20.013124,0,0.97005252448,1.0025590872,16,5,16.311,1072.2135553082,20.669292,8.4108944,0.97005252448,0,0,0,283.7, -0.9, -0.8,0,0,1024,1024,1024,1024,0,0,0,0,301.8,0,0,98,4.086,4.082,4.083,4.083,0,0,8.493,66.74,1072.2135553082,20.669292,6,P-GPS,
37400,2025-03-09 05:55:31,37.0151885622167,140.149102770574,20.669292,,,1072.2135553082,20.013124,0,0.97534123856,1.0208825786,16,5,16.311,1072.2135553082,20.669292,8.4108944,0.97534123856,0,0,0,283.6, -0.7, -0.8,0,0,1024,1024,1024,1024,0,0,0,0,301.8,0,0,98,4.086,4.082,4.083,4.083,0,0,8.493,66.74,1072.2135553082,20.669292,6,P-GPS,
37600,2025-03-09 05:55:31,37.0151885417923,140.149102733181,20.669292,,,1072.2135553082,20.013124,0,0.96598428288,1.03408139792,16,5,16.311,1072.2135553082,20.669292,8.4108944,0.97534123856,0,0,0,283.6, -0.1, -1,0,0,1024,1024,1024,1024,0,0,0,0,301.8,0,0,98,4.086,4.082,4.083,4.083,0,0,8.493,66.74,1072.2135553082,20.669292,6,P-GPS,
37800,2025-03-09 05:55:31,37.0151884839574,140.149102725754,20.669292,,,1072.2135553082,20.341208,0,0.94484254992,1.05529530936,15,5,16.311,1072.2135553082,20.669292,8.4108944,0.97534123856,0,0,0,283.7, -0.3, -0.6,0,0,1024,1024,1024,1024,0,0,0,0,301.8,0,0,98,4.086,4.082,4.083,4.083,0,0,8.493,66.74,1072.2135553082,20.669292,6,P-GPS,
38000,2025-03-09 05:55:31,37.0151884059221,140.149102729116,20.669292,,,1072.2135553082,20.013124,0,0.9170603968,1.08378284308,15,5,16.311,1072.2135553082,20.669292,8.4108944,0.97534123856,0,0,0,283.7, -0.3, 0,0,0,1024,1024,1024,1024,0,0,0,0,301.8,0,0,98,4.086,4.082,4.083,4.083,0,0,8.493,66.74,1072.2135553082,20.669292,6,P-GPS,
38200,2025-03-09 05:55:32,37.0151883337798,140.149102731706,20.669292,,,1072.2135553082,20.013124,0,0.89138454296,1.11011486492,15,5,16.311,1072.2135553082,20.669292,8.4108944,0.97534123856,0,0,0,283.8, -0.6, 0.1,0,0,1024,1024,1024,1024,0,0,0,0,301.8,0,0,98,4.086,4.082,4.083,4.083,0,0,8.493,66.74,1072.2135553082,20.669292,6,P-GPS,
38400,2025-03-09 05:55:32,37.0151883697977,140.149102752634,20.669292,,,1072.2135553082,20.013124,0,0.90547575076,1.12459977352,14,5,16.333,1072.2135553082,20.669292,8.4108944,0.97534123856,0,0,0,283.7, -0.7, -0.3,0,0,1024,1024,1024,1024,0,0,0,0,301.8,0,0,98,4.089,4.083,4.084,4.084,0,0,8.112,66.74,1072.2135553082,20.669292,6,P-GPS,
38600,2025-03-09 05:55:32,37.0151884420283,140.149102796647,20.669292,,,1072.2135553082,20.013124,0,0.93389766768,1.15390751724,15,5,16.333,1072.2135553082,20.669292,8.4108944,0.97534123856,0,0,0,283.5, -0.4, -0.7,0,0,1024,1024,1024,1024,0,0,0,0,301.8,0,0,98,4.089,4.083,4.084,4.084,0,0,8.112,66.74,1072.2135553082,20.669292,6,P-GPS,
38800,2025-03-09 05:55:32,37.0151885201335,140.149102827891,20.669292,,,1072.2135553082,20.341208,0,0.96366800984,1.18382221636,16,5,16.333,1072.2135553082,20.669292,8.4108944,0.97534123856,0,0,0,283.7, -0.4, -1.3,0,0,1024,1024,1024,1024,0,0,0,0,301.8,0,0,98,4.089,4.083,4.084,4.084,0,0,8.112,66.74,1072.2135553082,20.669292,6,P-GPS,
39000,2025-03-09 05:55:32,37.0151885722366,140.149102854185,20.997376,,,1072.5416393082,20.013124,0,0.9838747034,1.20431762384,15,5,16.333,1072.5416393082,20.997376,8.4108944,0.9838747034,0,0,0,283.7, -0.8, -1.2,0,0,1024,1024,1024,1024,0,0,0,0,301.8,0,0,98,4.089,4.083,4.084,4.084,0,0,8.112,66.74,1072.5416393082,20.997376,6,P-GPS,
39200,2025-03-09 05:55:33,37.0151886099739,140.149102871494,20.997376,,,1072.5416393082,20.013124,0,0.99840554376,1.2189796978,15,5,16.333,1072.5416393082,20.997376,8.4108944,0.99840554376,0,0,0,283.8, 0, -0.7,0,0,1024,1024,1024,1024,0,0,0,0,301.8,0,0,98,4.089,4.083,4.084,4.084,0,0,8.112,66.74,1072.5416393082,20.997376,6,P-GPS,
39600,2025-03-09 05:55:33,37.015188868895,140.149102945234,20.997376,,,1072.5416393082,20.013124,0,1.09528546812,1.31585962216,15,5,16.333,1072.5416393082,20.997376,8.4108944,1.09528546812,0,0,0,283.7, -0.3, -1.1,0,0,1024,1024,1024,1024,0,0,0,0,301.8,0,0,98,4.089,4.083,4.084,4.084,0,0,8.112,66.74,1072.5416393082,20.997376,6,P-GPS,
39800,2025-03-09 05:55:33,37.0151890554358,140.149102994726,20.997376,,,1072.5416393082,20.013124,0,1.16485239948,1.38542983436,15,5,16.333,1072.5416393082,20.997376,8.4108944,1.16485239948,0,0,0,283.3, -0.1, -1.2,0,0,1024,1024,1024,1024,0,0,0,0,301.8,0,0,98,4.089,4.083,4.084,4.084,0,0,8.112,66.74,1072.5416393082,20.997376,6,P-GPS,
40000,2025-03-09 05:55:33,37.0151892699664,140.14910307527,20.997376,,,1072.5416393082,20.013124,0,1.24636158844,1.4671424354,16,5,16.333,1072.5416393082,20.997376,8.4108944,1.24636158844,0,0,0,283.5, -0.4, -2,0,0,1024,1024,1024,1024,0,0,0,0,301.8,0,0,98,4.089,4.083,4.084,4.084,0,0,8.112,66.74,1072.5416393082,20.997376,6,P-GPS,
40200,2025-03-09 05:55:33,37.0151894376418,140.149103159102,20.997376,,,1072.5416393082,20.013124,0,1.3114665774,1.53301186008,16,5,16.333,1072.5416393082,20.997376,8.4108944,1.3114665774,0,0,0,283.5, -0.3, -1.7,0,0,1024,1024,1024,1024,0,0,0,0,301.8,0,0,98,4.089,4.083,4.084,4.084,0,0,8.112,66.74,1072.5416393082,20.997376,6,P-GPS,
40400,2025-03-09 05:55:34,37.0151896004979,140.149103249903,20.997376,,,1072.5416393082,20.013124,0,1.37541342984,1.59805451308,16,5,16.328,1072.5416393082,20.997376,8.4108944,1.37541342984,0,0,0,283.5, -0.3, -1.2,0,0,1024,1024,1024,1024,0,0,0,0,301.8,0,0,98,4.087,4.081,4.083,4.084,0,0,8.237,66.92,1072.5416393082,20.997376,6,P-GPS,
40600,2025-03-09 05:55:34,37.0151897679902,140.149103373558,20.997376,,,1072.5416393082,20.013124,0,1.44347773648,1.66898955472,16,5,16.328,1072.5416393082,20.997376,8.4108944,1.44347773648,0,0,0,283.5, -0.5, -1.5,0,0,1024,1024,1024,1024,0,0,0,0,301.8,0,0,98,4.087,4.081,4.083,4.084,0,0,8.237,66.92,1072.5416393082,20.997376,6,P-GPS,
40800,2025-03-09 05:55:34,37.015189928019,140.149103494817,20.997376,,,1072.5416393082,20.013124,0,1.50899283044,1.73723102672,16,5,16.328,1072.5416393082,20.997376,8.4108944,1.50899283044,0,0,0,283.5, -0.6, -1,0,0,1024,1024,1024,1024,0,0,0,0,301.8,0,0,98,4.087,4.081,4.083,4.084,0,0,8.237,66.92,1072.5416393082,20.997376,6,P-GPS,
41000,2025-03-09 05:55:34,37.0151900998054,140.149103631313,20.997376,,,1072.5416393082,20.013124,0,1.58008863324,1.81145675088,16,5,16.328,1072.5416393082,20.997376,8.4108944,1.58008863324,0,0,0,283.6, -0.5, -0.5,0,0,1024,1024,1024,1024,0,0,0,0,301.8,0,0,98,4.087,4.081,4.083,4.084,0,0,8.237,66.92,1072.5416393082,20.997376,6,P-GPS,
41200,2025-03-09 05:55:35,37.015190293643,140.14910377612,20.997376,,,1072.5416393082,20.013124,0,1.65986225784,1.89380583488,16,5,16.328,1072.5416393082,20.997376,8.4108944,1.65986225784,0,0,0,283.7, -0.5, -0.7,0,0,1024,1024,1024,1024,0,0,0,0,301.8,0,0,98,4.087,4.081,4.083,4.084,0,0,8.237,66.92,1072.5416393082,20.997376,6,P-GPS,
41400,2025-03-09 05:55:35,37.0151904935489,140.149103886996,20.997376,,,1072.5416393082,20.013124,0,1.73904861208,1.9735728978,16,5,16.334,1072.5416393082,20.997376,8.4108944,1.73904861208,0,0,0,283.9, -0.5, -0.5,0,0,1024,1024,1024,1024,0,0,0,0,301.8,0,0,98,4.084,4.078,4.081,4.08,0,0,8.079,66.92,1072.5416393082,20.997376,6,P-GPS,
41600,2025-03-09 05:55:35,37.0151906884637,140.149104027645,20.997376,,,1072.5416393082,20.013124,0,1.81917000572,2.05564639124,17,5,16.334,1072.5416393082,20.997376,8.4108944,1.81917000572,0,0,0,284.2, -0.6, 0,0,0,1024,1024,1024,1024,0,0,0,0,301.8,0,0,98,4.084,4.078,4.081,4.08,0,0,8.079,66.92,1072.5416393082,20.997376,6,P-GPS,
41800,2025-03-09 05:55:35,37.0151909352991,140.149104184772,20.997376,,,1072.5416393082,20.013124,0,1.91895347348,2.15667001652,17,5,16.334,1072.5416393082,20.997376,8.4108944,1.91895347348,0,0,0,284.2, -0.4, -1.2,0,0,1024,1024,1024,1024,0,0,0,0,301.8,0,0,98,4.084,4.078,4.081,4.08,0,0,8.079,66.92,1072.5416393082,20.997376,6,P-GPS,
42000,2025-03-09 05:55:35,37.0151911873445,140.149104363542,20.997376,,,1072.5416393082,20.013124,0,2.02268051092,2.2623524346,17,5,16.334,1072.5416393082,20.997376,8.4108944,2.02268051092,0,0,0,284.1, -0.5, -1.8,0,0,1024,1024,1024,1024,0,0,0,0,301.8,0,0,98,4.084,4.078,4.081,4.08,0,0,8.079,66.92,1072.5416393082,20.997376,6,P-GPS,
