time(millisecond),datetime(utc),latitude,longitude,height_above_takeoff(feet),height_above_ground_at_drone_location(feet),ground_elevation_at_drone_location(feet),altitude_above_seaLevel(feet),height_sonar(feet),speed(mph),distance(feet),mileage(feet),satellites,gpslevel,voltage(v),max_altitude(feet),max_ascent(feet),max_speed(mph),max_distance(feet), xSpeed(mph), ySpeed(mph), zSpeed(mph), compass_heading(degrees), pitch(degrees), roll(degrees),isPhoto,isVideo,rc_elevator,rc_aileron,rc_throttle,rc_rudder,rc_elevator(percent),rc_aileron(percent),rc_throttle(percent),rc_rudder(percent),gimbal_heading(degrees),gimbal_pitch(degrees),gimbal_roll(degrees),battery_percent,voltageCell1,voltageCell2,voltageCell3,voltageCell4,voltageCell5,voltageCell6,current(A),battery_temperature(f),altitude(feet),ascent(feet),flycStateRaw,flycState,message
0,2025-01-25 04:05:13,0,0,0,Available with any HD 360 subscription,Available with any HD 360 subscription,1056.4223700916,0,0,0,0,15,2,0,1056.4223700916,0,0,0,0,0,0,302.3, -0.6, 1.6,0,0,1024,1024,1024,1024,0,0,0,0,304.2,0,0,96,3.947,3.923,3.911,0,0,0,0,57.92,1056.4223700916,0,41,Motors_Started,
100,2025-01-25 04:05:13,0,0,0,,,1056.4223700916,0,0,0,0,15,2,0,1056.4223700916,0,0,0,0,0,0,302.3, -0.6, 1.6,0,0,1024,1024,1024,1024,0,0,0,0,304.2,0,0,96,3.947,3.923,3.911,0,0,0,0,57.92,1056.4223700916,0,41,Motors_Started,飛行中
200,2025-01-25 04:05:14,0,0,0,,,1056.4223700916,0,0,0,0,15,2,0,1056.4223700916,0,0,0,0,0,0,302.3, -0.6, 1.6,0,0,1024,1024,1024,1024,0,0,0,0,304.2,0,0,96,3.947,3.923,3.911,0,0,0,0,57.92,1056.4223700916,0,41,Motors_Started,
300,2025-01-25 04:05:14,0,0,0,,,1056.4223700916,0,0,0,0,15,2,0,1056.4223700916,0,0,0,0,0,0,302.3, -0.6, 1.6,0,0,1024,1024,1024,1024,0,0,0,0,304.2,0,0,96,3.947,3.923,3.911,0,0,0,0,57.92,1056.4223700916,0,41,Motors_Started,
400,2025-01-25 04:05:14,0,0,0,,,1056.4223700916,0,0,0,0,15,2,0,1056.4223700916,0,0,0,0,0,0,302.3, -0.6, 1.6,0,0,1024,1024,1024,1024,0,0,0,0,304.2,0,0,96,3.947,3.923,3.911,0,0,0,0,57.92,1056.4223700916,0,41,Motors_Started,"Setting new Return-To-Home altitude to 100m (328 ft). Data Recorder File Index is 19. Setting new Maximum Flight Altitude to 30m (98 ft)"
500,2025-01-25 04:05:14,0,0,0,,,1056.4223700916,0,0,0,0,15,2,0,1056.4223700916,0,0,0,0,0,0,302.3, -0.6, 1.6,0,0,1024,1024,1024,1024,0,0,0,0,304.2,0,0,96,3.947,3.923,3.911,0,0,0,0,57.92,1056.4223700916,0,41,Motors_Started,
600,2025-01-25 04:05:14,0,0,0,,,1056.4223700916,0,0,0,0,15,2,0,1056.4223700916,0,0,0,0,0,0,302.3, -0.6, 1.6,0,0,1024,1024,1024,1024,0,0,0,0,304.2,0,0,96,3.947,3.923,3.911,0,0,0,0,57.92,1056.4223700916,0,41,Motors_Started,
700,2025-01-25 04:05:14,0,0,0,,,1056.4223700916,0,0,0,0,15,2,0,1056.4223700916,0,0,0,0,0,0,302.3, -0.6, 1.6,0,0,1024,1024,1024,1024,0,0,0,0,304.2,0,0,96,3.947,3.923,3.911,0,0,0,0,57.92,1056.4223700916,0,41,Motors_Started,
800,2025-01-25 04:05:14,0,0,0,,,1056.4223700916,0,0,0,0,15,2,0,1056.4223700916,0,0,0,0,0,0,302.3, -0.6, 1.6,0,0,1024,1024,1024,1024,0,0,0,0,304.2,0,0,96,3.947,3.923,3.911,0,0,0,0,57.92,1056.4223700916,0,41,Motors_Started,
900,2025-01-25 04:05:14,0,0,0,,,1056.4223700916,0,0,0,0,15,2,0,1056.4223700916,0,0,0,0,0,0,302.3, -0.6, 1.6,0,0,1024,1024,1024,1024,0,0,0,0,304.2,0,0,96,3.947,3.923,3.911,0,0,0,0,57.92,1056.4223700916,0,41,Motors_Started,
1000,2025-01-25 04:05:14,0,0,0,,,1056.4223700916,0,0,0,0,15,2,0,1056.4223700916,0,0,0,0,0,0,302.3, -0.6, 1.6,0,0,1024,1024,1024,1024,0,0,0,0,304.2,0,0,96,3.947,3.923,3.911,0,0,0,0,57.92,1056.4223700916,0,41,Motors_Started,
1100,2025-01-25 04:05:14,0,0,0,,,1056.4223700916,0,0,0,0,15,2,0,1056.4223700916,0,0,0,0,0,0,302.2, -0.8, 1.5,0,0,1024,1024,1024,1024,0,0,0,0,304.3,0,0,96,3.947,3.923,3.911,0,0,0,0,57.92,1056.4223700916,0,41,Motors_Started,
1200,2025-01-25 04:05:15,0,0,0,,,1056.4223700916,0,0,0,0,15,2,0,1056.4223700916,0,0,0,0,0,0,302.3, -1.2, 1.3,0,0,1024,1024,1024,1024,0,0,0,0,304.2,0,0,96,3.947,3.923,3.911,0,0,0,0,57.92,1056.4223700916,0,41,Motors_Started,
1300,2025-01-25 04:05:15,0,0,0,,,1056.4223700916,0,0,0,0,15,2,12.004,1056.4223700916,0,0,0,0,0,0,302.3, -1.2, 1.2,0,0,1024,1024,1024,1024,0,0,0,0,304.2,0,0,96,3.947,3.923,3.911,0,0,0,1.432,57.92,1056.4223700916,0,41,Motors_Started,
1400,2025-01-25 04:05:15,0,0,0,,,1056.4223700916,0,0,0,0,15,2,12.004,1056.4223700916,0,0,0,0,0,0,302.3, -0.7, 1.5,0,0,1024,1024,1024,1024,0,0,0,0,304.2,0,0,96,3.947,3.923,3.911,0,0,0,1.432,57.92,1056.4223700916,0,41,Motors_Started,
1500,2025-01-25 04:05:15,0,0,0,,,1056.4223700916,0,0,0,0,15,2,12.004,1056.4223700916,0,0,0,0,0,0,302.3, -0.9, 1.5,0,0,1024,1024,1024,1024,0,0,0,0,304.2,0,0,96,3.947,3.923,3.911,0,0,0,1.432,57.92,1056.4223700916,0,11,AutoTakeoff,
1600,2025-01-25 04:05:15,0,0,0,,,1056.4223700916,0,0,0,0,15,2,12.004,1056.4223700916,0,0,0,0,0,0,302.3, -0.8, 1.5,0,0,1024,1024,1024,1024,0,0,0,0,304.2,0,0,96,3.947,3.923,3.911,0,0,0,1.432,57.92,1056.4223700916,0,11,AutoTakeoff,
1700,2025-01-25 04:05:15,0,0,0,,,1056.4223700916,0,0,0,0,15,2,12.004,1056.4223700916,0,0,0,0,0,0,302.3, -0.9, 1.4,0,0,1024,1024,1024,1024,0,0,0,0,304.2,0,0,96,3.947,3.923,3.911,0,0,0,1.432,57.92,1056.4223700916,0,11,AutoTakeoff,
1800,2025-01-25 04:05:15,0,0,0,,,1056.4223700916,0,0,0,0,15,2,12.004,1056.4223700916,0,0,0,0,0,0,302.3, -1, 1.4,0,0,1024,1024,1024,1024,0,0,0,0,304.2,0,0,96,3.947,3.923,3.911,0,0,0,1.432,57.92,1056.4223700916,0,11,AutoTakeoff,
1900,2025-01-25 04:05:15,0,0,0,,,1056.4223700916,0,0,0,0,15,2,12.004,1056.4223700916,0,0,0,0,0,0,302.3, -1.2, 1.2,0,0,1024,1024,1024,1024,0,0,0,0,304.2,0,0,96,3.947,3.923,3.911,0,0,0,1.432,57.92,1056.4223700916,0,11,AutoTakeoff,
2000,2025-01-25 04:05:15,0,0,0,,,1056.4223700916,0,0,0,0,15,2,12.004,1056.4223700916,0,0,0,0,0,0,302.3, -1.7, 0.9,0,0,1024,1024,1024,1024,0,0,0,0,304.2,0,0,96,3.947,3.923,3.911,0,0,0,1.432,57.92,1056.4223700916,0,11,AutoTakeoff,
2100,2025-01-25 04:05:15,0,0,0,,,1056.4223700916,0,0,0,0,15,2,12.004,1056.4223700916,0,0,0,0,0,0,302.1, -2.8, 0.2,0,0,1024,1024,1024,1024,0,0,0,0,304.2,0,0,96,3.947,3.923,3.911,0,0,0,1.432,57.92,1056.4223700916,0,11,AutoTakeoff,
2200,2025-01-25 04:05:16,0,0,0,,,1056.4223700916,0,0,0,0,15,2,12.004,1056.4223700916,0,0,0,0,0,0,301.5, -3.5, -0.1,0,0,1024,1024,1024,1024,0,0,0,0,304.2,0,0,96,3.947,3.923,3.911,0,0,0,1.432,57.92,1056.4223700916,0,11,AutoTakeoff,
2300,2025-01-25 04:05:16,0,0,0,,,1056.4223700916,0,0,0,0,15,2,11.717,1056.4223700916,0,0,0,0,0,0,299.9, -3.6, -0.5,0,0,1024,1024,1024,1024,0,0,0,0,304.2,0,0,96,3.937,3.934,3.944,0,0,0,4.104,57.92,1056.4223700916,0,11,AutoTakeoff,
2400,2025-01-25 04:05:16,0,0,0,,,1056.4223700916,0,0,0,0,15,2,11.717,1056.4223700916,0,0,0,0,0,0,298.3, -3.2, -1.4,0,0,1024,1024,1024,1024,0,0,0,0,304,0,0,96,3.937,3.934,3.944,0,0,0,4.104,57.92,1056.4223700916,0,11,AutoTakeoff,
2500,2025-01-25 04:05:16,0,0,0,,,1056.4223700916,0,0.223694,0,0,15,2,11.717,1056.4223700916,0,0.223694,0,0,-0.223694,-0.223694,296.8, -2.7, -2,0,0,1024,1024,1024,1024,0,0,0,0,303.6,0,0,96,3.937,3.934,3.944,0,0,0,4.104,57.92,1056.4223700916,0,11,AutoTakeoff,
2600,2025-01-25 04:05:16,0,0,0,,,1056.4223700916,0,0.447388,0,0,15,2,11.717,1056.4223700916,0,0.447388,0,0,-0.447388,-0.447388,296.6, -1, -1.4,0,0,1024,1024,1024,1024,0,0,0,0,303,0,0,96,3.937,3.934,3.944,0,0,0,4.104,57.92,1056.4223700916,0,11,AutoTakeoff,
2700,2025-01-25 04:05:16,0,0,0,,,1056.4223700916,0,0.447388,0,0,15,2,11.717,1056.4223700916,0,0.447388,0,0,-0.447388,-0.671082,296.8, 1.4, 1.1,0,0,1024,1024,1024,1024,0,0,0,0,302.6,0,0,96,3.937,3.934,3.944,0,0,0,4.104,57.92,1056.4223700916,0,11,AutoTakeoff,
2800,2025-01-25 04:05:16,0,0,0,,,1056.4223700916,0,0.447388,0,0,15,2,11.717,1056.4223700916,0,0.447388,0,0,-0.447388,-0.894776,297.1, 2.5, 2.7,0,0,1024,1024,1024,1024,0,0,0,0,302.2,0,0,96,3.937,3.934,3.944,0,0,0,4.104,57.92,1056.4223700916,0,11,AutoTakeoff,
2900,2025-01-25 04:05:16,0,0,0.328084,,,1056.7504540916,0,0.223694,0,0,15,2,11.717,1056.7504540916,0.328084,0.447388,0,0,-0.223694,-0.894776,297, 1.6, 2,0,0,1024,1024,1024,1024,0,0,0,0,302,0,0,96,3.937,3.934,3.944,0,0,0,4.104,57.92,1056.7504540916,0.328084,11,AutoTakeoff,
3000,2025-01-25 04:05:16,0,0,0.328084,,,1056.7504540916,0.656168,0.223694,0,0,15,2,11.717,1056.7504540916,0.328084,0.447388,0,0,-0.223694,-0.894776,297, 0.9, 1,0,0,1024,1024,1024,1024,0,0,0,0,301.7,0,0,96,3.937,3.934,3.944,0,0,0,4.104,57.92,1056.7504540916,0.328084,11,AutoTakeoff,
3100,2025-01-25 04:05:16,0,0,0.656168,,,1057.0785380916,0.984252,0.223694,0,0,15,2,11.717,1057.0785380916,0.656168,0.447388,0,0,-0.223694,-0.894776,297, 1.3, 2,0,0,1024,1024,1024,1024,0,0,0,0,301.5,0,0,96,3.937,3.934,3.944,0,0,0,4.104,57.92,1057.0785380916,0.656168,11,AutoTakeoff,
3200,2025-01-25 04:05:17,0,0,0.656168,,,1057.0785380916,0.984252,0,0,0,15,2,11.717,1057.0785380916,0.656168,0.447388,0,0,0,-0.894776,297.2, 2, 2.9,0,0,1024,1024,1024,1024,0,0,0,0,301.4,0,0,96,3.937,3.934,3.944,0,0,0,4.104,57.92,1057.0785380916,0.656168,11,AutoTakeoff,
3300,2025-01-25 04:05:17,0,0,0.984252,,,1057.4066220916,1.312336,0,0,0,15,2,11.771,1057.4066220916,0.984252,0.447388,0,0,0,-0.894776,297.3, 1.9, 1.2,0,0,1024,1024,1024,1047,0,0,0,3,301.3,0,0,96,3.832,3.789,3.78,0,0,0,3.411,58.1,1057.4066220916,0.984252,11,AutoTakeoff,
3400,2025-01-25 04:05:17,0,0,0.984252,,,1057.4066220916,1.312336,0,0,0,15,2,11.771,1057.4066220916,0.984252,0.447388,0,0,0,-1.11847,297.3, 1, -0.5,0,0,1024,1024,1024,1059,0,0,0,5,301.2,0,0,96,3.832,3.789,3.78,0,0,0,3.411,58.1,1057.4066220916,0.984252,11,AutoTakeoff,
3500,2025-01-25 04:05:17,0,0,1.312336,,,1057.7347060916,1.64042,0,0,0,15,2,11.771,1057.7347060916,1.312336,0.447388,0,0,0,-1.11847,297.2, 0.2, -0.2,0,0,1024,1024,1024,1088,0,0,0,10,301,0,0,96,3.832,3.789,3.78,0,0,0,3.411,58.1,1057.7347060916,1.312336,11,AutoTakeoff,
3600,2025-01-25 04:05:17,0,0,1.312336,,,1057.7347060916,1.64042,0,0,0,15,2,11.771,1057.7347060916,1.312336,0.447388,0,0,0,-1.11847,297.1, 0.1, 0.3,0,0,1024,1024,1024,1166,0,0,0,22,300.8,0,0,96,3.832,3.789,3.78,0,0,0,3.411,58.1,1057.7347060916,1.312336,11,AutoTakeoff,
3700,2025-01-25 04:05:17,0,0,1.64042,,,1058.0627900916,1.968504,0,0,0,14,2,11.771,1058.0627900916,1.64042,0.447388,0,0,0,-0.894776,297.2, 0.3, 0.3,0,0,1024,1024,1024,1166,0,0,0,22,300.4,0,0,96,3.832,3.789,3.78,0,0,0,3.411,58.1,1058.0627900916,1.64042,11,AutoTakeoff,
3800,2025-01-25 04:05:17,0,0,1.64042,,,1058.0627900916,1.968504,0,0,0,14,2,11.771,1058.0627900916,1.64042,0.447388,0,0,0,-0.894776,297.7, 0, 0.8,0,0,1024,1024,1024,1219,0,0,0,30,300.2,0,0,96,3.832,3.789,3.78,0,0,0,3.411,58.1,1058.0627900916,1.64042,11,AutoTakeoff,
3900,2025-01-25 04:05:17,0,0,1.968504,,,1058.3908740916,2.296588,0,0,0,14,2,11.771,1058.3908740916,1.968504,0.447388,0,0,0,-0.894776,298.5, -0.3, 1.1,0,0,1024,1024,1024,1024,0,0,0,0,300.1,0,0,96,3.832,3.789,3.78,0,0,0,3.411,58.1,1058.3908740916,1.968504,11,AutoTakeoff,
4000,2025-01-25 04:05:17,0,0,1.968504,,,1058.3908740916,2.296588,0,0,0,14,2,11.771,1058.3908740916,1.968504,0.447388,0,0,0,-0.894776,298.5, 0, 1,0,0,1024,1037,1024,1024,0,2,0,0,300.2,0,0,96,3.832,3.789,3.78,0,0,0,3.411,58.1,1058.3908740916,1.968504,11,AutoTakeoff,
4100,2025-01-25 04:05:17,0,0,2.296588,,,1058.7189580916,2.624672,0,0,0,14,2,11.771,1058.7189580916,2.296588,0.447388,0,0,0,-1.11847,298.4, 0.2, 0.4,0,0,1024,1182,1024,1024,0,24,0,0,300.2,0,0,96,3.832,3.789,3.78,0,0,0,3.411,58.1,1058.7189580916,2.296588,11,AutoTakeoff,
4200,2025-01-25 04:05:18,0,0,2.296588,,,1058.7189580916,2.624672,0,0,0,14,2,11.771,1058.7189580916,2.296588,0.447388,0,0,0,-1.11847,298.4, 0, 0.4,0,0,1024,1215,1024,1024,0,29,0,0,300.3,0,0,96,3.832,3.789,3.78,0,0,0,3.411,58.1,1058.7189580916,2.296588,11,AutoTakeoff,
4300,2025-01-25 04:05:18,0,0,2.624672,,,1059.0470420916,2.952756,0,0,0,13,2,11.168,1059.0470420916,2.624672,0.447388,0,0,0,-1.11847,298.3, 0, 2.2,0,0,1024,1234,1024,1024,0,32,0,0,300.3,0,0,96,3.737,3.695,3.696,0,0,0,9.737,58.1,1059.0470420916,2.624672,11,AutoTakeoff,
4400,2025-01-25 04:05:18,0,0,2.624672,,,1059.0470420916,2.952756,0,0,0,13,2,11.168,1059.0470420916,2.624672,0.447388,0,0,0,-1.11847,298.5, 0.1, 3.9,0,0,1024,1263,1024,1024,0,36,0,0,300.3,0,0,96,3.737,3.695,3.696,0,0,0,9.737,58.1,1059.0470420916,2.624672,11,AutoTakeoff,
4500,2025-01-25 04:05:18,0,0,2.952756,,,1059.3751260916,3.28084,0.223694,0,0,15,2,11.168,1059.3751260916,2.952756,0.447388,0,0.223694,0,-1.11847,298.4, 0.5, 4.1,0,0,1024,1273,1024,1024,0,38,0,0,300.3,0,0,96,3.737,3.695,3.696,0,0,0,9.737,58.1,1059.3751260916,2.952756,11,AutoTakeoff,
4600,2025-01-25 04:05:18,0,0,3.28084,,,1059.7032100916,3.28084,0.223694,0,0,15,2,11.168,1059.7032100916,3.28084,0.447388,0,0.223694,0,-1.11847,298.4, 0.5, 5,0,0,1024,1271,1024,1024,0,37,0,0,300.3,0,0,96,3.737,3.695,3.696,0,0,0,9.737,58.1,1059.7032100916,3.28084,11,AutoTakeoff,
4700,2025-01-25 04:05:18,0,0,3.28084,,,1059.7032100916,3.608924,0.4921268,0,0,15,2,11.168,1059.7032100916,3.28084,0.4921268,0,0.447388,0.223694,-0.894776,298.5, 0.4, 5.8,0,0,1024,1296,1024,1024,0,41,0,0,300.3,0,0,96,3.737,3.695,3.696,0,0,0,9.737,58.1,1059.7032100916,3.28084,6,P-GPS,
4800,2025-01-25 04:05:18,0,0,3.608924,,,1060.0312940916,3.608924,0.4921268,0,0,15,2,11.168,1060.0312940916,3.608924,0.4921268,0,0.447388,0.223694,-0.894776,298.5, 0.4, 5.5,0,0,1024,1306,1024,1024,0,43,0,0,300.3,0,0,96,3.737,3.695,3.696,0,0,0,9.737,58.1,1060.0312940916,3.608924,6,P-GPS,
4900,2025-01-25 04:05:18,0,0,3.608924,,,1060.0312940916,3.937008,0.7158208,0,0,15,2,11.168,1060.0312940916,3.608924,0.7158208,0,0.671082,0.223694,-0.671082,298.8, 0.4, 5.6,0,0,1024,1306,1024,1024,0,43,0,0,300.3,0,0,96,3.737,3.695,3.696,0,0,0,9.737,58.1,1060.0312940916,3.608924,6,P-GPS,
5000,2025-01-25 04:05:18,0,0,3.608924,,,1060.0312940916,3.937008,0.7158208,0,0,15,2,11.168,1060.0312940916,3.608924,0.7158208,0,0.671082,0.223694,-0.447388,298.3, 0.4, 7.6,0,0,1024,1302,1024,1024,0,42,0,0,300.3,0,0,96,3.737,3.695,3.696,0,0,0,9.737,58.1,1060.0312940916,3.608924,6,P-GPS,
5100,2025-01-25 04:05:18,0,0,3.608924,,,1060.0312940916,3.937008,1.006623,0,0,14,2,11.168,1060.0312940916,3.608924,1.006623,0,0.894776,0.447388,-0.223694,298.4, 0.3, 9.1,0,0,1024,1301,1024,1024,0,42,0,0,300.3,0,0,96,3.737,3.695,3.696,0,0,0,9.737,58.1,1060.0312940916,3.608924,6,P-GPS,
5200,2025-01-25 04:05:19,0,0,3.608924,,,1060.0312940916,3.937008,1.4092722,0,0,14,2,11.168,1060.0312940916,3.608924,1.4092722,0,1.342164,0.447388,0,299.3, 0.3, 8.7,0,0,1024,1296,1024,1024,0,41,0,0,300.3,0,0,96,3.737,3.695,3.696,0,0,0,9.737,58.1,1060.0312940916,3.608924,6,P-GPS,
5300,2025-01-25 04:05:19,0,0,3.937008,,,1060.3593780916,3.937008,1.7000744,0,0,15,2,11.115,1060.3593780916,3.937008,1.7000744,0,1.565858,0.671082,0,299.7, 0.5, 7,0,0,1024,1249,1024,1024,0,34,0,0,300.3,0,0,96,3.728,3.686,3.686,0,0,0,10.959,58.1,1060.3593780916,3.937008,6,P-GPS,
5400,2025-01-25 04:05:19,0,0,3.937008,,,1060.3593780916,3.937008,1.7000744,0,0,15,2,11.115,1060.3593780916,3.937008,1.7000744,0,1.565858,0.671082,0,299.3, 0.8, 5.9,0,0,1024,1225,1024,1024,0,30,0,0,300.3,0,0,96,3.728,3.686,3.686,0,0,0,10.959,58.1,1060.3593780916,3.937008,6,P-GPS,
5500,2025-01-25 04:05:19,0,0,3.608924,,,1060.0312940916,3.937008,1.9908766,0,0,15,2,11.115,1060.3593780916,3.937008,1.9908766,0,1.789552,0.894776,0,298.7, 0.9, 4.9,0,0,1024,1163,1024,1024,0,21,0,0,300.3,0,0,96,3.728,3.686,3.686,0,0,0,10.959,58.1,1060.0312940916,3.608924,6,P-GPS,
5600,2025-01-25 04:05:19,0,0,3.608924,,,1060.0312940916,3.937008,1.9908766,0,0,15,2,11.115,1060.3593780916,3.937008,1.9908766,0,1.789552,0.894776,0,298.1, 0.9, 3.7,0,0,1024,1101,1024,1024,0,12,0,0,300.3,0,0,96,3.728,3.686,3.686,0,0,0,10.959,58.1,1060.0312940916,3.608924,6,P-GPS,
5700,2025-01-25 04:05:19,0,0,3.608924,,,1060.0312940916,3.608924,1.9908766,0,0,15,2,11.115,1060.3593780916,3.937008,1.9908766,0,1.789552,0.894776,0,297.9, 0.8, 2.7,0,0,1024,1024,1024,1024,0,0,0,0,300.3,0,0,96,3.728,3.686,3.686,0,0,0,10.959,58.1,1060.0312940916,3.608924,6,P-GPS,
5800,2025-01-25 04:05:19,0,0,3.608924,,,1060.0312940916,3.608924,1.9908766,0,0,15,2,11.115,1060.3593780916,3.937008,1.9908766,0,1.789552,0.894776,0,297.3, 0.5, 1,0,0,1024,1024,1024,1024,0,0,0,0,300.3,0,0,96,3.728,3.686,3.686,0,0,0,10.959,58.1,1060.0312940916,3.608924,6,P-GPS,
5900,2025-01-25 04:05:19,0,0,3.608924,,,1060.0312940916,3.608924,1.9908766,0,0,15,2,11.115,1060.3593780916,3.937008,1.9908766,0,1.789552,0.894776,0,297, 0.1, -4.4,0,0,1024,1024,1024,1024,0,0,0,0,300.3,0,0,96,3.728,3.686,3.686,0,0,0,10.959,58.1,1060.0312940916,3.608924,6,P-GPS,
6000,2025-01-25 04:05:19,0,0,3.608924,,,1060.0312940916,3.608924,1.7000744,0,0,15,2,11.115,1060.3593780916,3.937008,1.9908766,0,1.565858,0.671082,0,296, -0.1, -7.7,0,0,1024,1024,1024,1024,0,0,0,0,300.3,0,0,96,3.728,3.686,3.686,0,0,0,10.959,58.1,1060.0312940916,3.608924,6,P-GPS,
6100,2025-01-25 04:05:19,0,0,3.608924,,,1060.0312940916,3.608924,1.2079476,0,0,15,2,11.115,1060.3593780916,3.937008,1.9908766,0,1.11847,0.447388,0,294.9, 0, -6.1,0,0,1024,1024,1024,1024,0,0,0,0,300.3,0,0,96,3.728,3.686,3.686,0,0,0,10.959,58.1,1060.0312940916,3.608924,6,P-GPS,
6200,2025-01-25 04:05:20,0,0,3.608924,,,1060.0312940916,3.608924,0.9171454,0,0,15,2,11.115,1060.3593780916,3.937008,1.9908766,0,0.894776,0.223694,0,294.6, 0.8, -3.9,0,0,1024,1024,1024,1024,0,0,0,0,300.3,0,0,96,3.728,3.686,3.686,0,0,0,10.959,58.1,1060.0312940916,3.608924,6,P-GPS,
6300,2025-01-25 04:05:20,0,0,3.608924,,,1060.0312940916,3.608924,0.7158208,0,0,15,2,11.179,1060.3593780916,3.937008,1.9908766,0,0.671082,0.223694,0,294.9, 1, -3.5,0,0,1024,1024,1024,1024,0,0,0,0,300.3,0,0,96,3.741,3.699,3.698,0,0,0,10.432,58.28,1060.0312940916,3.608924,6,P-GPS,
6400,2025-01-25 04:05:20,0,0,3.608924,,,1060.0312940916,3.608924,0.7158208,0,0,15,2,11.179,1060.3593780916,3.937008,1.9908766,0,0.671082,0.223694,0,295.2, 0.8, -3.6,0,0,1024,1024,1024,1024,0,0,0,0,300.3,0,0,96,3.741,3.699,3.698,0,0,0,10.432,58.28,1060.0312940916,3.608924,6,P-GPS,
6500,2025-01-25 04:05:20,0,0,3.608924,,,1060.0312940916,3.608924,0.447388,0,0,17,2,11.179,1060.3593780916,3.937008,1.9908766,0,0.447388,0,0,295.3, 1, -2.9,0,0,1024,1024,1024,1024,0,0,0,0,300.3,0,0,96,3.741,3.699,3.698,0,0,0,10.432,58.28,1060.0312940916,3.608924,6,P-GPS,
6600,2025-01-25 04:05:20,0,0,3.608924,,,1060.0312940916,3.608924,0.223694,0,0,17,2,11.179,1060.3593780916,3.937008,1.9908766,0,0.223694,0,0,295, 1.1, -1.7,0,0,1024,1024,1024,1024,0,0,0,0,300.3,0,0,96,3.741,3.699,3.698,0,0,0,10.432,58.28,1060.0312940916,3.608924,6,P-GPS,
6700,2025-01-25 04:05:20,0,0,3.608924,,,1060.0312940916,3.608924,0.223694,0,0,17,2,11.179,1060.3593780916,3.937008,1.9908766,0,0.223694,0,0,295.3, 1, -1.2,0,0,1024,1024,1024,1024,0,0,0,0,300.3,0,0,96,3.741,3.699,3.698,0,0,0,10.432,58.28,1060.0312940916,3.608924,6,P-GPS,
6800,2025-01-25 04:05:20,0,0,3.608924,,,1060.0312940916,3.937008,0.223694,0,0,17,2,11.179,1060.3593780916,3.937008,1.9908766,0,0.223694,0,0,295.1, 0.7, -1.4,0,0,1228,1024,1024,1024,31,0,0,0,300.3,0,0,96,3.741,3.699,3.698,0,0,0,10.432,58.28,1060.0312940916,3.608924,6,P-GPS,
6900,2025-01-25 04:05:20,0,0,3.608924,,,1060.0312940916,3.608924,0.223694,0,0,17,2,11.179,1060.3593780916,3.937008,1.9908766,0,0.223694,0,0,295.1, 1, -1.1,0,0,1363,1024,1024,1024,51,0,0,0,300.3,0,0,96,3.741,3.699,3.698,0,0,0,10.432,58.28,1060.0312940916,3.608924,6,P-GPS,
7000,2025-01-25 04:05:20,0,0,3.608924,,,1060.0312940916,3.608924,0,0,0,17,2,11.179,1060.3593780916,3.937008,1.9908766,0,0,0,0,295.4, -0.4, -0.9,0,0,1382,1024,1024,1024,54,0,0,0,300.3,0,0,96,3.741,3.699,3.698,0,0,0,10.432,58.28,1060.0312940916,3.608924,6,P-GPS,
7100,2025-01-25 04:05:20,0,0,3.608924,,,1060.0312940916,3.608924,0,0,0,17,2,11.179,1060.3593780916,3.937008,1.9908766,0,0,0,0,295.5, -5.9, -0.7,0,0,1382,1024,1024,1024,54,0,0,0,300.3,0,0,96,3.741,3.699,3.698,0,0,0,10.432,58.28,1060.0312940916,3.608924,6,P-GPS,
7200,2025-01-25 04:05:21,0,0,3.608924,,,1060.0312940916,3.937008,0.4921268,0,0,17,2,11.179,1060.3593780916,3.937008,1.9908766,0,0.223694,-0.447388,0,295.7, -10, 0.2,0,0,1389,1024,1024,1024,55,0,0,0,300.3,0,0,96,3.741,3.699,3.698,0,0,0,10.432,58.28,1060.0312940916,3.608924,6,P-GPS,
7300,2025-01-25 04:05:21,0,0,3.608924,,,1060.0312940916,3.608924,0.9171454,0,0,17,2,11.069,1060.3593780916,3.937008,1.9908766,0,0.223694,-0.894776,0,295.8, -7.9, 0.5,0,0,1400,1024,1024,1024,57,0,0,0,300.3,0,0,96,3.719,3.676,3.675,0,0,0,10.621,58.46,1060.0312940916,3.608924,6,P-GPS,
7400,2025-01-25 04:05:21,0,0,3.608924,,,1060.0312940916,3.608924,1.2079476,0,0,17,2,11.069,1060.3593780916,3.937008,1.9908766,0,0.447388,-1.11847,0,295.9, -4.4, 0.1,0,0,1404,1024,1024,1024,58,0,0,0,300.3,0,0,96,3.719,3.676,3.675,0,0,0,10.621,58.46,1060.0312940916,3.608924,6,P-GPS,
7500,2025-01-25 04:05:21,0,0,3.608924,,,1060.0312940916,3.937008,1.2079476,0,0,17,2,11.069,1060.3593780916,3.937008,1.9908766,0,0.447388,-1.11847,0,295.9, -3.6, 0.3,0,0,1404,1024,1024,1024,58,0,0,0,300.3,0,0,96,3.719,3.676,3.675,0,0,0,10.621,58.46,1060.0312940916,3.608924,6,P-GPS,
7600,2025-01-25 04:05:21,0,0,3.608924,,,1060.0312940916,3.937008,1.4092722,0,0,17,2,11.069,1060.3593780916,3.937008,1.9908766,0,0.447388,-1.342164,0,295.7, -3.8, 1.2,0,0,1405,1024,1024,1024,58,0,0,0,300.3,0,0,96,3.719,3.676,3.675,0,0,0,10.621,58.46,1060.0312940916,3.608924,6,P-GPS,
7700,2025-01-25 04:05:21,0,0,3.608924,,,1060.0312940916,3.937008,1.4987498,0,0,16,2,11.069,1060.3593780916,3.937008,1.9908766,0,0.671082,-1.342164,0,295.8, -3.8, 1.5,0,0,1398,1024,1024,1024,57,0,0,0,300.3,0,0,96,3.719,3.676,3.675,0,0,0,10.621,58.46,1060.0312940916,3.608924,6,P-GPS,
7800,2025-01-25 04:05:21,0,0,3.608924,,,1060.0312940916,3.937008,1.7000744,0,0,16,2,11.069,1060.3593780916,3.937008,1.9908766,0,0.671082,-1.565858,0,296, -3.6, 1.1,0,0,1364,1024,1024,1024,52,0,0,0,300.3,0,0,96,3.719,3.676,3.675,0,0,0,10.621,58.46,1060.0312940916,3.608924,6,P-GPS,
7900,2025-01-25 04:05:21,0,0,3.608924,,,1060.0312940916,3.937008,1.7000744,0,0,17,2,11.069,1060.3593780916,3.937008,1.9908766,0,0.671082,-1.565858,0,296.1, -3.7, 0.6,0,0,1359,1024,1024,1024,51,0,0,0,300.3,0,0,96,3.719,3.676,3.675,0,0,0,10.621,58.46,1060.0312940916,3.608924,6,P-GPS,
8000,2025-01-25 04:05:21,0,0,3.608924,,,1060.0312940916,3.937008,1.9908766,0,0,17,2,11.069,1060.3593780916,3.937008,1.9908766,0,0.894776,-1.789552,0,296.1, -3.8, 0.1,0,0,1361,1024,1024,1024,51,0,0,0,300.3,0,0,96,3.719,3.676,3.675,0,0,0,10.621,58.46,1060.0312940916,3.608924,6,P-GPS,
8100,2025-01-25 04:05:21,0,0,3.608924,,,1060.0312940916,3.937008,1.9908766,0,0,16,2,11.069,1060.3593780916,3.937008,1.9908766,0,0.894776,-1.789552,0,296.1, -3.7, 0.3,0,0,1319,1113,1024,1024,45,13,0,0,300.3,0,0,96,3.719,3.676,3.675,0,0,0,10.621,58.46,1060.0312940916,3.608924,6,P-GPS,
8200,2025-01-25 04:05:22,0,0,3.608924,,,1060.0312940916,3.937008,2.1922012,0,0,16,2,11.069,1060.3593780916,3.937008,2.1922012,0,0.894776,-2.013246,0,296, -3.6, 0.5,0,0,1306,1210,1024,1024,43,28,0,0,300.3,0,0,96,3.719,3.676,3.675,0,0,0,10.621,58.46,1060.0312940916,3.608924,6,P-GPS,
8300,2025-01-25 04:05:22,0,0,3.608924,,,1060.0312940916,3.937008,2.3040482,0,0,16,2,11.076,1060.3593780916,3.937008,2.3040482,0,1.11847,-2.013246,0,295.9, -3.2, 0.1,0,0,1306,1210,1024,1024,43,28,0,0,300.3,0,0,96,3.709,3.669,3.67,0,0,0,10.764,58.64,1060.0312940916,3.608924,6,P-GPS,
8400,2025-01-25 04:05:22,0,0,3.608924,,,1060.0312940916,3.937008,2.3040482,0,0,16,2,11.076,1060.3593780916,3.937008,2.3040482,0,1.11847,-2.23694,0,295.9, -2.7, 0.4,0,0,1303,1308,1024,1024,42,43,0,0,300.3,0,0,96,3.709,3.669,3.67,0,0,0,10.764,58.64,1060.0312940916,3.608924,6,P-GPS,
8500,2025-01-25 04:05:22,0,0,3.608924,,,1060.0312940916,3.937008,2.5053728,0,0,17,2,11.076,1060.3593780916,3.937008,2.5053728,0,1.11847,-2.23694,0,295.2, -2.3, 1.7,0,0,1305,1330,1024,1024,43,46,0,0,300.3,0,0,96,3.709,3.669,3.67,0,0,0,10.764,58.64,1060.0312940916,3.608924,6,P-GPS,
8600,2025-01-25 04:05:22,0,0,3.608924,,,1060.0312940916,3.937008,2.5053728,0,0,17,2,11.076,1060.3593780916,3.937008,2.5053728,0,1.11847,-2.23694,0,293.1, -2.2, 3.4,0,0,1313,1342,1024,1024,44,48,0,0,300.3,0,0,96,3.709,3.669,3.67,0,0,0,10.764,58.64,1060.0312940916,3.608924,6,P-GPS,
8700,2025-01-25 04:05:22,0,0,3.608924,,,1060.0312940916,3.937008,2.5053728,0,0,17,2,11.076,1060.3593780916,3.937008,2.5053728,0,1.342164,-2.460634,0,291.7, -2, 4.7,0,0,1278,1299,1024,1024,38,42,0,0,300.3,0,0,96,3.709,3.669,3.67,0,0,0,10.764,58.64,1060.0312940916,3.608924,6,P-GPS,
8800,2025-01-25 04:05:22,0,0,3.608924,,,1060.0312940916,3.937008,2.796175,0,0,17,2,11.076,1060.3593780916,3.937008,2.796175,0,1.342164,-2.460634,0,290.9, -1.7, 4.8,0,0,1268,1301,1024,1024,37,42,0,0,300.3,0,0,96,3.709,3.669,3.67,0,0,0,10.764,58.64,1060.0312940916,3.608924,6,P-GPS,
8900,2025-01-25 04:05:22,0,0,3.608924,,,1060.0312940916,3.937008,2.908022,0,0,17,2,11.076,1060.3593780916,3.937008,2.908022,0,1.565858,-2.460634,0,290.4, -1.7, 4.8,0,0,1174,1024,1024,1099,23,0,0,11,300.3,0,0,96,3.709,3.669,3.67,0,0,0,10.764,58.64,1060.0312940916,3.608924,6,P-GPS,
9000,2025-01-25 04:05:22,0,0,3.608924,,,1060.0312940916,3.937008,3.0422384,0,0,17,2,11.076,1060.3593780916,3.937008,3.0422384,0,1.789552,-2.460634,0,289.9, -1.5, 4.8,0,0,1024,1024,1024,1237,0,0,0,32,300.3,0,0,96,3.709,3.669,3.67,0,0,0,10.764,58.64,1060.0312940916,3.608924,6,P-GPS,
9100,2025-01-25 04:05:22,0,0,3.608924,,,1060.0312940916,3.937008,3.019869,0,0,17,2,11.076,1060.3593780916,3.937008,3.0422384,0,2.013246,-2.23694,0,289.8, 0, 2.6,0,0,1024,1024,1024,1311,0,0,0,43,300.5,0,0,96,3.709,3.669,3.67,0,0,0,10.764,58.64,1060.0312940916,3.608924,6,P-GPS,
9200,2025-01-25 04:05:23,0,0,3.608924,,,1060.0312940916,3.937008,3.019869,0,0,17,2,11.076,1060.3593780916,3.937008,3.0422384,0,2.013246,-2.23694,0,290, 6.7, -3,0,0,1024,1024,1024,1352,0,0,0,50,301.1,0,0,96,3.709,3.669,3.67,0,0,0,10.764,58.64,1060.0312940916,3.608924,6,P-GPS,
9300,2025-01-25 04:05:23,0,0,3.608924,,,1060.0312940916,3.937008,2.684328,0,0,17,2,11.053,1060.3593780916,3.937008,3.0422384,0,1.789552,-2.013246,0,289.4, 13.5, -6,0,0,1024,1024,1024,1100,0,0,0,12,302.1,0,0,96,3.71,3.668,3.667,0,0,0,10.755,58.82,1060.0312940916,3.608924,6,P-GPS,
9400,2025-01-25 04:05:23,0,0,3.608924,,,1060.0312940916,3.937008,2.0579848,0,0,17,2,11.053,1060.3593780916,3.937008,3.0422384,0,1.342164,-1.565858,0,289.8, 13.3, -4.2,0,0,1024,1024,1024,1100,0,0,0,12,303.4,0,0,96,3.71,3.668,3.667,0,0,0,10.755,58.82,1060.0312940916,3.608924,6,P-GPS,
9500,2025-01-25 04:05:23,0,0,3.608924,,,1060.0312940916,3.937008,1.4316416,0,0,16,2,11.053,1060.3593780916,3.937008,3.0422384,0,0.894776,-1.11847,0,290.9, 9.1, -2.2,0,0,1024,1024,1024,1024,0,0,0,0,304.5,0,0,96,3.71,3.668,3.667,0,0,0,10.755,58.82,1060.0312940916,3.608924,6,P-GPS,
9600,2025-01-25 04:05:23,0,0,3.608924,,,1060.0312940916,3.937008,1.11847,0,0,16,2,11.053,1060.3593780916,3.937008,3.0422384,0,0.671082,-0.894776,0,291.9, 6.4, -1.6,0,0,1024,1024,1024,1024,0,0,0,0,305,0,0,96,3.71,3.668,3.667,0,0,0,10.755,58.82,1060.0312940916,3.608924,6,P-GPS,
9700,2025-01-25 04:05:23,0,0,3.608924,,,1060.0312940916,3.937008,0.8052984,0,0,15,2,11.053,1060.3593780916,3.937008,3.0422384,0,0.447388,-0.671082,0,292.7, 6, -1.7,0,0,1024,1024,1024,1024,0,0,0,0,305.1,0,0,96,3.71,3.668,3.667,0,0,0,10.755,58.82,1060.0312940916,3.608924,6,P-GPS,
9800,2025-01-25 04:05:23,0,0,3.608924,,,1060.0312940916,3.937008,0.8052984,0,0,15,2,11.053,1060.3593780916,3.937008,3.0422384,0,0.447388,-0.671082,0,292.9, 5.5, -2.1,0,0,1024,1024,1024,1024,0,0,0,0,305.1,0,0,96,3.71,3.668,3.667,0,0,0,10.755,58.82,1060.0312940916,3.608924,6,P-GPS,
9900,2025-01-25 04:05:23,0,0,3.608924,,,1060.0312940916,3.937008,0.8052984,0,0,15,2,11.053,1060.3593780916,3.937008,3.0422384,0,0.223694,-0.447388,0,292.8, 4.6, -1.5,0,0,1024,1024,1024,1024,0,0,0,0,305.1,0,0,96,3.71,3.668,3.667,0,0,0,10.755,58.82,1060.0312940916,3.608924,6,P-GPS,
10000,2025-01-25 04:05:23,0,0,3.608924,,,1060.0312940916,3.937008,0.447388,0,0,15,2,11.053,1060.3593780916,3.937008,3.0422384,0,0,-0.447388,0,293, 4.4, 0.2,0,0,1024,1058,1024,1024,0,5,0,0,305.1,0,0,96,3.71,3.668,3.667,0,0,0,10.755,58.82,1060.0312940916,3.608924,6,P-GPS,
10100,2025-01-25 04:05:23,0,0,3.608924,,,1060.0312940916,3.937008,0.223694,0,0,15,2,11.053,1060.3593780916,3.937008,3.0422384,0,0,-0.223694,0,293.4, 3.8, 1.2,0,0,1024,1024,1024,1024,0,0,0,0,305.1,0,0,96,3.71,3.668,3.667,0,0,0,10.755,58.82,1060.0312940916,3.608924,6,P-GPS,
10200,2025-01-25 04:05:24,0,0,3.608924,,,1060.0312940916,3.937008,0.223694,0,0,15,2,11.053,1060.3593780916,3.937008,3.0422384,0,0,-0.223694,0,293.8, 2.8, 1,0,0,1024,1079,1024,1024,0,8,0,0,305.1,0,0,96,3.71,3.668,3.667,0,0,0,10.755,58.82,1060.0312940916,3.608924,6,P-GPS,
10300,2025-01-25 04:05:24,0,0,3.608924,,,1060.0312940916,3.937008,0.223694,0,0,15,2,11.034,1060.3593780916,3.937008,3.0422384,0,0,-0.223694,0,293.9, 2.3, 1.2,0,0,1024,1136,1024,1024,0,17,0,0,305.1,0,0,95,3.698,3.653,3.649,0,0,0,10.831,58.82,1060.0312940916,3.608924,6,P-GPS,
10400,2025-01-25 04:05:24,0,0,3.608924,,,1060.0312940916,3.937008,0.223694,0,0,15,2,11.034,1060.3593780916,3.937008,3.0422384,0,0,-0.223694,0,294, 2.4, 2,0,0,1024,1195,1024,1024,0,26,0,0,305.1,0,0,95,3.698,3.653,3.649,0,0,0,10.831,58.82,1060.0312940916,3.608924,6,P-GPS,
10500,2025-01-25 04:05:24,0,0,3.608924,,,1060.0312940916,3.937008,0,0,0,14,2,11.034,1060.3593780916,3.937008,3.0422384,0,0,0,0,294.3, 1.8, 2.8,0,0,1024,1195,1024,1024,0,26,0,0,305.1,0,0,95,3.698,3.653,3.649,0,0,0,10.831,58.82,1060.0312940916,3.608924,6,P-GPS,
10600,2025-01-25 04:05:24,0,0,3.608924,,,1060.0312940916,3.937008,0,0,0,14,2,11.034,1060.3593780916,3.937008,3.0422384,0,0,0,0,294.5, 1.1, 3.8,0,0,1024,1261,1024,1024,0,36,0,0,305.1,0,0,95,3.698,3.653,3.649,0,0,0,10.831,58.82,1060.0312940916,3.608924,6,P-GPS,
10700,2025-01-25 04:05:24,0,0,3.608924,,,1060.0312940916,3.937008,0,0,0,13,2,11.034,1060.3593780916,3.937008,3.0422384,0,0,0,0,294.6, 0.5, 4.9,0,0,1024,1393,1024,1024,0,56,0,0,305.1,0,0,95,3.698,3.653,3.649,0,0,0,10.831,58.82,1060.0312940916,3.608924,6,P-GPS,
10800,2025-01-25 04:05:24,0,0,3.608924,,,1060.0312940916,3.937008,0,0,0,13,2,11.034,1060.3593780916,3.937008,3.0422384,0,0,0,0,294.8, 0.8, 7,0,0,1021,1385,1024,1024,-0,55,0,0,305.1,0,0,95,3.698,3.653,3.649,0,0,0,10.831,58.82,1060.0312940916,3.608924,6,P-GPS,
10900,2025-01-25 04:05:24,0,0,3.608924,,,1060.0312940916,3.937008,0,0,0,13,2,11.034,1060.3593780916,3.937008,3.0422384,0,0,0,0,295.2, 0.6, 11.7,0,0,1024,1426,1024,1024,0,61,0,0,305.1,0,0,95,3.698,3.653,3.649,0,0,0,10.831,58.82,1060.0312940916,3.608924,6,P-GPS,
11000,2025-01-25 04:05:24,0,0,3.608924,,,1060.0312940916,3.937008,0.4921268,0,0,13,2,11.034,1060.3593780916,3.937008,3.0422384,0,0.447388,0.223694,0,295.6, -0.3, 14.6,0,0,1024,1428,1024,1024,0,61,0,0,305.1,0,0,95,3.698,3.653,3.649,0,0,0,10.831,58.82,1060.0312940916,3.608924,6,P-GPS,
11100,2025-01-25 04:05:24,0,0,3.608924,,,1060.0312940916,3.937008,1.006623,0,0,14,2,11.034,1060.3593780916,3.937008,3.0422384,0,0.894776,0.447388,0,295.9, 0, 14.6,0,0,1024,1420,1024,1024,0,60,0,0,305.1,0,0,95,3.698,3.653,3.649,0,0,0,10.831,58.82,1060.0312940916,3.608924,6,P-GPS,
11200,2025-01-25 04:05:25,0,0,3.608924,,,1060.0312940916,3.937008,1.4987498,0,0,14,2,11.034,1060.3593780916,3.937008,3.0422384,0,1.342164,0.671082,0,296.1, 0.2, 14.1,0,0,1020,1409,1024,1024,-1,58,0,0,305.1,0,0,95,3.698,3.653,3.649,0,0,0,10.831,58.82,1060.0312940916,3.608924,6,P-GPS,
11300,2025-01-25 04:05:25,0,0,3.608924,,,1060.0312940916,3.937008,1.9908766,0,0,14,2,11.018,1060.3593780916,3.937008,3.0422384,0,1.789552,0.894776,0,296.4, 0.3, 14.7,0,0,1014,1377,1024,1024,-2,53,0,0,305.1,0,0,95,3.705,3.662,3.661,0,0,0,11.085,59,1060.0312940916,3.608924,6,P-GPS,
11400,2025-01-25 04:05:25,0,0,3.608924,,,1060.0312940916,3.937008,2.5053728,0,0,14,2,11.018,1060.3593780916,3.937008,3.0422384,0,2.23694,1.11847,0,296.4, 0.2, 15.6,0,0,1024,1387,1024,1024,0,55,0,0,305.1,0,0,95,3.705,3.662,3.661,0,0,0,11.085,59,1060.0312940916,3.608924,6,P-GPS,
11500,2025-01-25 04:05:25,0,0,3.608924,,,1060.0312940916,3.937008,2.9974996,0,0,14,2,11.018,1060.3593780916,3.937008,3.0422384,0,2.684328,1.342164,0,296.2, -0.2, 14.2,0,0,1024,1398,1024,1024,0,57,0,0,305.1,0,0,95,3.705,3.662,3.661,0,0,0,11.085,59,1060.0312940916,3.608924,6,P-GPS,
11600,2025-01-25 04:05:25,0,0,3.608924,,,1060.0312940916,3.937008,3.5119958,0,0,14,2,11.018,1060.3593780916,3.937008,3.5119958,0,3.131716,1.565858,0,296, -0.7, 11.9,0,0,1024,1325,1024,1024,0,46,0,0,305.1,0,0,95,3.705,3.662,3.661,0,0,0,11.085,59,1060.0312940916,3.608924,6,P-GPS,
11700,2025-01-25 04:05:25,0,0,3.608924,,,1060.0312940916,3.937008,3.7133204,0,0,14,2,11.018,1060.3593780916,3.937008,3.7133204,0,3.35541,1.565858,0,296, -0.6, 11.4,0,0,1024,1325,1024,1024,0,46,0,0,305.1,0,0,95,3.705,3.662,3.661,0,0,0,11.085,59,1060.0312940916,3.608924,6,P-GPS,
11800,2025-01-25 04:05:25,0,0,3.608924,,,1060.0312940916,3.937008,4.0041226,0,0,14,2,11.018,1060.3593780916,3.937008,4.0041226,0,3.579104,1.789552,0,296.1, 0, 10.6,0,0,1024,1309,1024,1024,0,43,0,0,305.1,0,0,95,3.705,3.662,3.661,0,0,0,11.085,59,1060.0312940916,3.608924,6,P-GPS,
11900,2025-01-25 04:05:25,0,0,3.608924,,,1060.0312940916,3.937008,4.2054472,0,0,14,2,11.018,1060.3593780916,3.937008,4.2054472,0,3.802798,1.789552,0,296.2, -0.4, 8.1,0,0,1024,1325,1024,1024,0,46,0,0,305.1,0,0,95,3.705,3.662,3.661,0,0,0,11.085,59,1060.0312940916,3.608924,6,P-GPS,
12000,2025-01-25 04:05:25,0,0,3.608924,,,1060.0312940916,3.937008,4.4067718,0,0,14,2,11.018,1060.3593780916,3.937008,4.4067718,0,4.026492,1.789552,0,296, -0.6, 5.7,0,0,1024,1024,1024,1024,0,0,0,0,305.1,0,0,95,3.705,3.662,3.661,0,0,0,11.085,59,1060.0312940916,3.608924,6,P-GPS,
12100,2025-01-25 04:05:25,0,0,3.608924,,,1060.0312940916,3.937008,4.4067718,0,0,14,2,11.018,1060.3593780916,3.937008,4.4067718,0,4.026492,1.789552,0,295.4, 0, 2.1,0,0,1024,1024,1024,1024,0,0,0,0,305.1,0,0,95,3.705,3.662,3.661,0,0,0,11.085,59,1060.0312940916,3.608924,6,P-GPS,
12200,2025-01-25 04:05:26,0,0,3.608924,,,1060.0312940916,3.937008,4.4067718,0,0,14,2,11.018,1060.3593780916,3.937008,4.4067718,0,4.026492,1.789552,0,294.7, 0, -10.7,0,0,1024,1024,1024,1024,0,0,0,0,305.1,0,0,95,3.705,3.662,3.661,0,0,0,11.085,59,1060.0312940916,3.608924,6,P-GPS,
12300,2025-01-25 04:05:26,0,0,3.608924,,,1060.0312940916,3.937008,3.6238428,0,0,14,2,11.019,1060.3593780916,3.937008,4.4067718,0,3.35541,1.342164,0,293, 0.1, -18.7,0,0,1024,1024,1024,1024,0,0,0,0,305.1,0,0,95,3.695,3.652,3.649,0,0,0,10.742,59.18,1060.0312940916,3.608924,6,P-GPS,
12400,2025-01-25 04:05:26,0,0,3.608924,,,1060.0312940916,3.937008,2.7066974,0,0,14,2,11.019,1060.3593780916,3.937008,4.4067718,0,2.460634,1.11847,0,291.5, 0.5, -14.7,0,0,1024,1024,1024,1024,0,0,0,0,305.1,0,0,95,3.695,3.652,3.649,0,0,0,10.742,59.18,1060.0312940916,3.608924,6,P-GPS,
12500,2025-01-25 04:05:26,0,0,3.608924,,,1060.0312940916,3.937008,2.1922012,0,0,15,2,11.019,1060.3593780916,3.937008,4.4067718,0,2.013246,0.894776,0,291.3, 0.6, -8.3,0,0,1024,1024,1024,1024,0,0,0,0,305.1,0,0,95,3.695,3.652,3.649,0,0,0,10.742,59.18,1060.0312940916,3.608924,6,P-GPS,
12600,2025-01-25 04:05:26,0,0,3.608924,,,1060.0312940916,3.937008,1.7000744,0,0,15,2,11.019,1060.3593780916,3.937008,4.4067718,0,1.565858,0.671082,0,291.7, 0, -6.7,0,0,1024,1184,1024,1024,0,24,0,0,305.1,0,0,95,3.695,3.652,3.649,0,0,0,10.742,59.18,1060.0312940916,3.608924,6,P-GPS,
12700,2025-01-25 04:05:26,0,0,3.608924,,,1060.0312940916,3.937008,1.4987498,0,0,16,2,11.019,1060.3593780916,3.937008,4.4067718,0,1.342164,0.671082,0,291.9, -0.2, -8,0,0,1019,1229,1026,1024,-1,31,0,0,305.1,0,0,95,3.695,3.652,3.649,0,0,0,10.742,59.18,1060.0312940916,3.608924,6,P-GPS,
12800,2025-01-25 04:05:26,0,0,3.608924,,,1060.0312940916,3.937008,1.2079476,0,0,16,2,11.019,1060.3593780916,3.937008,4.4067718,0,1.11847,0.447388,0,291.7, -0.1, -5.3,0,0,1019,1229,1026,1024,-1,31,0,0,305.1,0,0,95,3.695,3.652,3.649,0,0,0,10.742,59.18,1060.0312940916,3.608924,6,P-GPS,
12900,2025-01-25 04:05:26,0,0,3.608924,,,1060.0312940916,3.937008,1.006623,0,0,15,2,11.019,1060.3593780916,3.937008,4.4067718,0,0.894776,0.447388,0,291.8, 0, -1.1,0,0,1024,1264,1024,1024,0,36,0,0,305.1,0,0,95,3.695,3.652,3.649,0,0,0,10.742,59.18,1060.0312940916,3.608924,6,P-GPS,
13000,2025-01-25 04:05:26,0,0,3.608924,,,1060.0312940916,3.937008,0.9171454,0,0,15,2,11.019,1060.3593780916,3.937008,4.4067718,0,0.894776,0.223694,0,292.4, 0.3, 1.1,0,0,1024,1377,1024,1024,0,53,0,0,305.1,0,0,95,3.695,3.652,3.649,0,0,0,10.742,59.18,1060.0312940916,3.608924,6,P-GPS,
13100,2025-01-25 04:05:26,0,0,3.608924,,,1060.0312940916,3.937008,0.9171454,0,0,16,2,11.019,1060.3593780916,3.937008,4.4067718,0,0.894776,0.223694,0,293, 0.3, 3.5,0,0,1024,1340,1024,1024,0,48,0,0,305.1,0,0,95,3.695,3.652,3.649,0,0,0,10.742,59.18,1060.0312940916,3.608924,6,P-GPS,
13200,2025-01-25 04:05:27,0,0,3.608924,,,1060.0312940916,3.937008,1.006623,0,0,16,2,11.019,1060.3593780916,3.937008,4.4067718,0,0.894776,0.447388,0,293.6, 0.5, 7.1,0,0,1024,1324,1024,1024,0,45,0,0,305.1,0,0,95,3.695,3.652,3.649,0,0,0,10.742,59.18,1060.0312940916,3.608924,6,P-GPS,
13300,2025-01-25 04:05:27,0,0,3.608924,,,1060.0312940916,3.937008,1.2079476,0,0,16,2,10.985,1060.3593780916,3.937008,4.4067718,0,1.11847,0.447388,0,294.4, 0.8, 7.6,0,0,1024,1314,1024,1024,0,44,0,0,305.1,0,0,95,3.671,3.618,3.613,0,0,0,11.153,59.36,1060.0312940916,3.608924,6,P-GPS,
13400,2025-01-25 04:05:27,0,0,3.608924,,,1060.0312940916,3.937008,1.4092722,0,0,16,2,10.985,1060.3593780916,3.937008,4.4067718,0,1.342164,0.447388,0,295.1, 1, 6.6,0,0,1024,1355,1024,1024,0,50,0,0,305.1,0,0,95,3.671,3.618,3.613,0,0,0,11.153,59.36,1060.0312940916,3.608924,6,P-GPS,
13500,2025-01-25 04:05:27,0,0,3.608924,,,1060.0312940916,3.937008,1.7000744,0,0,16,2,10.985,1060.3593780916,3.937008,4.4067718,0,1.565858,0.671082,0,295.3, 1.2, 7.8,0,0,1024,1354,1024,1024,0,50,0,0,305.1,0,0,95,3.671,3.618,3.613,0,0,0,11.153,59.36,1060.0312940916,3.608924,6,P-GPS,
13600,2025-01-25 04:05:27,37.0153698113421,140.148860011702,3.608924,,,1060.0312940916,3.937008,1.901399,0,0,16,2,10.985,1060.3593780916,3.937008,4.4067718,0,1.789552,0.671082,0,295.4, 1.1, 9.3,0,0,1024,1336,1024,1024,0,47,0,0,305.1,0,0,95,3.671,3.618,3.613,0,0,0,11.153,59.36,1060.0312940916,3.608924,6,P-GPS,
13700,2025-01-25 04:05:27,37.0153706381397,140.14886049983,3.608924,,,1060.0312940916,3.937008,2.1922012,0.33349410516,0.33349410516,15,2,10.985,1060.3593780916,3.937008,4.4067718,0.33349410516,2.013246,0.894776,0,295.9, 0.5, 9.3,0,0,1024,1338,1024,1024,0,48,0,0,305.1,0,0,95,3.671,3.618,3.613,0,0,0,11.153,59.36,1060.0312940916,3.608924,6,P-GPS,"GNSSがありません。慎重に飛行してください GNSS信号が微弱です。ホバリングが不安定です。慎重に飛行してください (Code: 30002)"
13800,2025-01-25 04:05:27,37.0153715239363,140.14886114731,3.608924,,,1060.0312940916,3.937008,2.5053728,0.70701445832,0.70769687304,15,2,10.985,1060.3593780916,3.937008,4.4067718,0.70701445832,2.23694,1.11847,0,296.3, 0.3, 8.4,0,0,1024,1325,1024,1024,0,46,0,0,305.1,0,0,95,3.671,3.618,3.613,0,0,0,11.153,59.36,1060.0312940916,3.608924,6,P-GPS,
13900,2025-01-25 04:05:27,37.0153725549867,140.148861781345,3.608924,,,1060.0312940916,3.937008,2.7066974,1.12597116464,1.12677497044,17,2,10.985,1060.3593780916,3.937008,4.4067718,1.12597116464,2.460634,1.11847,0,296.2, 0.5, 7.5,0,0,1024,1325,1024,1024,0,46,0,0,305.1,0,0,95,3.671,3.618,3.613,0,0,0,11.153,59.36,1060.0312940916,3.608924,6,P-GPS,
14000,2025-01-25 04:05:27,37.0153735689977,140.148862375568,3.608924,,,1060.0312940916,3.937008,2.9974996,1.53421592836,1.53523298876,17,2,10.985,1060.3593780916,3.937008,4.4067718,1.53421592836,2.684328,1.342164,0,295.7, 0.4, 6.2,0,0,1024,1322,1024,1024,0,45,0,0,305.1,0,0,95,3.671,3.618,3.613,0,0,0,11.153,59.36,1060.0312940916,3.608924,6,P-GPS,
14100,2025-01-25 04:05:27,37.0153747237006,140.148863126239,3.608924,,,1060.0312940916,3.937008,3.1988242,2.00885505116,2.00990491996,16,2,10.985,1060.3593780916,3.937008,4.4067718,2.00885505116,2.908022,1.342164,0,295.4, -0.4, 5.5,0,0,1024,1024,1024,1024,0,0,0,0,305.1,0,0,95,3.671,3.618,3.613,0,0,0,11.153,59.36,1060.0312940916,3.608924,6,P-GPS,
14200,2025-01-25 04:05:28,37.0153758846566,140.14886386065,3.608924,,,1060.0312940916,3.937008,3.3106712,2.48339574876,2.48444561756,16,2,10.985,1060.3593780916,3.937008,4.4067718,2.48339574876,2.908022,1.565858,0,295.3, -0.5, -0.4,0,0,1024,1024,1024,1024,0,0,0,0,305.1,0,0,95,3.671,3.618,3.613,0,0,0,11.153,59.36,1060.0312940916,3.608924,6,P-GPS,
14300,2025-01-25 04:05:28,37.0153770853839,140.148864642727,3.608924,,,1060.0312940916,3.937008,3.1988242,2.97715888792,2.97823500344,18,2,10.988,1060.3593780916,3.937008,4.4067718,2.97715888792,2.908022,1.342164,0,294.7, -0.3, -11.8,0,0,1024,1024,1024,1024,0,0,0,0,305.1,0,0,95,3.685,3.642,3.643,0,0,0,11.446,59.54,1060.0312940916,3.608924,6,P-GPS,
14400,2025-01-25 04:05:28,37.015378131127,140.148865348874,3.608924,,,1060.0312940916,3.937008,2.5053728,3.4104987968,3.4117127076,18,5,10.988,1060.3593780916,3.937008,4.4067718,3.4104987968,2.23694,1.11847,0,292.9, -0.5, -15.2,0,0,1024,1024,1024,1024,0,0,0,0,305.1,0,0,95,3.685,3.642,3.643,0,0,0,11.446,59.54,1060.0312940916,3.608924,6,P-GPS,"Setting new Maximum Flight Altitude to 145m (476 ft)"
14500,2025-01-25 04:05:28,37.0153788970925,140.148865901854,3.608924,,,1060.0312940916,3.937008,1.8119214,3.7327100932,3.734252088,18,5,10.988,1060.3593780916,3.937008,4.4067718,3.7327100932,1.565858,0.894776,0,291.6, -0.7, -11.2,0,0,1024,1024,1024,1024,0,0,0,0,305.1,0,0,95,3.685,3.642,3.643,0,0,0,11.446,59.54,1060.0312940916,3.608924,6,P-GPS,
14600,2025-01-25 04:05:28,37.0153795760648,140.14886633495,3.608924,,,1060.0312940916,3.937008,1.8119214,4.0107284748,4.0122704696,18,5,10.988,1060.3593780916,3.937008,4.4067718,4.0107284748,1.11847,0.671082,0,291.2, -0.6, -7.2,0,0,1024,1024,1024,1024,0,0,0,0,305.1,0,0,95,3.685,3.642,3.643,0,0,0,11.446,59.54,1060.0312940916,3.608924,6,P-GPS,
14700,2025-01-25 04:05:28,37.0153800023283,140.148866705352,3.608924,,,1060.0312940916,3.937008,1.8119214,4.198490948,4.2015749376,16,5,10.988,1060.3593780916,3.937008,4.4067718,4.198490948,0.894776,0.671082,0,291.2, -0.9, -5.8,0,0,1024,1024,1024,1024,0,0,0,0,305.1,0,0,95,3.685,3.642,3.643,0,0,0,11.446,59.54,1060.0312940916,3.608924,6,P-GPS,
14800,2025-01-25 04:05:28,37.0153804355899,140.148867078084,3.608924,,,1060.0312940916,3.937008,1.8119214,4.3889765184,4.3933400356,16,5,10.988,1060.3593780916,3.937008,4.4067718,4.3889765184,0.671082,0.447388,0,291.6, -1, -5,0,0,1024,1024,1024,1024,0,0,0,0,305.1,0,0,95,3.685,3.642,3.643,0,0,0,11.446,59.54,1060.0312940916,3.608924,6,P-GPS,
14900,2025-01-25 04:05:28,37.0153806682202,140.148867331541,3.608924,,,1060.0312940916,3.937008,1.8119214,4.4986549996,4.5058400392,18,5,10.988,1060.3593780916,3.937008,4.4067718,4.4986549996,0.447388,0.447388,0,292.1, -0.7, -3.9,0,0,1024,1024,1024,1024,0,0,0,0,305.1,0,0,95,3.685,3.642,3.643,0,0,0,11.446,59.54,1060.0312940916,3.608924,6,P-GPS,
15000,2025-01-25 04:05:28,37.0153812750008,140.148867801067,3.608924,,,1060.0312940916,3.937008,1.8119214,4.7584319108,4.766076268,18,5,10.988,1060.3593780916,3.937008,4.4067718,4.7584319108,0.223694,0.223694,0,292.5, -0.9, -3,0,0,1024,1024,1024,1024,0,0,0,0,305.1,0,0,95,3.685,3.642,3.643,0,0,0,11.446,59.54,1060.0312940916,3.608924,6,P-GPS,
15100,2025-01-25 04:05:28,37.015381401922,140.148867986178,3.608924,,,1060.0312940916,3.937008,0.223694,4.8249345376,4.8371392624,18,5,10.988,1060.3593780916,3.937008,4.4067718,4.8249345376,0,0.223694,0,292.8, -1.4, -1.8,0,0,1024,1024,1024,1024,0,0,0,0,305.1,0,0,95,3.685,3.642,3.643,0,0,0,11.446,59.54,1060.0312940916,3.608924,6,P-GPS,
15200,2025-01-25 04:05:28,37.0153816914858,140.148868211785,3.608924,,,1060.0312940916,3.937008,0.223694,4.9491799484,4.9615815236,18,5,10.988,1060.3593780916,3.937008,4.4067718,4.9491799484,0,0,0,293.2, -1.3, -0.3,0,0,1023,1100,1024,1024,-0,12,0,0,305.1,0,0,95,3.685,3.642,3.643,0,0,0,11.446,59.54,1060.0312940916,3.608924,6,P-GPS,
15300,2025-01-25 04:05:29,37.0153817667152,140.14886833782,3.608924,,,1060.0312940916,3.937008,0,4.99097785,5.0074148584,18,5,10.967,1060.3593780916,3.937008,4.4067718,4.99097785,0,0,0,293.5, -0.8, 0.8,0,0,1024,1253,1024,1024,0,35,0,0,305.1,0,0,95,3.687,3.642,3.634,0,0,0,11.136,59.54,1060.0312940916,3.608924,6,P-GPS,
15400,2025-01-25 04:05:29,37.015381478658,140.148868886729,3.608924,,,1060.0312940916,3.937008,0,4.980479162,5.1987534472,18,5,10.967,1060.3593780916,3.937008,4.4067718,4.99097785,0,0,0,293.6, -0.6, 1.9,0,0,1024,1268,1024,1024,0,37,0,0,305.1,0,0,95,3.687,3.642,3.634,0,0,0,11.136,59.54,1060.0312940916,3.608924,6,P-GPS,
15500,2025-01-25 04:05:29,37.0153815233594,140.148869060063,3.608924,,,1060.0312940916,3.937008,0,5.0207678772,5.2518374384,18,5,10.967,1060.3593780916,3.937008,4.4067718,5.0207678772,0,0,0,293.7, -0.8, 3.9,0,0,1024,1326,1024,1024,0,46,0,0,305.1,0,0,95,3.687,3.642,3.634,0,0,0,11.136,59.54,1060.0312940916,3.608924,6,P-GPS,
15600,2025-01-25 04:05:29,37.0153814163898,140.148868739567,3.608924,,,1060.0312940916,3.937008,0.223694,4.9388781108,5.353018544,18,5,10.967,1060.3593780916,3.937008,4.4067718,5.0207678772,0,0.223694,0,294, -0.9, 5.6,0,0,1024,1329,1024,1024,0,46,0,0,305.1,0,0,95,3.687,3.642,3.634,0,0,0,11.136,59.54,1060.0312940916,3.608924,6,P-GPS,
15700,2025-01-25 04:05:29,37.0153815391155,140.148868921473,3.608924,,,1060.0312940916,3.937008,0.223694,5.004593336,5.42240831,18,5,10.967,1060.3593780916,3.937008,4.4067718,5.0207678772,0.223694,0.223694,0,294.2, -0.9, 7,0,0,1024,1348,1024,1024,0,49,0,0,305.1,0,0,95,3.687,3.642,3.634,0,0,0,11.136,59.54,1060.0312940916,3.608924,6,P-GPS,
15800,2025-01-25 04:05:29,37.0153816241954,140.148869059606,3.608924,,,1060.0312940916,3.937008,0.4921268,5.0520342824,5.4732285216,18,5,10.967,1060.3593780916,3.937008,4.4067718,5.0520342824,0.447388,0.223694,0,294.4, -1, 8.3,0,0,1024,1340,1024,1024,0,48,0,0,305.1,0,0,95,3.687,3.642,3.634,0,0,0,11.136,59.54,1060.0312940916,3.608924,6,P-GPS,
15900,2025-01-25 04:05:29,37.0153818995773,140.148869326441,3.608924,,,1060.0312940916,3.937008,0.8052984,5.178313814,5.6002626464,18,5,10.967,1060.3593780916,3.937008,4.4067718,5.178313814,0.671082,0.447388,0,294.7, -1.1, 9.5,0,0,1024,1341,1024,1024,0,48,0,0,305.1,0,0,95,3.687,3.642,3.634,0,0,0,11.136,59.54,1060.0312940916,3.608924,6,P-GPS,
16000,2025-01-25 04:05:29,37.015382143898,140.148869525954,3.608924,,,1060.0312940916,3.937008,1.006623,5.2847114552,5.706693096,18,5,10.967,1060.3593780916,3.937008,4.4067718,5.2847114552,0.894776,0.447388,0,295.1, -1.2, 10.3,0,0,1024,1339,1024,1024,0,48,0,0,305.1,0,0,95,3.687,3.642,3.634,0,0,0,11.136,59.54,1060.0312940916,3.608924,6,P-GPS,
16100,2025-01-25 04:05:29,37.0153826227069,140.14886989985,3.608924,,,1060.0312940916,3.937008,1.006623,5.4905841652,5.9125329976,18,5,10.967,1060.3593780916,3.937008,4.4067718,5.4905841652,1.11847,0.671082,0,295.4, -1.2, 10.5,0,0,1024,1329,1024,1024,0,46,0,0,305.1,0,0,95,3.687,3.642,3.634,0,0,0,11.136,59.54,1060.0312940916,3.608924,6,P-GPS,
16200,2025-01-25 04:05:30,37.0153827897903,140.148870082203,3.608924,,,1060.0312940916,3.937008,1.8119214,5.570374194,5.9934057036,18,5,10.967,1060.3593780916,3.937008,4.4067718,5.570374194,1.565858,0.894776,0,295.7, -1.1, 10.3,0,0,1024,1322,1024,1024,0,45,0,0,305.1,0,0,95,3.687,3.642,3.634,0,0,0,11.136,59.54,1060.0312940916,3.608924,6,P-GPS,"ホームポイントを更新。RTH高度が 100mに調整されました。 (Code: 3000001)"
16300,2025-01-25 04:05:30,37.0153834561192,140.148870563746,3.608924,,,1060.0312940916,3.937008,1.8119214,5.8509188224,6.2740815656,18,5,10.967,1060.3593780916,3.937008,4.4067718,5.8509188224,1.789552,0.894776,0,295.8, -1.1, 9.7,0,0,1024,1322,1024,1024,0,45,0,0,305.1,0,0,95,3.687,3.642,3.634,0,0,0,11.136,59.54,1060.0312940916,3.608924,6,P-GPS,
16400,2025-01-25 04:05:30,37.0153839528987,140.148870893385,3.608924,,,1060.0312940916,3.937008,1.8119214,6.05561043,6.4791996824,18,5,10.967,1060.3593780916,3.937008,4.4067718,6.05561043,2.013246,1.11847,0,295.7, -1.2, 9.1,0,0,1024,1322,1024,1024,0,45,0,0,305.1,0,0,95,3.687,3.642,3.634,0,0,0,11.136,59.54,1060.0312940916,3.608924,6,P-GPS,
16500,2025-01-25 04:05:30,37.0153847826348,140.148871478889,3.608924,,,1060.0312940916,3.937008,2.5053728,6.4028217272,6.8266734468,17,5,10.984,1060.3593780916,3.937008,4.4067718,6.4028217272,2.23694,1.11847,0,295.7, -1.3, 8.7,0,0,1024,1322,1024,1024,0,45,0,0,305.1,0,0,95,3.686,3.643,3.642,0,0,0,11.049,59.72,1060.0312940916,3.608924,6,P-GPS,
16600,2025-01-25 04:05:30,37.0153856601189,140.148872101678,3.608924,,,1060.0312940916,3.937008,2.796175,6.7706366996,7.1946524612,17,5,10.984,1060.3593780916,3.937008,4.4067718,6.7706366996,2.460634,1.342164,0,295.5, -1.5, 8.6,0,0,1024,1311,1024,1024,0,43,0,0,305.1,0,0,95,3.686,3.643,3.642,0,0,0,11.049,59.72,1060.0312940916,3.608924,6,P-GPS,
16700,2025-01-25 04:05:30,37.0153866420513,140.148872786,3.608924,,,1060.0312940916,3.937008,2.796175,7.1803151904,7.604659036,15,5,10.984,1060.3593780916,3.937008,4.4067718,7.1803151904,2.460634,1.342164,0,295.3, -1.7, 8,0,0,1024,1307,1024,1024,0,43,0,0,305.1,0,0,95,3.686,3.643,3.642,0,0,0,11.049,59.72,1060.0312940916,3.608924,6,P-GPS,飛行中
16800,2025-01-25 04:05:30,37.0153872805448,140.148873233028,3.608924,,,1060.0312940916,3.937008,2.9974996,7.4470474824,7.87155537,15,5,10.984,1060.3593780916,3.937008,4.4067718,7.4470474824,2.684328,1.342164,0,295, -1.9, 7.3,0,0,1024,1314,1024,1024,0,44,0,0,305.1,0,0,95,3.686,3.643,3.642,0,0,0,11.049,59.72,1060.0312940916,3.608924,6,P-GPS,
16900,2025-01-25 04:05:30,37.0153883497314,140.14887395824,3.608924,,,1060.0312940916,3.937008,2.9974996,7.8902233496,8.3151577464,16,5,10.984,1060.3593780916,3.937008,4.4067718,7.8902233496,2.908022,1.565858,0,294.9, -1.7, 7.1,0,0,1024,1320,1024,1024,0,45,0,0,305.1,0,0,95,3.686,3.643,3.642,0,0,0,11.049,59.72,1060.0312940916,3.608924,6,P-GPS,
17000,2025-01-25 04:05:30,37.0153892370285,140.148874771776,3.608924,,,1060.0312940916,3.937008,3.3106712,8.2898296616,8.71637167,16,5,10.984,1060.3593780916,3.937008,4.4067718,8.2898296616,2.908022,1.565858,0,294.7, -1.5, 7.2,0,0,1024,1299,1024,1024,0,42,0,0,305.1,0,0,95,3.686,3.643,3.642,0,0,0,11.049,59.72,1060.0312940916,3.608924,6,P-GPS,
17100,2025-01-25 04:05:30,37.0153903898141,140.148875565965,3.608924,,,1060.0312940916,3.937008,3.5119958,8.7694556612,9.1964241788,16,5,10.984,1060.3593780916,3.937008,4.4067718,8.7694556612,3.131716,1.565858,0,294.6, -1.7, 6.7,0,0,1024,1301,1024,1024,0,42,0,0,305.1,0,0,95,3.686,3.643,3.642,0,0,0,11.049,59.72,1060.0312940916,3.608924,6,P-GPS,
17200,2025-01-25 04:05:31,37.0153915914078,140.148876945898,3.608924,,,1060.0312940916,3.937008,3.7133204,9.3532811392,9.7912404708,16,5,10.984,1060.3593780916,3.937008,4.4067718,9.3532811392,3.35541,1.565858,0,294.6, -1.8, 6.1,0,0,1024,1299,1024,1024,0,42,0,0,305.1,0,0,95,3.686,3.643,3.642,0,0,0,11.049,59.72,1060.0312940916,3.608924,6,P-GPS,
17300,2025-01-25 04:05:31,37.0153928249847,140.148877848018,3.608924,,,1060.0312940916,3.937008,3.802798,9.8742785312,10.3124019048,17,5,10.984,1060.3593780916,3.937008,4.4067718,9.8742785312,3.35541,1.789552,0,294.4, -1.6, 5.8,0,0,1024,1292,1024,1024,0,41,0,0,305.1,0,0,95,3.686,3.643,3.642,0,0,0,11.049,59.72,1060.0312940916,3.608924,6,P-GPS,
17400,2025-01-25 04:05:31,37.0153943555023,140.148878530675,3.608924,,,1060.0312940916,3.937008,3.802798,10.4544950852,10.905184076,17,5,10.984,1060.3593780916,3.937008,4.4067718,10.4544950852,3.35541,1.789552,0,294.3, -1.8, 5.1,0,0,1024,1292,1024,1024,0,41,0,0,305.1,0,0,95,3.686,3.643,3.642,0,0,0,11.049,59.72,1060.0312940916,3.608924,6,P-GPS,
17500,2025-01-25 04:05:31,37.0153956615716,140.148879481002,3.608924,,,1060.0312940916,3.937008,4.0041226,11.0055449716,11.4562667708,17,5,10.984,1060.3593780916,3.937008,4.4067718,11.0055449716,3.579104,1.789552,0,294.2, -2.4, 4.5,0,0,1013,1246,1024,1024,-2,34,0,0,305.1,0,0,95,3.686,3.643,3.642,0,0,0,11.049,59.72,1060.0312940916,3.608924,6,P-GPS,
17600,2025-01-25 04:05:31,37.015396865022,140.148880345643,3.608924,,,1060.0312940916,3.937008,4.0041226,11.51164735,11.9624675744,17,5,10.968,1060.3593780916,3.937008,4.4067718,11.51164735,3.579104,1.789552,0,294.3, -2.7, 4.1,0,0,1024,1235,1024,1024,0,32,0,0,305.1,0,0,95,3.684,3.641,3.64,0,0,0,10.962,60.08,1060.0312940916,3.608924,6,P-GPS,
17700,2025-01-25 04:05:31,37.0153981957652,140.148881308429,3.608924,,,1060.0312940916,3.937008,4.1159696,12.0722772892,12.5231959388,17,5,10.968,1060.3593780916,3.937008,4.4067718,12.0722772892,3.579104,2.013246,0,294.2, -2.4, 2.9,0,0,1024,1024,1024,1024,0,0,0,0,305.1,0,0,95,3.684,3.641,3.64,0,0,0,10.962,60.08,1060.0312940916,3.608924,6,P-GPS,
17800,2025-01-25 04:05:31,37.0153998409656,140.148882648674,3.608924,,,1060.0312940916,3.937008,4.1159696,12.78789411,13.2392720772,17,5,10.968,1060.3593780916,3.937008,4.4067718,12.78789411,3.579104,2.013246,0,294.1, -2.6, -1.5,0,0,1024,1024,1024,1024,0,0,0,0,305.1,0,0,95,3.684,3.641,3.64,0,0,0,10.962,60.08,1060.0312940916,3.608924,6,P-GPS,
17900,2025-01-25 04:05:31,37.0154011877818,140.148883660408,3.608924,,,1060.0312940916,3.937008,3.802798,13.360892816,13.8122707832,17,5,10.968,1060.3593780916,3.937008,4.4067718,13.360892816,3.35541,1.789552,0,294.2, -2.9, -13,0,0,1024,1024,1024,1024,0,0,0,0,305.1,0,0,95,3.684,3.641,3.64,0,0,0,10.962,60.08,1060.0312940916,3.608924,6,P-GPS,
18000,2025-01-25 04:05:31,37.0154026014813,140.148884661309,3.608924,,,1060.0312940916,3.937008,3.3106712,13.9531828612,14.4047576788,17,5,10.968,1060.3593780916,3.937008,4.4067718,13.9531828612,2.908022,1.565858,0,293, -3, -17.6,0,0,1024,1024,1024,1024,0,0,0,0,305.1,0,0,95,3.684,3.641,3.64,0,0,0,10.962,60.08,1060.0312940916,3.608924,6,P-GPS,
18100,2025-01-25 04:05:31,37.0154034813554,140.148885405097,3.608924,,,1060.0312940916,3.937008,2.3040482,14.3399610888,14.7920608408,17,5,10.968,1060.3593780916,3.937008,4.4067718,14.3399610888,2.013246,1.11847,0,292, -2.9, -12.7,0,0,1024,1024,1024,1024,0,0,0,0,305.1,0,0,95,3.684,3.641,3.64,0,0,0,10.962,60.08,1060.0312940916,3.608924,6,P-GPS,
18200,2025-01-25 04:05:32,37.0154043687659,140.148886327428,3.608924,,,1060.0312940916,3.937008,1.9237684,14.756070026,15.2127957624,17,5,10.968,1060.3593780916,3.937008,4.4067718,14.756070026,1.565858,1.11847,0,291.8, -3.2, -8.3,0,0,1024,1024,1024,1024,0,0,0,0,305.1,0,0,95,3.684,3.641,3.64,0,0,0,10.962,60.08,1060.0312940916,3.608924,6,P-GPS,
18300,2025-01-25 04:05:32,37.0154049038509,140.148886890608,3.608924,,,1060.0312940916,3.937008,1.6105968,15.0081697716,15.4678154556,14,5,10.968,1060.3593780916,3.937008,4.4067718,15.0081697716,1.342164,0.894776,0,292.5, -3.2, -8.4,0,0,1024,1024,1024,1024,0,0,0,0,305.1,0,0,95,3.684,3.641,3.64,0,0,0,10.962,60.08,1060.0312940916,3.608924,6,P-GPS,
18400,2025-01-25 04:05:32,37.0154058177533,140.148887738115,3.608924,,,1060.0312940916,3.937008,1.11847,15.4214899948,15.882710482,14,5,10.968,1060.3593780916,3.937008,4.4067718,15.4214899948,0.894776,0.671082,0,292.7, -3.1, -7.7,0,0,1024,1024,1024,1024,0,0,0,0,305.1,0,0,95,3.684,3.641,3.64,0,0,0,10.962,60.08,1060.0312940916,3.608924,6,P-GPS,
18500,2025-01-25 04:05:32,37.0154061458913,140.148888185479,3.608924,,,1060.0312940916,3.937008,0.9395148,15.5917983992,16.0596789916,14,5,10.968,1060.3593780916,3.937008,4.4067718,15.5917983992,0.671082,0.671082,0,292.6, -2.9, -6,0,0,1024,1024,1024,1024,0,0,0,0,305.1,0,0,95,3.684,3.641,3.64,0,0,0,10.962,60.08,1060.0312940916,3.608924,6,P-GPS,
18600,2025-01-25 04:05:32,37.015407161599,140.148889051266,3.608924,,,1060.0312940916,3.937008,0.6263432,16.0396658676,16.5079729692,14,5,10.963,1060.3593780916,3.937008,4.4067718,16.0396658676,0.447388,0.447388,0,292.8, -2.8, -4.9,0,0,1024,1024,1024,1024,0,0,0,0,305.1,0,0,95,3.667,3.628,3.631,0,0,0,11.091,60.26,1060.0312940916,3.608924,6,P-GPS,
18700,2025-01-25 04:05:32,37.0154073944296,140.148889454193,3.608924,,,1060.0312940916,3.937008,0.4921268,16.1738522236,16.6528548636,14,5,10.963,1060.3593780916,3.937008,4.4067718,16.1738522236,0.223694,0.447388,0,293, -3.1, -4.1,0,0,1024,1024,1024,1024,0,0,0,0,305.1,0,0,95,3.667,3.628,3.631,0,0,0,11.091,60.26,1060.0312940916,3.608924,6,P-GPS,
18800,2025-01-25 04:05:32,37.0154075966048,140.14888981536,3.608924,,,1060.0312940916,3.937008,0.4921268,16.2922577392,16.7813653664,14,5,10.963,1060.3593780916,3.937008,4.4067718,16.2922577392,0.223694,0.447388,0,293.2, -3.4, -2.7,0,0,1024,1024,1024,1189,0,0,0,25,305.1,0,0,95,3.667,3.628,3.631,0,0,0,11.091,60.26,1060.0312940916,3.608924,6,P-GPS,
18900,2025-01-25 04:05:32,37.0154077367282,140.148890157091,3.608924,,,1060.0312940916,3.937008,0.3131716,16.3886488184,16.8932748188,16,5,10.963,1060.3593780916,3.937008,4.4067718,16.3886488184,0.223694,0.223694,0,293.6, -3, -2.1,0,0,1024,1024,1024,1394,0,0,0,56,305.3,0,0,95,3.667,3.628,3.631,0,0,0,11.091,60.26,1060.0312940916,3.608924,6,P-GPS,
19000,2025-01-25 04:05:32,37.0154082748713,140.148890246977,3.608924,,,1060.0312940916,3.937008,0.223694,16.5686685092,17.0913391296,16,5,10.963,1060.3593780916,3.937008,4.4067718,16.5686685092,0,0.223694,0,294.3, -2.6, -2.1,0,0,1024,1024,1024,1533,0,0,0,77,305.9,0,0,95,3.667,3.628,3.631,0,0,0,11.091,60.26,1060.0312940916,3.608924,6,P-GPS,
19100,2025-01-25 04:05:32,37.01540841293,140.148890545692,3.608924,,,1060.0312940916,3.937008,0.223694,16.6576776984,17.1918968756,16,5,10.963,1060.3593780916,3.937008,4.4067718,16.6576776984,0,0.223694,0,295.3, -2.7, -2.1,0,0,1024,1024,1024,1559,0,0,0,81,307.3,0,0,95,3.667,3.628,3.631,0,0,0,11.091,60.26,1060.0312940916,3.608924,6,P-GPS,
19200,2025-01-25 04:05:33,37.0154083596888,140.148890584432,3.608924,,,1060.0312940916,3.937008,0.223694,16.6472774356,17.2143706296,16,5,10.963,1060.3593780916,3.937008,4.4067718,16.6576776984,0,0.223694,0,296.9, -2.9, -1.5,0,0,1024,1024,1024,1575,0,0,0,83,309.4,0,0,95,3.667,3.628,3.631,0,0,0,11.091,60.26,1060.0312940916,3.608924,6,P-GPS,
19300,2025-01-25 04:05:33,37.0154084405572,140.148890830885,3.608924,,,1060.0312940916,3.937008,0.223694,16.7106960728,17.291995304,16,5,10.963,1060.3593780916,3.937008,4.4067718,16.7106960728,0,0.223694,0,299, -3.3, -1.1,0,0,1024,1024,1024,1575,0,0,0,83,311.8,0,0,95,3.667,3.628,3.631,0,0,0,11.091,60.26,1060.0312940916,3.608924,6,P-GPS,
19400,2025-01-25 04:05:33,37.0154083320659,140.148890748869,3.608924,,,1060.0312940916,3.937008,0.223694,16.6644690372,17.3382223396,16,5,10.963,1060.3593780916,3.937008,4.4067718,16.7106960728,0,0.223694,0,301.5, -4, -2,0,0,1024,1024,1024,1570,0,0,0,83,314.4,0,0,95,3.667,3.628,3.631,0,0,0,11.091,60.26,1060.0312940916,3.608924,6,P-GPS,
19500,2025-01-25 04:05:33,37.0154084138852,140.148890937158,3.608924,,,1060.0312940916,3.937008,0,16.7191278316,17.4006567248,16,5,10.963,1060.3593780916,3.937008,4.4067718,16.7191278316,0,0,0,304.1, -3.6, -2.9,0,0,1024,1024,1024,1512,0,0,0,74,317,0,0,95,3.667,3.628,3.631,0,0,0,11.091,60.26,1060.0312940916,3.608924,6,P-GPS,
19600,2025-01-25 04:05:33,37.0154084730287,140.148890932144,3.608924,,,1060.0312940916,3.937008,0,16.7365162836,17.4223102688,16,5,10.973,1060.3593780916,3.937008,4.4067718,16.7365162836,0,0,0,306.7, -3, -2.2,0,0,1024,1024,1024,1385,0,0,0,55,319.6,0,0,95,3.688,3.645,3.645,0,0,0,10.717,60.26,1060.0312940916,3.608924,6,P-GPS,
19700,2025-01-25 04:05:33,37.0154085372437,140.148891043589,3.608924,,,1060.0312940916,3.937008,0,16.7737538176,17.4623365168,16,5,10.973,1060.3593780916,3.937008,4.4067718,16.7737538176,0,0,0,309.2, -2.9, -1.3,0,0,1024,1024,1024,1385,0,0,0,55,322.2,0,0,95,3.688,3.645,3.645,0,0,0,10.717,60.26,1060.0312940916,3.608924,6,P-GPS,
19800,2025-01-25 04:05:33,37.0154085076805,140.148890946531,3.608924,,,1060.0312940916,3.937008,0,16.7494427932,17.4925858616,16,5,10.973,1060.3593780916,3.937008,4.4067718,16.7737538176,0,0,0,311.4, -2.7, -1.7,0,0,1024,1024,1024,1024,0,0,0,0,324.3,0,0,95,3.688,3.645,3.645,0,0,0,10.717,60.26,1060.0312940916,3.608924,6,P-GPS,
19900,2025-01-25 04:05:33,37.0154085867927,140.148891038722,3.608924,,,1060.0312940916,3.937008,0,16.788222322,17.5320215584,16,5,10.973,1060.3593780916,3.937008,4.4067718,16.788222322,0,0,0,312.9, -2.4, -2.9,0,0,1024,1024,1024,1024,0,0,0,0,325.5,0,0,95,3.688,3.645,3.645,0,0,0,10.717,60.26,1060.0312940916,3.608924,6,P-GPS,
20000,2025-01-25 04:05:33,37.0154087099842,140.148891096716,3.608924,,,1060.0312940916,3.937008,0,16.8352039508,17.580053056,16,5,10.973,1060.3593780916,3.937008,4.4067718,16.8352039508,0,0,0,313.7, -2.5, -2.9,0,0,1024,1181,1024,1024,0,24,0,0,326,0,0,95,3.688,3.645,3.645,0,0,0,10.717,60.26,1060.0312940916,3.608924,6,P-GPS,
