time(millisecond),datetime(utc),latitude,longitude,height_above_takeoff(feet),height_above_ground_at_drone_location(feet),ground_elevation_at_drone_location(feet),altitude_above_seaLevel(feet),height_sonar(feet),speed(mph),distance(feet),mileage(feet),satellites,gpslevel,voltage(v),max_altitude(feet),max_ascent(feet),max_speed(mph),max_distance(feet), xSpeed(mph), ySpeed(mph), zSpeed(mph), compass_heading(degrees), pitch(degrees), roll(degrees),isPhoto,isVideo,rc_elevator,rc_aileron,rc_throttle,rc_rudder,rc_elevator(percent),rc_aileron(percent),rc_throttle(percent),rc_rudder(percent),gimbal_heading(degrees),gimbal_pitch(degrees),gimbal_roll(degrees),battery_percent,voltageCell1,voltageCell2,voltageCell3,voltageCell4,voltageCell5,voltageCell6,current(A),battery_temperature(f),altitude(feet),ascent(feet),flycStateRaw,flycState,message
0,2025-01-25 03:35:57,0,0,0,Available with any HD 360 subscription,Available with any HD 360 subscription,1055.9468845121,0.328084,0,0,0,0,0,0,1055.9468845121,0,0,0,0,0,0,314.2, -1.6, -2,0,0,1024,1024,1024,1024,0,0,0,0,313.3,0,0,95,3.906,3.886,3.9,0,0,0,0,55.4,1055.9468845121,0,41,Motors_Started,
100,2025-01-25 03:35:57,0,0,0,,,1055.9468845121,0.328084,0,0,0,0,0,0,1055.9468845121,0,0,0,0,0,0,314.2, -1.7, -2,0,0,1024,1024,1024,1024,0,0,0,0,313.3,0,0,95,3.906,3.886,3.9,0,0,0,0,55.4,1055.9468845121,0,41,Motors_Started,
200,2025-01-25 03:35:58,0,0,0,,,1055.9468845121,0.328084,0,0,0,0,0,0,1055.9468845121,0,0,0,0,0,0,314.2, -1.6, -2,0,0,1024,1024,1024,1024,0,0,0,0,313.3,0,0,95,3.906,3.886,3.9,0,0,0,0,55.4,1055.9468845121,0,41,Motors_Started,
300,2025-01-25 03:35:58,0,0,0,,,1055.9468845121,0.328084,0,0,0,0,0,0,1055.9468845121,0,0,0,0,0,0,314.1, -1.7, -2,0,0,1024,1024,1024,1024,0,0,0,0,313.3,0,0,95,3.906,3.886,3.9,0,0,0,0,55.4,1055.9468845121,0,41,Motors_Started,"飛行中. Setting new Return-To-Home altitude to 100m (328 ft). Data Recorder File Index is 18. Setting new Maximum Flight Altitude to 30m (98 ft)"
400,2025-01-25 03:35:58,0,0,0,,,1055.9468845121,0.328084,0,0,0,0,0,0,1055.9468845121,0,0,0,0,0,0,314, -1.5, -1.9,0,0,1024,1024,1024,1024,0,0,0,0,313.3,0,0,95,3.906,3.886,3.9,0,0,0,0,55.4,1055.9468845121,0,41,Motors_Started,
500,2025-01-25 03:35:58,0,0,0,,,1055.9468845121,0.328084,0,0,0,0,0,0,1055.9468845121,0,0,0,0,0,0,314, -1.9, -2.1,0,0,1024,1024,1024,1024,0,0,0,0,313.3,0,0,95,3.906,3.886,3.9,0,0,0,0,55.4,1055.9468845121,0,41,Motors_Started,
600,2025-01-25 03:35:58,0,0,0,,,1055.9468845121,0.328084,0,0,0,0,0,0,1055.9468845121,0,0,0,0,0,0,313.9, -1.3, -1.9,0,0,1024,1024,1024,1024,0,0,0,0,313.3,0,0,95,3.906,3.886,3.9,0,0,0,0,55.4,1055.9468845121,0,41,Motors_Started,
700,2025-01-25 03:35:58,0,0,0,,,1055.9468845121,0.328084,0,0,0,0,0,0,1055.9468845121,0,0,0,0,0,0,314, -1.7, -1.9,0,0,1024,1024,1024,1024,0,0,0,0,313.3,0,0,95,3.906,3.886,3.9,0,0,0,0,55.4,1055.9468845121,0,41,Motors_Started,
800,2025-01-25 03:35:58,0,0,0,,,1055.9468845121,0.328084,0,0,0,0,0,0,1055.9468845121,0,0,0,0,0,0,313.9, -1.8, -2,0,0,1024,1024,1024,1024,0,0,0,0,313.3,0,0,95,3.906,3.886,3.9,0,0,0,0,55.4,1055.9468845121,0,41,Motors_Started,
900,2025-01-25 03:35:58,0,0,0,,,1055.9468845121,0.328084,0,0,0,0,0,0,1055.9468845121,0,0,0,0,0,0,313.8, -1.4, -2,0,0,1024,1024,1024,1024,0,0,0,0,313.2,0,0,95,3.906,3.886,3.9,0,0,0,0,55.4,1055.9468845121,0,41,Motors_Started,
1000,2025-01-25 03:35:58,0,0,0,,,1055.9468845121,0.328084,0,0,0,0,0,0,1055.9468845121,0,0,0,0,0,0,313.7, -1.5, -1.5,0,0,1024,1024,1024,1024,0,0,0,0,313.2,0,0,95,3.906,3.886,3.9,0,0,0,0,55.4,1055.9468845121,0,41,Motors_Started,
1100,2025-01-25 03:35:58,0,0,0,,,1055.9468845121,0.328084,0,0,0,0,0,0,1055.9468845121,0,0,0,0,0,0,312.6, -2.3, -2,0,0,1024,1024,1024,1024,0,0,0,0,313.2,0,0,95,3.906,3.886,3.9,0,0,0,0,55.4,1055.9468845121,0,41,Motors_Started,
1200,2025-01-25 03:35:59,0,0,0,,,1055.9468845121,0.328084,0,0,0,0,0,0,1055.9468845121,0,0,0,0,0,0,312.6, -2.2, -2,0,0,1024,1024,1024,1024,0,0,0,0,313.1,0,0,95,3.906,3.886,3.9,0,0,0,0,55.4,1055.9468845121,0,41,Motors_Started,
1300,2025-01-25 03:35:59,0,0,0,,,1055.9468845121,0.328084,0,0,0,0,0,0,1055.9468845121,0,0,0,0,0,0,312.5, -2.3, -2,0,0,1024,1024,1024,1024,0,0,0,0,313.1,0,0,95,3.906,3.886,3.9,0,0,0,0,55.4,1055.9468845121,0,41,Motors_Started,
1400,2025-01-25 03:35:59,0,0,0,,,1055.9468845121,0.328084,0,0,0,0,0,0,1055.9468845121,0,0,0,0,0,0,312.4, -2.2, -2,0,0,1024,1024,1024,1024,0,0,0,0,313,0,0,95,3.906,3.886,3.9,0,0,0,0,55.4,1055.9468845121,0,41,Motors_Started,
1500,2025-01-25 03:35:59,0,0,0,,,1055.9468845121,0.328084,0,0,0,0,0,11.681,1055.9468845121,0,0,0,0,0,0,312.4, -2, -2,0,0,1024,1024,1024,1024,0,0,0,0,312.9,0,0,95,3.906,3.886,3.9,0,0,0,3.845,55.4,1055.9468845121,0,11,AutoTakeoff,
1600,2025-01-25 03:35:59,0,0,0,,,1055.9468845121,0.328084,0,0,0,0,0,11.681,1055.9468845121,0,0,0,0,0,0,312.4, -2, -2,0,0,1024,1024,1024,1024,0,0,0,0,312.8,0,0,95,3.906,3.886,3.9,0,0,0,3.845,55.4,1055.9468845121,0,11,AutoTakeoff,
1700,2025-01-25 03:35:59,0,0,0,,,1055.9468845121,0.328084,0,0,0,0,0,11.681,1055.9468845121,0,0,0,0,0,0,312.3, -2, -1.9,0,0,1024,1024,1024,1024,0,0,0,0,312.7,0,0,95,3.906,3.886,3.9,0,0,0,3.845,55.4,1055.9468845121,0,11,AutoTakeoff,
1800,2025-01-25 03:35:59,0,0,0,,,1055.9468845121,0.328084,0,0,0,0,0,11.681,1055.9468845121,0,0,0,0,0,0,312.2, -2.1, -1.9,0,0,1024,1024,1024,1024,0,0,0,0,312.7,0,0,95,3.906,3.886,3.9,0,0,0,3.845,55.4,1055.9468845121,0,11,AutoTakeoff,
1900,2025-01-25 03:35:59,0,0,0,,,1055.9468845121,0.328084,0,0,0,0,0,11.681,1055.9468845121,0,0,0,0,0,0,312.2, -2.3, -2,0,0,1024,1024,1024,1024,0,0,0,0,312.6,0,0,95,3.906,3.886,3.9,0,0,0,3.845,55.4,1055.9468845121,0,11,AutoTakeoff,
2000,2025-01-25 03:35:59,0,0,0,,,1055.9468845121,0.328084,0,0,0,0,0,11.681,1055.9468845121,0,0,0,0,0,0,312.2, -2.4, -2,0,0,1024,1024,1024,1024,0,0,0,0,312.5,0,0,95,3.906,3.886,3.9,0,0,0,3.845,55.4,1055.9468845121,0,11,AutoTakeoff,
2100,2025-01-25 03:35:59,0,0,0,,,1055.9468845121,0.328084,0,0,0,0,0,11.681,1055.9468845121,0,0,0,0,0,0,312.1, -2.4, -2.1,0,0,1024,1024,1024,1024,0,0,0,0,312.5,0,0,95,3.906,3.886,3.9,0,0,0,3.845,55.4,1055.9468845121,0,11,AutoTakeoff,
2200,2025-01-25 03:35:59,0,0,0,,,1055.9468845121,0.328084,0,0,0,0,0,11.681,1055.9468845121,0,0,0,0,0,0,311.7, -2.5, -2.4,0,0,1024,1024,1024,1024,0,0,0,0,312.4,0,0,95,3.906,3.886,3.9,0,0,0,3.845,55.4,1055.9468845121,0,11,AutoTakeoff,
2300,2025-01-25 03:36:00,0,0,0,,,1055.9468845121,0.328084,0,0,0,0,0,11.681,1055.9468845121,0,0,0,0,0,0,310.4, -2.8, -2.9,0,0,1024,1024,1024,1024,0,0,0,0,312.3,0,0,95,3.906,3.886,3.9,0,0,0,3.845,55.4,1055.9468845121,0,11,AutoTakeoff,
2400,2025-01-25 03:36:00,0,0,0,,,1055.9468845121,0.328084,0,0,0,0,0,11.681,1055.9468845121,0,0,0,0,0,0,308.9, -3, -2.9,0,0,1024,1024,1024,1024,0,0,0,0,312,0,0,95,3.906,3.886,3.9,0,0,0,3.845,55.4,1055.9468845121,0,11,AutoTakeoff,
2500,2025-01-25 03:36:00,0,0,0,,,1055.9468845121,0.328084,0.223694,0,0,0,0,11.778,1055.9468845121,0,0,0,0,-0.223694,-0.223694,308.1, -2.9, -2.5,0,0,1024,1024,1024,1024,0,0,0,0,311.5,0,0,95,3.836,3.792,3.792,0,0,0,3.293,55.4,1055.9468845121,0,11,AutoTakeoff,
2600,2025-01-25 03:36:00,0,0,0,,,1055.9468845121,0.328084,0.4921268,0,0,0,0,11.778,1055.9468845121,0,0,0,-0.223694,-0.447388,-0.447388,308, -0.4, 0,0,0,1024,1024,1024,1024,0,0,0,0,311,0,0,95,3.836,3.792,3.792,0,0,0,3.293,55.4,1055.9468845121,0,11,AutoTakeoff,
2700,2025-01-25 03:36:00,0,0,0,,,1055.9468845121,0.328084,0.4921268,0,0,0,0,11.778,1055.9468845121,0,0,0,-0.223694,-0.447388,-0.671082,308.3, 1.5, 2.7,0,0,1024,1024,1024,1024,0,0,0,0,310.5,0,0,95,3.836,3.792,3.792,0,0,0,3.293,55.4,1055.9468845121,0,11,AutoTakeoff,
2800,2025-01-25 03:36:00,0,0,0,,,1055.9468845121,0.328084,0.4921268,0,0,0,0,11.778,1055.9468845121,0,0,0,-0.223694,-0.447388,-0.671082,308.6, 1.5, 3.3,0,0,1024,1024,1024,1024,0,0,0,0,310.3,0,0,95,3.836,3.792,3.792,0,0,0,3.293,55.4,1055.9468845121,0,11,AutoTakeoff,
2900,2025-01-25 03:36:00,0,0,0.328084,,,1056.2749685121,0.328084,0.3131716,0,0,0,0,11.778,1056.2749685121,0.328084,0,0,-0.223694,-0.223694,-0.671082,308.6, 1.4, 3,0,0,1024,1024,1024,1024,0,0,0,0,310.1,0,0,95,3.836,3.792,3.792,0,0,0,3.293,55.4,1056.2749685121,0.328084,11,AutoTakeoff,
3000,2025-01-25 03:36:00,0,0,0.328084,,,1056.2749685121,0.656168,0.3131716,0,0,0,0,11.778,1056.2749685121,0.328084,0,0,-0.223694,-0.223694,-0.671082,308.6, 1.2, 2.4,0,0,1024,1024,1024,1024,0,0,0,0,309.9,0,0,95,3.836,3.792,3.792,0,0,0,3.293,55.4,1056.2749685121,0.328084,11,AutoTakeoff,
3100,2025-01-25 03:36:00,0,0,0.328084,,,1056.2749685121,0.984252,0.223694,0,0,0,0,11.778,1056.2749685121,0.328084,0,0,-0.223694,0,-0.894776,308.6, 0.6, 2.7,0,0,1024,1024,1024,1024,0,0,0,0,309.7,0,0,95,3.836,3.792,3.792,0,0,0,3.293,55.4,1056.2749685121,0.328084,11,AutoTakeoff,
3200,2025-01-25 03:36:00,0,0,0.656168,,,1056.6030525121,0.984252,0,0,0,0,0,11.778,1056.6030525121,0.656168,0,0,0,0,-0.894776,308.6, -0.1, 2.3,0,0,1024,1024,1024,1024,0,0,0,0,309.6,0,0,95,3.836,3.792,3.792,0,0,0,3.293,55.4,1056.6030525121,0.656168,11,AutoTakeoff,
3300,2025-01-25 03:36:01,0,0,0.656168,,,1056.6030525121,1.312336,0,0,0,0,0,11.778,1056.6030525121,0.656168,0,0,0,0,-0.894776,308.6, -0.8, 2.2,0,0,1024,1024,1024,1024,0,0,0,0,309.5,0,0,95,3.836,3.792,3.792,0,0,0,3.293,55.4,1056.6030525121,0.656168,11,AutoTakeoff,
3400,2025-01-25 03:36:01,0,0,0.984252,,,1056.9311365121,1.312336,0,0,0,0,0,11.778,1056.9311365121,0.984252,0,0,0,0,-0.894776,308.4, -0.7, 2.6,0,0,1024,1024,1024,1024,0,0,0,0,309.4,0,0,95,3.836,3.792,3.792,0,0,0,3.293,55.4,1056.9311365121,0.984252,11,AutoTakeoff,
3500,2025-01-25 03:36:01,0,0,0.984252,,,1056.9311365121,1.64042,0,0,0,0,0,11.124,1056.9311365121,0.984252,0,0,0,0,-1.11847,308.2, 0.2, 1.1,0,0,1024,1024,1024,1024,0,0,0,0,309.3,0,0,95,3.721,3.667,3.677,0,0,0,9.2,55.4,1056.9311365121,0.984252,11,AutoTakeoff,
3600,2025-01-25 03:36:01,0,0,1.312336,,,1057.2592205121,1.64042,0,0,0,0,0,11.124,1057.2592205121,1.312336,0,0,0,0,-1.11847,308.3, 0.1, -0.6,0,0,1024,1024,1024,1024,0,0,0,0,309.1,0,0,95,3.721,3.667,3.677,0,0,0,9.2,55.4,1057.2592205121,1.312336,11,AutoTakeoff,
3700,2025-01-25 03:36:01,0,0,1.64042,,,1057.5873045121,1.968504,0,0,0,0,0,11.124,1057.5873045121,1.64042,0,0,0,0,-1.11847,308.5, -0.4, 0.3,0,0,1024,1024,1024,1024,0,0,0,0,309,0,0,95,3.721,3.667,3.677,0,0,0,9.2,55.4,1057.5873045121,1.64042,11,AutoTakeoff,
3800,2025-01-25 03:36:01,0,0,1.64042,,,1057.5873045121,1.968504,0.223694,0,0,0,0,11.124,1057.5873045121,1.64042,0,0,-0.223694,0,-1.11847,308.3, -0.4, 3,0,0,1024,1024,1024,1024,0,0,0,0,309,0,0,95,3.721,3.667,3.677,0,0,0,9.2,55.4,1057.5873045121,1.64042,11,AutoTakeoff,
3900,2025-01-25 03:36:01,0,0,1.968504,,,1057.9153885121,2.296588,0,0,0,0,0,11.124,1057.9153885121,1.968504,0,0,0,0,-1.11847,308.4, 0.2, 3,0,0,1024,1024,1024,1024,0,0,0,0,308.9,0,0,95,3.721,3.667,3.677,0,0,0,9.2,55.4,1057.9153885121,1.968504,11,AutoTakeoff,
4000,2025-01-25 03:36:01,0,0,1.968504,,,1057.9153885121,2.624672,0,0,0,0,0,11.124,1057.9153885121,1.968504,0,0,0,0,-1.11847,308.3, 0, 2,0,0,1024,1024,1024,1024,0,0,0,0,308.8,0,0,95,3.721,3.667,3.677,0,0,0,9.2,55.4,1057.9153885121,1.968504,11,AutoTakeoff,
4100,2025-01-25 03:36:01,0,0,2.296588,,,1058.2434725121,2.624672,0,0,0,0,0,11.124,1058.2434725121,2.296588,0,0,0,0,-1.11847,308.2, -0.8, 2.1,0,0,1024,1024,1024,1024,0,0,0,0,308.7,0,0,95,3.721,3.667,3.677,0,0,0,9.2,55.4,1058.2434725121,2.296588,11,AutoTakeoff,
4200,2025-01-25 03:36:02,0,0,2.296588,,,1058.2434725121,2.952756,0,0,0,0,0,11.124,1058.2434725121,2.296588,0,0,0,0,-1.11847,308.2, -0.8, 2.1,0,0,1024,1024,1024,1024,0,0,0,0,308.7,0,0,95,3.721,3.667,3.677,0,0,0,9.2,55.4,1058.2434725121,2.296588,11,AutoTakeoff,
4300,2025-01-25 03:36:02,0,0,2.624672,,,1058.5715565121,2.952756,0,0,0,0,0,11.124,1058.5715565121,2.624672,0,0,0,0,-1.11847,308.3, -1, 2.6,0,0,1024,1024,1024,1024,0,0,0,0,308.6,0,0,95,3.721,3.667,3.677,0,0,0,9.2,55.4,1058.5715565121,2.624672,11,AutoTakeoff,
4400,2025-01-25 03:36:02,0,0,2.952756,,,1058.8996405121,3.28084,0,0,0,0,0,11.124,1058.8996405121,2.952756,0,0,0,0,-1.11847,308.4, -0.9, 3,0,0,1024,1024,1024,1024,0,0,0,0,308.6,0,0,95,3.721,3.667,3.677,0,0,0,9.2,55.4,1058.8996405121,2.952756,11,AutoTakeoff,
4500,2025-01-25 03:36:02,0,0,2.952756,,,1058.8996405121,3.28084,0,0,0,0,0,11.053,1058.8996405121,2.952756,0,0,0,0,-1.11847,308.4, -0.8, 2.4,0,0,1024,1024,1024,1024,0,0,0,0,308.5,0,0,95,3.71,3.663,3.675,0,0,0,10.991,55.4,1058.8996405121,2.952756,11,AutoTakeoff,
4600,2025-01-25 03:36:02,0,0,3.28084,,,1059.2277245121,3.608924,0,0,0,0,0,11.053,1059.2277245121,3.28084,0,0,0,0,-1.11847,308.3, -0.5, 1.8,0,0,1024,1024,1024,1024,0,0,0,0,308.5,0,0,95,3.71,3.663,3.675,0,0,0,10.991,55.4,1059.2277245121,3.28084,11,AutoTakeoff,
4700,2025-01-25 03:36:02,0,0,3.28084,,,1059.2277245121,3.608924,0,0,0,0,0,11.053,1059.2277245121,3.28084,0,0,0,0,-0.894776,308.5, -0.4, 1.3,0,0,1024,1024,1024,1024,0,0,0,0,308.5,0,0,95,3.71,3.663,3.675,0,0,0,10.991,55.4,1059.2277245121,3.28084,6,P-GPS,
4800,2025-01-25 03:36:02,0,0,3.608924,,,1059.5558085121,3.937008,0,0,0,0,0,11.053,1059.5558085121,3.608924,0,0,0,0,-0.671082,308.7, -1, 2.4,0,0,1024,1024,1024,1024,0,0,0,0,308.5,0,0,95,3.71,3.663,3.675,0,0,0,10.991,55.4,1059.5558085121,3.608924,6,P-GPS,
4900,2025-01-25 03:36:02,0,0,3.608924,,,1059.5558085121,3.937008,0,0,0,0,0,11.053,1059.5558085121,3.608924,0,0,0,0,-0.447388,309, -1.5, 3.5,0,0,1024,1024,1024,1024,0,0,0,0,308.5,0,0,95,3.71,3.663,3.675,0,0,0,10.991,55.4,1059.5558085121,3.608924,6,P-GPS,
5000,2025-01-25 03:36:02,0,0,3.608924,,,1059.5558085121,3.937008,0,0,0,0,0,11.053,1059.5558085121,3.608924,0,0,0,0,-0.223694,309.3, -1.8, 2.8,0,0,1024,1024,1024,1024,0,0,0,0,308.5,0,0,95,3.71,3.663,3.675,0,0,0,10.991,55.4,1059.5558085121,3.608924,6,P-GPS,
5100,2025-01-25 03:36:02,0,0,3.608924,,,1059.5558085121,3.937008,0,0,0,0,0,11.053,1059.5558085121,3.608924,0,0,0,0,0,309.6, -1.2, 1.6,0,0,1024,1024,1024,1024,0,0,0,0,308.5,0,0,95,3.71,3.663,3.675,0,0,0,10.991,55.4,1059.5558085121,3.608924,6,P-GPS,
5200,2025-01-25 03:36:03,0,0,3.608924,,,1059.5558085121,3.937008,0.223694,0,0,0,0,11.053,1059.5558085121,3.608924,0,0,0.223694,0,0,309.9, -0.7, 0.1,0,0,1024,1024,1024,1024,0,0,0,0,308.5,0,0,95,3.71,3.663,3.675,0,0,0,10.991,55.4,1059.5558085121,3.608924,6,P-GPS,
5300,2025-01-25 03:36:03,0,0,3.608924,,,1059.5558085121,3.937008,0.3131716,0,0,0,0,11.053,1059.5558085121,3.608924,0,0,0.223694,0.223694,0,309.7, -0.7, -1.4,0,0,1024,1024,1037,1024,0,0,2,0,308.5,0,0,95,3.71,3.663,3.675,0,0,0,10.991,55.4,1059.5558085121,3.608924,6,P-GPS,
5400,2025-01-25 03:36:03,0,0,3.608924,,,1059.5558085121,3.937008,0.223694,0,0,0,0,11.053,1059.5558085121,3.608924,0,0,0.223694,0,0,309.7, -0.6, -1.9,0,0,1024,1024,1049,1024,0,0,4,0,308.5,0,0,95,3.71,3.663,3.675,0,0,0,10.991,55.4,1059.5558085121,3.608924,6,P-GPS,
5500,2025-01-25 03:36:03,0,0,3.608924,,,1059.5558085121,3.937008,0,0,0,0,0,11.139,1059.5558085121,3.608924,0,0,0,0,0,309.6, -0.4, -1.6,0,0,1024,1024,1053,1024,0,0,4,0,308.5,0,0,95,3.722,3.673,3.682,0,0,0,10.104,55.58,1059.5558085121,3.608924,6,P-GPS,
5600,2025-01-25 03:36:03,0,0,3.608924,,,1059.5558085121,3.937008,0,0,0,0,0,11.139,1059.5558085121,3.608924,0,0,0,0,0,309.7, -0.7, -1.5,0,0,1024,1024,1046,1024,0,0,3,0,308.5,0,0,95,3.722,3.673,3.682,0,0,0,10.104,55.58,1059.5558085121,3.608924,6,P-GPS,
5700,2025-01-25 03:36:03,0,0,3.608924,,,1059.5558085121,3.937008,0,0,0,0,0,11.139,1059.5558085121,3.608924,0,0,0,0,0,310, -0.9, -2.1,0,0,1024,1024,1024,1024,0,0,0,0,308.5,0,0,95,3.722,3.673,3.682,0,0,0,10.104,55.58,1059.5558085121,3.608924,6,P-GPS,
5800,2025-01-25 03:36:03,0,0,3.608924,,,1059.5558085121,3.937008,0,0,0,0,0,11.139,1059.5558085121,3.608924,0,0,0,0,0,310, -0.9, -2.4,0,0,1024,1289,1024,1024,0,40,0,0,308.5,0,0,95,3.722,3.673,3.682,0,0,0,10.104,55.58,1059.5558085121,3.608924,6,P-GPS,
5900,2025-01-25 03:36:03,0,0,3.608924,,,1059.5558085121,3.937008,0,0,0,0,0,11.139,1059.5558085121,3.608924,0,0,0,0,0,309.8, -0.7, -1.8,0,0,1024,1289,1024,1024,0,40,0,0,308.5,0,0,95,3.722,3.673,3.682,0,0,0,10.104,55.58,1059.5558085121,3.608924,6,P-GPS,
6000,2025-01-25 03:36:03,0,0,3.608924,,,1059.5558085121,3.937008,0,0,0,0,0,11.139,1059.5558085121,3.608924,0,0,0,0,0,309.7, -0.5, 0.5,0,0,1024,1318,1024,1024,0,45,0,0,308.5,0,0,95,3.722,3.673,3.682,0,0,0,10.104,55.58,1059.5558085121,3.608924,6,P-GPS,
6100,2025-01-25 03:36:03,0,0,3.608924,,,1059.5558085121,3.937008,0,0,0,0,0,11.139,1059.5558085121,3.608924,0,0,0,0,0,309.7, -0.1, 5.6,0,0,1017,1323,1024,1024,-1,45,0,0,308.5,0,0,95,3.722,3.673,3.682,0,0,0,10.104,55.58,1059.5558085121,3.608924,6,P-GPS,
6200,2025-01-25 03:36:04,0,0,3.608924,,,1059.5558085121,3.937008,0.223694,0,0,0,0,11.139,1059.5558085121,3.608924,0,0,0.223694,0,0,310.2, 0.4, 8,0,0,1024,1278,1024,1024,0,38,0,0,308.5,0,0,95,3.722,3.673,3.682,0,0,0,10.104,55.58,1059.5558085121,3.608924,6,P-GPS,
6300,2025-01-25 03:36:04,0,0,3.608924,,,1059.5558085121,3.937008,0.4921268,0,0,0,0,11.139,1059.5558085121,3.608924,0,0,0.447388,0.223694,0,310.7, 0.1, 7.4,0,0,1024,1285,1024,1024,0,40,0,0,308.5,0,0,95,3.722,3.673,3.682,0,0,0,10.104,55.58,1059.5558085121,3.608924,6,P-GPS,
6400,2025-01-25 03:36:04,0,0,3.608924,,,1059.5558085121,3.937008,1.006623,0,0,0,0,11.139,1059.5558085121,3.608924,0,0,0.894776,0.447388,0,311, 0.3, 6.1,0,0,1024,1281,1024,1024,0,39,0,0,308.5,0,0,95,3.722,3.673,3.682,0,0,0,10.104,55.58,1059.5558085121,3.608924,6,P-GPS,
6500,2025-01-25 03:36:04,0,0,3.608924,,,1059.5558085121,3.937008,1.2974252,0,0,0,0,10.999,1059.5558085121,3.608924,0,0,1.11847,0.671082,0,310.8, 0.7, 5.3,0,0,1024,1280,1024,1024,0,39,0,0,308.5,0,0,95,3.691,3.641,3.649,0,0,0,10.623,55.58,1059.5558085121,3.608924,6,P-GPS,
6600,2025-01-25 03:36:04,0,0,3.608924,,,1059.5558085121,3.937008,1.2974252,0,0,0,0,10.999,1059.5558085121,3.608924,0,0,1.11847,0.671082,0,310.6, 0.8, 5.5,0,0,1024,1279,1024,1024,0,39,0,0,308.5,0,0,95,3.691,3.641,3.649,0,0,0,10.623,55.58,1059.5558085121,3.608924,6,P-GPS,
6700,2025-01-25 03:36:04,0,0,3.608924,,,1059.5558085121,3.937008,1.6105968,0,0,0,0,10.999,1059.5558085121,3.608924,0,0,1.342164,0.894776,0,310.4, 1, 3.1,0,0,1024,1187,1024,1024,0,25,0,0,308.5,0,0,95,3.691,3.641,3.649,0,0,0,10.623,55.58,1059.5558085121,3.608924,6,P-GPS,
6800,2025-01-25 03:36:04,0,0,3.608924,,,1059.5558085121,3.937008,1.8119214,0,0,0,0,10.999,1059.5558085121,3.608924,0,0,1.565858,0.894776,0,310.2, 1.4, 1.2,0,0,1024,1024,1024,1024,0,0,0,0,308.5,0,0,95,3.691,3.641,3.649,0,0,0,10.623,55.58,1059.5558085121,3.608924,6,P-GPS,
6900,2025-01-25 03:36:04,0,0,3.608924,,,1059.5558085121,3.937008,1.8119214,0,0,0,0,10.999,1059.5558085121,3.608924,0,0,1.565858,0.894776,0,309.9, 1.9, 0.9,0,0,1024,1144,1024,1024,0,18,0,0,308.5,0,0,95,3.691,3.641,3.649,0,0,0,10.623,55.58,1059.5558085121,3.608924,6,P-GPS,
7000,2025-01-25 03:36:04,0,0,3.608924,,,1059.5558085121,3.937008,1.8119214,0,0,0,0,10.999,1059.5558085121,3.608924,0,0,1.565858,0.894776,0,309.7, 1.6, -1.9,0,0,1024,1144,1024,1024,0,18,0,0,308.5,0,0,95,3.691,3.641,3.649,0,0,0,10.623,55.58,1059.5558085121,3.608924,6,P-GPS,
7100,2025-01-25 03:36:04,0,0,3.608924,,,1059.5558085121,3.937008,1.6105968,0,0,0,0,10.999,1059.5558085121,3.608924,0,0,1.342164,0.894776,0,309.5, 0.6, -5.7,0,0,1024,1038,1024,1024,0,2,0,0,308.5,0,0,95,3.691,3.641,3.649,0,0,0,10.623,55.58,1059.5558085121,3.608924,6,P-GPS,
7200,2025-01-25 03:36:05,0,0,3.608924,,,1059.5558085121,3.937008,1.2974252,0,0,0,0,10.999,1059.5558085121,3.608924,0,0,1.11847,0.671082,0,308.8, 0.7, -3.8,0,0,1024,1024,1024,1024,0,0,0,0,308.5,0,0,95,3.691,3.641,3.649,0,0,0,10.623,55.58,1059.5558085121,3.608924,6,P-GPS,
7300,2025-01-25 03:36:05,0,0,3.608924,,,1059.5558085121,3.937008,1.006623,0,0,0,0,10.999,1059.5558085121,3.608924,0,0,0.894776,0.447388,0,308.5, 1.3, -3.5,0,0,1024,1024,1024,1024,0,0,0,0,308.5,0,0,95,3.691,3.641,3.649,0,0,0,10.623,55.58,1059.5558085121,3.608924,6,P-GPS,
7400,2025-01-25 03:36:05,0,0,3.608924,,,1059.5558085121,3.937008,1.006623,0,0,0,0,10.999,1059.5558085121,3.608924,0,0,0.894776,0.447388,0,308.4, 2.2, -4.9,0,0,1024,1024,1024,1024,0,0,0,0,308.5,0,0,95,3.691,3.641,3.649,0,0,0,10.623,55.58,1059.5558085121,3.608924,6,P-GPS,
7500,2025-01-25 03:36:05,0,0,3.608924,,,1059.5558085121,3.608924,0.8052984,0,0,0,0,10.939,1059.5558085121,3.608924,0,0,0.671082,0.447388,0,308, 2.1, -3.6,0,0,957,1177,1024,1024,-10,23,0,0,308.5,0,0,95,3.673,3.623,3.634,0,0,0,11.378,55.58,1059.5558085121,3.608924,6,P-GPS,
7600,2025-01-25 03:36:05,0,0,3.608924,,,1059.5558085121,3.608924,0.6263432,0,0,0,0,10.939,1059.5558085121,3.608924,0,0,0.447388,0.447388,0,307.8, 0.8, -1.7,0,0,970,1380,1024,1024,-8,54,0,0,308.5,0,0,95,3.673,3.623,3.634,0,0,0,11.378,55.58,1059.5558085121,3.608924,6,P-GPS,
7700,2025-01-25 03:36:05,0,0,3.608924,,,1059.5558085121,3.937008,0.6263432,0,0,0,0,10.939,1059.5558085121,3.608924,0,0,0.447388,0.447388,0,308.2, -0.4, 0,0,0,978,1320,1024,1024,-7,45,0,0,308.5,0,0,95,3.673,3.623,3.634,0,0,0,11.378,55.58,1059.5558085121,3.608924,6,P-GPS,
7800,2025-01-25 03:36:05,0,0,3.608924,,,1059.5558085121,3.937008,0.6263432,0,0,0,0,10.939,1059.5558085121,3.608924,0,0,0.447388,0.447388,0,308.7, -1.2, 3.5,0,0,980,1303,1024,1024,-7,42,0,0,308.5,0,0,95,3.673,3.623,3.634,0,0,0,11.378,55.58,1059.5558085121,3.608924,6,P-GPS,
7900,2025-01-25 03:36:05,0,0,3.608924,,,1059.5558085121,3.937008,0.8052984,0,0,0,0,10.939,1059.5558085121,3.608924,0,0,0.671082,0.447388,0,309.2, -1.1, 7.4,0,0,1019,1329,1024,1024,-1,46,0,0,308.5,0,0,95,3.673,3.623,3.634,0,0,0,11.378,55.58,1059.5558085121,3.608924,6,P-GPS,
8000,2025-01-25 03:36:05,0,0,3.608924,,,1059.5558085121,3.937008,1.11847,0,0,0,0,10.939,1059.5558085121,3.608924,0,0,0.894776,0.671082,0,310, -0.5, 6.1,0,0,982,1353,1024,1024,-6,50,0,0,308.5,0,0,95,3.673,3.623,3.634,0,0,0,11.378,55.58,1059.5558085121,3.608924,6,P-GPS,
8100,2025-01-25 03:36:05,0,0,3.608924,,,1059.5558085121,3.937008,1.11847,0,0,0,0,10.939,1059.5558085121,3.608924,0,0,1.11847,0.894776,0,310.5, 0, 4.2,0,0,982,1353,1024,1024,-6,50,0,0,308.5,0,0,95,3.673,3.623,3.634,0,0,0,11.378,55.58,1059.5558085121,3.608924,6,P-GPS,
8200,2025-01-25 03:36:05,0,0,3.608924,,,1059.5558085121,3.937008,1.4316416,0,0,0,0,10.939,1059.5558085121,3.608924,0,0,1.11847,0.894776,0,310.5, 0.3, 6.1,0,0,992,1097,1024,1024,-5,11,0,0,308.5,0,0,95,3.673,3.623,3.634,0,0,0,11.378,55.58,1059.5558085121,3.608924,6,P-GPS,
8300,2025-01-25 03:36:06,0,0,3.608924,,,1059.5558085121,3.937008,1.7448132,0,0,0,0,10.939,1059.5558085121,3.608924,0,0,1.342164,1.11847,0,310.7, 0.2, 6.3,0,0,1024,1084,1024,1024,0,9,0,0,308.5,0,0,95,3.673,3.623,3.634,0,0,0,11.378,55.58,1059.5558085121,3.608924,6,P-GPS,
8400,2025-01-25 03:36:06,0,0,3.608924,,,1059.5558085121,3.937008,2.0579848,0,0,0,0,10.939,1059.5558085121,3.608924,0,0,1.565858,1.342164,0,310.9, 0.7, 2.3,0,0,1024,1024,1024,1024,0,0,0,0,308.5,0,0,95,3.673,3.623,3.634,0,0,0,11.378,55.58,1059.5558085121,3.608924,6,P-GPS,
8500,2025-01-25 03:36:06,0,0,3.608924,,,1059.5558085121,3.937008,2.0579848,0,0,0,0,10.916,1059.5558085121,3.608924,0,0,1.565858,1.342164,0,310.5, 0.4, -3.6,0,0,1024,1024,1024,1024,0,0,0,0,308.5,0,0,95,3.674,3.625,3.633,0,0,0,11.629,55.76,1059.5558085121,3.608924,6,P-GPS,
8600,2025-01-25 03:36:06,0,0,3.608924,,,1059.5558085121,3.937008,2.0579848,0,0,0,0,10.916,1059.5558085121,3.608924,0,0,1.342164,1.342164,0,309.6, -0.4, -8.2,0,0,1024,1024,1030,1024,0,0,1,0,308.5,0,0,95,3.674,3.625,3.633,0,0,0,11.629,55.76,1059.5558085121,3.608924,6,P-GPS,
8700,2025-01-25 03:36:06,0,0,3.608924,,,1059.5558085121,3.608924,1.5882274,0,0,0,0,10.916,1059.5558085121,3.608924,0,0,1.11847,1.11847,0,308.9, -1.4, -9.2,0,0,1024,1024,1111,1024,0,0,13,0,308.5,0,0,95,3.674,3.625,3.633,0,0,0,11.629,55.76,1059.5558085121,3.608924,6,P-GPS,
8800,2025-01-25 03:36:06,0,0,3.608924,,,1059.5558085121,3.608924,1.2750558,0,0,0,0,10.916,1059.5558085121,3.608924,0,0,0.894776,0.894776,0,308.3, -1.2, -8.1,0,0,1024,1024,1211,1024,0,0,28,0,308.5,0,0,95,3.674,3.625,3.633,0,0,0,11.629,55.76,1059.5558085121,3.608924,6,P-GPS,
8900,2025-01-25 03:36:06,0,0,3.608924,,,1059.5558085121,3.608924,0.9395148,0,0,0,0,10.916,1059.5558085121,3.608924,0,0,0.671082,0.671082,0,308, -0.3, -6.1,0,0,1024,1024,1233,1024,0,0,32,0,308.5,0,0,95,3.674,3.625,3.633,0,0,0,11.629,55.76,1059.5558085121,3.608924,6,P-GPS,
9000,2025-01-25 03:36:06,0,0,3.608924,,,1059.5558085121,3.937008,0.9395148,0,0,0,0,10.916,1059.5558085121,3.608924,0,0,0.447388,0.447388,-0.223694,308, -0.2, -4.2,0,0,1024,1024,1303,1024,0,0,42,0,308.5,0,0,95,3.674,3.625,3.633,0,0,0,11.629,55.76,1059.5558085121,3.608924,6,P-GPS,
9100,2025-01-25 03:36:06,0,0,3.608924,,,1059.5558085121,3.937008,0.4921268,0,0,0,0,10.916,1059.5558085121,3.608924,0,0,0.447388,0.223694,-0.223694,308.5, -0.8, -3.5,0,0,1024,1024,1335,1024,0,0,47,0,308.5,0,0,95,3.674,3.625,3.633,0,0,0,11.629,55.76,1059.5558085121,3.608924,6,P-GPS,
9200,2025-01-25 03:36:06,0,0,3.937008,,,1059.8838925121,3.937008,0.4921268,0,0,0,0,10.916,1059.8838925121,3.937008,0,0,0.447388,0.223694,-0.447388,308.6, -1.3, -4.1,0,0,1024,1024,1335,1024,0,0,47,0,308.5,0,0,95,3.674,3.625,3.633,0,0,0,11.629,55.76,1059.8838925121,3.937008,6,P-GPS,
9300,2025-01-25 03:36:07,0,0,3.937008,,,1059.8838925121,3.937008,0.223694,0,0,0,0,10.916,1059.8838925121,3.937008,0,0,0.223694,0,-0.671082,308.7, -0.2, -3.5,0,0,1024,1024,1344,1024,0,0,48,0,308.5,0,0,95,3.674,3.625,3.633,0,0,0,11.629,55.76,1059.8838925121,3.937008,6,P-GPS,
9400,2025-01-25 03:36:07,0,0,3.937008,,,1059.8838925121,4.265092,0.223694,0,0,0,0,10.916,1059.8838925121,3.937008,0,0,0.223694,0,-0.894776,308.7, 1.6, -2.4,0,0,1024,1024,1340,1024,0,0,48,0,308.5,0,0,95,3.674,3.625,3.633,0,0,0,11.629,55.76,1059.8838925121,3.937008,6,P-GPS,
9500,2025-01-25 03:36:07,0,0,4.265092,,,1060.2119765121,4.265092,0,0,0,0,0,10.917,1060.2119765121,4.265092,0,0,0,0,-1.11847,308.8, 2.1, -1.8,0,0,1024,1024,1079,1024,0,0,8,0,308.5,0,0,95,3.638,3.586,3.594,0,0,0,11.448,55.94,1060.2119765121,4.265092,6,P-GPS,
9600,2025-01-25 03:36:07,0,0,4.265092,,,1060.2119765121,4.593176,0,0,0,0,0,10.917,1060.2119765121,4.265092,0,0,0,0,-1.342164,308.8, 0.9, -1.8,0,0,1024,1024,1024,1024,0,0,0,0,308.5,0,0,95,3.638,3.586,3.594,0,0,0,11.448,55.94,1060.2119765121,4.265092,6,P-GPS,
9700,2025-01-25 03:36:07,0,0,4.593176,,,1060.5400605121,4.593176,0,0,0,0,0,10.917,1060.5400605121,4.593176,0,0,0,0,-1.11847,309, -0.1, -1.9,0,0,1036,1024,1024,1024,2,0,0,0,308.5,0,0,95,3.638,3.586,3.594,0,0,0,11.448,55.94,1060.5400605121,4.593176,6,P-GPS,
9800,2025-01-25 03:36:07,0,0,4.593176,,,1060.5400605121,4.92126,0,0,0,0,0,10.917,1060.5400605121,4.593176,0,0,0,0,-0.671082,309, -0.2, -1.4,0,0,1364,1024,1024,1024,52,0,0,0,308.5,0,0,95,3.638,3.586,3.594,0,0,0,11.448,55.94,1060.5400605121,4.593176,6,P-GPS,
9900,2025-01-25 03:36:07,0,0,4.92126,,,1060.8681445121,4.92126,0,0,0,0,0,10.917,1060.8681445121,4.92126,0,0,0,0,-0.447388,309.1, -0.7, -0.7,0,0,1567,1024,1024,1024,82,0,0,0,308.5,0,0,95,3.638,3.586,3.594,0,0,0,11.448,55.94,1060.8681445121,4.92126,6,P-GPS,
10000,2025-01-25 03:36:07,0,0,4.92126,,,1060.8681445121,4.92126,0,0,0,0,0,10.917,1060.8681445121,4.92126,0,0,0,0,-0.223694,309.4, -3.9, -1,0,0,1579,1024,1024,1024,84,0,0,0,308.5,0,0,95,3.638,3.586,3.594,0,0,0,11.448,55.94,1060.8681445121,4.92126,6,P-GPS,
10100,2025-01-25 03:36:07,0,0,4.92126,,,1060.8681445121,4.92126,0,0,0,0,0,10.917,1060.8681445121,4.92126,0,0,0,0,0,309.6, -7.2, -1.1,0,0,1570,1024,1024,1024,83,0,0,0,308.5,0,0,95,3.638,3.586,3.594,0,0,0,11.448,55.94,1060.8681445121,4.92126,6,P-GPS,
10200,2025-01-25 03:36:07,0,0,4.92126,,,1060.8681445121,4.92126,0.3131716,0,0,0,0,10.917,1060.8681445121,4.92126,0,0,0.223694,-0.223694,0,309.8, -7.9, -0.7,0,0,1558,1024,1024,1024,81,0,0,0,308.5,0,0,95,3.638,3.586,3.594,0,0,0,11.448,55.94,1060.8681445121,4.92126,6,P-GPS,
10300,2025-01-25 03:36:08,0,0,4.92126,,,1060.8681445121,4.92126,0.6263432,0,0,0,0,10.917,1060.8681445121,4.92126,0,0,0.447388,-0.447388,0,309.9, -6.4, -0.5,0,0,1557,1024,1024,1024,81,0,0,0,308.5,0,0,95,3.638,3.586,3.594,0,0,0,11.448,55.94,1060.8681445121,4.92126,6,P-GPS,
10400,2025-01-25 03:36:08,0,0,4.92126,,,1060.8681445121,4.92126,0.8052984,0,0,0,0,10.917,1060.8681445121,4.92126,0,0,0.447388,-0.671082,0,310.1, -5.3, -0.3,0,0,1557,1024,1024,1024,81,0,0,0,308.5,0,0,95,3.638,3.586,3.594,0,0,0,11.448,55.94,1060.8681445121,4.92126,6,P-GPS,
10500,2025-01-25 03:36:08,0,0,4.92126,,,1060.8681445121,4.92126,0.9395148,0,0,0,0,11.021,1060.8681445121,4.92126,0,0,0.671082,-0.671082,0,310.1, -5.4, -0.5,0,0,1561,1024,1024,1024,81,0,0,0,308.5,0,0,95,3.685,3.636,3.642,0,0,0,11.549,56.12,1060.8681445121,4.92126,6,P-GPS,
10600,2025-01-25 03:36:08,0,0,4.92126,,,1060.8681445121,4.92126,1.2750558,0,0,0,0,11.021,1060.8681445121,4.92126,0,0,0.894776,-0.894776,0,310.1, -5.5, -0.9,0,0,1560,1024,1024,1024,81,0,0,0,308.5,0,0,95,3.685,3.636,3.642,0,0,0,11.549,56.12,1060.8681445121,4.92126,6,P-GPS,
10700,2025-01-25 03:36:08,0,0,4.92126,,,1060.8681445121,4.92126,1.5882274,0,0,0,0,11.021,1060.8681445121,4.92126,0,0,1.11847,-1.11847,0,310.2, -5.8, -1,0,0,1558,1024,1024,1024,81,0,0,0,308.5,0,0,95,3.685,3.636,3.642,0,0,0,11.549,56.12,1060.8681445121,4.92126,6,P-GPS,
10800,2025-01-25 03:36:08,0,0,4.92126,,,1060.8681445121,4.92126,1.7448132,0,0,0,0,11.021,1060.8681445121,4.92126,0,0,1.11847,-1.342164,0,310.2, -6.4, -1.2,0,0,1551,1024,1024,1024,80,0,0,0,308.5,0,0,95,3.685,3.636,3.642,0,0,0,11.549,56.12,1060.8681445121,4.92126,6,P-GPS,
10900,2025-01-25 03:36:08,0,0,4.92126,,,1060.8681445121,4.92126,1.901399,0,0,0,0,11.021,1060.8681445121,4.92126,0,0,1.342164,-1.342164,0,310.2, -5.9, -1.9,0,0,1528,1024,1024,1024,76,0,0,0,308.5,0,0,95,3.685,3.636,3.642,0,0,0,11.549,56.12,1060.8681445121,4.92126,6,P-GPS,
11000,2025-01-25 03:36:08,0,0,4.92126,,,1060.8681445121,4.92126,2.2145706,0,0,0,0,11.021,1060.8681445121,4.92126,0,0,1.565858,-1.565858,0,309.8, -6, -1.4,0,0,1515,1024,1024,1024,74,0,0,0,308.5,0,0,95,3.685,3.636,3.642,0,0,0,11.549,56.12,1060.8681445121,4.92126,6,P-GPS,
11100,2025-01-25 03:36:08,0,0,4.92126,,,1060.8681445121,4.92126,2.5277422,0,0,0,0,11.021,1060.8681445121,4.92126,0,0,1.789552,-1.789552,0,309.5, -5.7, -1.9,0,0,1503,1024,1024,1024,73,0,0,0,308.5,0,0,95,3.685,3.636,3.642,0,0,0,11.549,56.12,1060.8681445121,4.92126,6,P-GPS,
11200,2025-01-25 03:36:08,0,0,4.92126,,,1060.8681445121,4.92126,2.8409138,0,0,0,0,11.021,1060.8681445121,4.92126,0,0,2.013246,-2.013246,0,309.3, -5, -2.3,0,0,1487,1024,1024,1024,70,0,0,0,308.5,0,0,95,3.685,3.636,3.642,0,0,0,11.549,56.12,1060.8681445121,4.92126,6,P-GPS,
11300,2025-01-25 03:36:09,0,0,4.92126,,,1060.8681445121,4.92126,2.8409138,0,0,0,0,11.021,1060.8681445121,4.92126,0,0,2.013246,-2.013246,0,309.3, -4.3, -2.5,0,0,1467,1024,1024,1024,67,0,0,0,308.5,0,0,95,3.685,3.636,3.642,0,0,0,11.549,56.12,1060.8681445121,4.92126,6,P-GPS,
11400,2025-01-25 03:36:09,0,0,4.92126,,,1060.8681445121,4.92126,3.1540854,0,0,0,0,11.021,1060.8681445121,4.92126,0,0,2.23694,-2.23694,0,309.3, -3.2, -3,0,0,1455,1024,1024,1024,65,0,0,0,308.5,0,0,95,3.685,3.636,3.642,0,0,0,11.549,56.12,1060.8681445121,4.92126,6,P-GPS,
11500,2025-01-25 03:36:09,0,0,4.92126,,,1060.8681445121,4.92126,3.1540854,0,0,0,0,10.929,1060.8681445121,4.92126,0,0,2.23694,-2.23694,0,308.9, -3.1, -3,0,0,1455,1024,1024,1024,65,0,0,0,308.5,0,0,94,3.675,3.628,3.639,0,0,0,10.771,56.3,1060.8681445121,4.92126,6,P-GPS,
11600,2025-01-25 03:36:09,0,0,4.92126,,,1060.8681445121,5.249344,3.3330406,0,0,0,0,10.929,1060.8681445121,4.92126,0,0,2.23694,-2.460634,0,308.6, -5.4, -3.3,0,0,1318,1024,1024,1024,45,0,0,0,308.5,0,0,94,3.675,3.628,3.639,0,0,0,10.771,56.3,1060.8681445121,4.92126,6,P-GPS,
11700,2025-01-25 03:36:09,0,0,4.92126,,,1060.8681445121,5.249344,3.4896264,0,0,0,0,10.929,1060.8681445121,4.92126,0,0,2.23694,-2.684328,0,308.7, -7.4, -3.4,0,0,1024,1024,1024,1024,0,0,0,0,308.5,0,0,94,3.675,3.628,3.639,0,0,0,10.771,56.3,1060.8681445121,4.92126,6,P-GPS,
11800,2025-01-25 03:36:09,0,0,4.92126,,,1060.8681445121,5.249344,3.802798,0,0,0,0,10.929,1060.8681445121,4.92126,0,0,2.460634,-2.908022,0,308.7, -1.4, -2.8,0,0,1024,1024,1024,1024,0,0,0,0,308.5,0,0,94,3.675,3.628,3.639,0,0,0,10.771,56.3,1060.8681445121,4.92126,6,P-GPS,
11900,2025-01-25 03:36:09,0,0,4.92126,,,1060.8681445121,5.249344,3.802798,0,0,0,0,10.929,1060.8681445121,4.92126,0,0,2.460634,-2.908022,0,308.3, 13.4, -2.9,0,0,1024,1024,1024,1024,0,0,0,0,308.5,0,0,94,3.675,3.628,3.639,0,0,0,10.771,56.3,1060.8681445121,4.92126,6,P-GPS,
12000,2025-01-25 03:36:09,0,0,4.92126,,,1060.8681445121,5.249344,3.0422384,0,0,0,0,10.929,1060.8681445121,4.92126,0,0,1.789552,-2.460634,0,307.8, 18.7, -2.7,0,0,1028,1160,1024,1024,1,21,0,0,308.5,0,0,94,3.675,3.628,3.639,0,0,0,10.771,56.3,1060.8681445121,4.92126,6,P-GPS,
12100,2025-01-25 03:36:09,0,0,4.92126,,,1060.8681445121,5.249344,2.23694,0,0,0,0,10.929,1060.8681445121,4.92126,0,0,1.342164,-1.789552,0,308, 11.7, -2,0,0,1024,1137,1024,1024,0,17,0,0,308.5,0,0,94,3.675,3.628,3.639,0,0,0,10.771,56.3,1060.8681445121,4.92126,6,P-GPS,
12200,2025-01-25 03:36:10,0,0,4.92126,,,1060.8681445121,5.249344,1.8119214,0,0,0,0,10.929,1060.8681445121,4.92126,0,0,0.894776,-1.565858,0,308.3, 4.2, 0,0,0,1024,1109,1024,1024,0,13,0,0,308.5,0,0,94,3.675,3.628,3.639,0,0,0,10.771,56.3,1060.8681445121,4.92126,6,P-GPS,
12300,2025-01-25 03:36:10,0,0,4.92126,,,1060.8681445121,5.249344,1.6105968,0,0,0,0,10.929,1060.8681445121,4.92126,0,0,0.894776,-1.342164,0,308.8, 3.4, 2.1,0,0,1024,1024,1024,1024,0,0,0,0,308.5,0,0,94,3.675,3.628,3.639,0,0,0,10.771,56.3,1060.8681445121,4.92126,6,P-GPS,
12400,2025-01-25 03:36:10,0,0,4.92126,,,1060.8681445121,5.249344,1.6105968,0,0,0,0,10.929,1060.8681445121,4.92126,0,0,0.894776,-1.342164,0,309.5, 5.2, 2.6,0,0,1024,1024,1024,1024,0,0,0,0,308.5,0,0,94,3.675,3.628,3.639,0,0,0,10.771,56.3,1060.8681445121,4.92126,6,P-GPS,
12500,2025-01-25 03:36:10,0,0,4.92126,,,1060.8681445121,5.249344,1.2750558,0,0,0,0,10.94,1060.8681445121,4.92126,0,0,0.894776,-0.894776,0,310, 6.5, 0.7,0,0,1024,1024,1024,1024,0,0,0,0,308.5,0,0,94,3.679,3.631,3.637,0,0,0,10.769,56.48,1060.8681445121,4.92126,6,P-GPS,
12600,2025-01-25 03:36:10,0,0,4.92126,,,1060.8681445121,5.249344,0.9395148,0,0,0,0,10.94,1060.8681445121,4.92126,0,0,0.671082,-0.671082,0,309.8, 6.8, -0.3,0,0,1024,1024,1024,1024,0,0,0,0,308.5,0,0,94,3.679,3.631,3.637,0,0,0,10.769,56.48,1060.8681445121,4.92126,6,P-GPS,
12700,2025-01-25 03:36:10,0,0,4.92126,,,1060.8681445121,5.249344,0.6263432,0,0,0,0,10.94,1060.8681445121,4.92126,0,0,0.447388,-0.447388,0,309.3, 5.7, -0.3,0,0,1024,1032,1024,1024,0,1,0,0,308.5,0,0,94,3.679,3.631,3.637,0,0,0,10.769,56.48,1060.8681445121,4.92126,6,P-GPS,
12800,2025-01-25 03:36:10,0,0,4.92126,,,1060.8681445121,5.249344,0.4921268,0,0,0,0,10.94,1060.8681445121,4.92126,0,0,0.447388,-0.223694,0,309.1, 4.2, 0,0,0,1024,1122,1024,1024,0,15,0,0,308.5,0,0,94,3.679,3.631,3.637,0,0,0,10.769,56.48,1060.8681445121,4.92126,6,P-GPS,
12900,2025-01-25 03:36:10,0,0,4.92126,,,1060.8681445121,5.249344,0.4921268,0,0,0,0,10.94,1060.8681445121,4.92126,0,0,0.447388,-0.223694,0,309, 2.5, 0.7,0,0,1024,1234,1024,1024,0,32,0,0,308.5,0,0,94,3.679,3.631,3.637,0,0,0,10.769,56.48,1060.8681445121,4.92126,6,P-GPS,
13000,2025-01-25 03:36:10,0,0,4.92126,,,1060.8681445121,5.249344,0.447388,0,0,0,0,10.94,1060.8681445121,4.92126,0,0,0.447388,0,0,309.3, 1.3, 0,0,0,1024,1254,1024,1024,0,35,0,0,308.5,0,0,94,3.679,3.631,3.637,0,0,0,10.769,56.48,1060.8681445121,4.92126,6,P-GPS,
13100,2025-01-25 03:36:10,0,0,4.92126,,,1060.8681445121,5.249344,0.447388,0,0,0,0,10.94,1060.8681445121,4.92126,0,0,0.447388,0,0,309.2, 1.3, 0.6,0,0,1024,1298,1024,1024,0,42,0,0,308.5,0,0,94,3.679,3.631,3.637,0,0,0,10.769,56.48,1060.8681445121,4.92126,6,P-GPS,
13200,2025-01-25 03:36:11,0,0,4.92126,,,1060.8681445121,5.249344,0.447388,0,0,0,0,10.94,1060.8681445121,4.92126,0,0,0.447388,0,0,309.2, 1.6, 2.1,0,0,1024,1338,1024,1024,0,48,0,0,308.5,0,0,94,3.679,3.631,3.637,0,0,0,10.769,56.48,1060.8681445121,4.92126,6,P-GPS,
13300,2025-01-25 03:36:11,0,0,4.92126,,,1060.8681445121,5.249344,0.4921268,0,0,0,0,10.94,1060.8681445121,4.92126,0,0,0.447388,0.223694,0,309.4, 0.9, 3.1,0,0,1024,1451,1024,1024,0,65,0,0,308.5,0,0,94,3.679,3.631,3.637,0,0,0,10.769,56.48,1060.8681445121,4.92126,6,P-GPS,
13400,2025-01-25 03:36:11,0,0,4.92126,,,1060.8681445121,5.249344,0.7158208,0,0,0,0,10.94,1060.8681445121,4.92126,0,0,0.671082,0.223694,0,309.6, 0.5, 4.9,0,0,1024,1441,1024,1024,0,63,0,0,308.5,0,0,94,3.679,3.631,3.637,0,0,0,10.769,56.48,1060.8681445121,4.92126,6,P-GPS,
13500,2025-01-25 03:36:11,0,0,4.92126,,,1060.8681445121,5.249344,1.006623,0,0,0,0,10.914,1060.8681445121,4.92126,0,0,0.894776,0.447388,0,309.9, 0.2, 8.8,0,0,1024,1445,1024,1024,0,64,0,0,308.5,0,0,94,3.667,3.618,3.627,0,0,0,10.903,56.66,1060.8681445121,4.92126,6,P-GPS,
13600,2025-01-25 03:36:11,0,0,4.92126,,,1060.8681445121,5.249344,1.2974252,0,0,0,0,10.914,1060.8681445121,4.92126,0,0,1.11847,0.671082,0,310.5, 0.2, 10.6,0,0,1024,1391,1024,1024,0,56,0,0,308.5,0,0,94,3.667,3.618,3.627,0,0,0,10.903,56.66,1060.8681445121,4.92126,6,P-GPS,
13700,2025-01-25 03:36:11,0,0,4.92126,,,1060.8681445121,5.249344,1.9237684,0,0,0,0,10.914,1060.8681445121,4.92126,0,0,1.565858,1.11847,0,311.4, 0.8, 10.1,0,0,1024,1383,1024,1024,0,54,0,0,308.5,0,0,94,3.667,3.618,3.627,0,0,0,10.903,56.66,1060.8681445121,4.92126,6,P-GPS,
13800,2025-01-25 03:36:11,0,0,4.92126,,,1060.8681445121,5.249344,2.23694,0,0,0,0,10.914,1060.8681445121,4.92126,0,0,1.789552,1.342164,0,312, 1.2, 10.8,0,0,1024,1383,1024,1024,0,54,0,0,308.5,0,0,94,3.667,3.618,3.627,0,0,0,10.903,56.66,1060.8681445121,4.92126,6,P-GPS,
13900,2025-01-25 03:36:11,0,0,4.92126,,,1060.8681445121,5.249344,2.5501116,0,0,0,0,10.914,1060.8681445121,4.92126,0,0,2.013246,1.565858,0,312.4, 0.1, 11.1,0,0,1024,1384,1024,1024,0,55,0,0,308.5,0,0,94,3.667,3.618,3.627,0,0,0,10.903,56.66,1060.8681445121,4.92126,6,P-GPS,
14000,2025-01-25 03:36:11,0,0,4.92126,,,1060.8681445121,5.249344,2.8632832,0,0,0,0,10.914,1060.8681445121,4.92126,0,0,2.23694,1.789552,0,312.4, -0.3, 9.8,0,0,1024,1379,1024,1024,0,54,0,0,308.5,0,0,94,3.667,3.618,3.627,0,0,0,10.903,56.66,1060.8681445121,4.92126,6,P-GPS,
14100,2025-01-25 03:36:11,0,0,4.92126,,,1060.8681445121,5.249344,3.1764548,0,0,0,0,10.914,1060.8681445121,4.92126,0,0,2.460634,2.013246,0,312.2, 0, 8.5,0,0,1024,1379,1024,1024,0,54,0,0,308.5,0,0,94,3.667,3.618,3.627,0,0,0,10.903,56.66,1060.8681445121,4.92126,6,P-GPS,
14200,2025-01-25 03:36:12,0,0,4.92126,,,1060.8681445121,5.249344,3.4896264,0,0,0,0,10.914,1060.8681445121,4.92126,0,0,2.684328,2.23694,0,311.9, 0, 8.1,0,0,1024,1336,1024,1024,0,47,0,0,308.5,0,0,94,3.667,3.618,3.627,0,0,0,10.903,56.66,1060.8681445121,4.92126,6,P-GPS,
14300,2025-01-25 03:36:12,0,0,4.92126,,,1060.8681445121,5.249344,3.6462122,0,0,0,0,10.914,1060.8681445121,4.92126,0,0,2.684328,2.460634,0,311.4, -0.5, 8.5,0,0,1024,1336,1024,1024,0,47,0,0,308.5,0,0,94,3.667,3.618,3.627,0,0,0,10.903,56.66,1060.8681445121,4.92126,6,P-GPS,
14400,2025-01-25 03:36:12,0,0,4.92126,,,1060.8681445121,5.249344,3.802798,0,0,0,0,10.914,1060.8681445121,4.92126,0,0,2.908022,2.460634,0,311.3, -0.6, 8.1,0,0,1024,1336,1024,1024,0,47,0,0,308.5,0,0,94,3.667,3.618,3.627,0,0,0,10.903,56.66,1060.8681445121,4.92126,6,P-GPS,
14500,2025-01-25 03:36:12,0,0,4.92126,,,1060.8681445121,5.249344,4.1159696,0,0,0,0,10.939,1060.8681445121,4.92126,0,0,3.131716,2.684328,0,311.2, -0.9, 8.2,0,0,1024,1326,1024,1024,0,46,0,0,308.5,0,0,94,3.669,3.622,3.629,0,0,0,10.822,56.84,1060.8681445121,4.92126,6,P-GPS,
14600,2025-01-25 03:36:12,0,0,4.92126,,,1060.8681445121,5.249344,4.1159696,0,0,0,0,10.939,1060.8681445121,4.92126,0,0,3.131716,2.684328,0,311, -0.7, 7.7,0,0,1024,1325,1024,1024,0,46,0,0,308.5,0,0,94,3.669,3.622,3.629,0,0,0,10.822,56.84,1060.8681445121,4.92126,6,P-GPS,
14700,2025-01-25 03:36:12,0,0,4.92126,,,1060.8681445121,5.249344,4.4291412,0,0,0,0,10.939,1060.8681445121,4.92126,0,0,3.35541,2.908022,0,311, -0.2, 6.5,0,0,1024,1361,1024,1024,0,51,0,0,308.5,0,0,94,3.669,3.622,3.629,0,0,0,10.822,56.84,1060.8681445121,4.92126,6,P-GPS,
14800,2025-01-25 03:36:12,0,0,4.92126,,,1060.8681445121,5.249344,4.4291412,0,0,0,0,10.939,1060.8681445121,4.92126,0,0,3.35541,2.908022,0,310.9, -0.9, 6.4,0,0,1024,1331,1024,1024,0,47,0,0,308.5,0,0,94,3.669,3.622,3.629,0,0,0,10.822,56.84,1060.8681445121,4.92126,6,P-GPS,
14900,2025-01-25 03:36:12,0,0,4.92126,,,1060.8681445121,5.249344,4.585727,0,0,0,0,10.939,1060.8681445121,4.92126,0,0,3.35541,3.131716,0,310.6, -1.3, 7.2,0,0,1024,1295,1024,1024,0,41,0,0,308.5,0,0,94,3.669,3.622,3.629,0,0,0,10.822,56.84,1060.8681445121,4.92126,6,P-GPS,
15000,2025-01-25 03:36:12,0,0,4.92126,,,1060.8681445121,5.249344,4.7646822,0,0,0,0,10.939,1060.8681445121,4.92126,0,0,3.579104,3.131716,0,310.5, -1.1, 7.8,0,0,1024,1295,1024,1024,0,41,0,0,308.5,0,0,94,3.669,3.622,3.629,0,0,0,10.822,56.84,1060.8681445121,4.92126,6,P-GPS,
15100,2025-01-25 03:36:12,0,0,4.92126,,,1060.8681445121,5.249344,4.7646822,0,0,0,0,10.939,1060.8681445121,4.92126,0,0,3.579104,3.131716,0,310.3, -1.7, 6.5,0,0,1024,1102,1024,1024,0,12,0,0,308.5,0,0,94,3.669,3.622,3.629,0,0,0,10.822,56.84,1060.8681445121,4.92126,6,P-GPS,
15200,2025-01-25 03:36:13,0,0,4.92126,,,1060.8681445121,5.249344,4.7646822,0,0,0,0,10.939,1060.8681445121,4.92126,0,0,3.579104,3.131716,0,309.9, -1.7, 2.4,0,0,1024,1024,1024,1024,0,0,0,0,308.5,0,0,94,3.669,3.622,3.629,0,0,0,10.822,56.84,1060.8681445121,4.92126,6,P-GPS,
15300,2025-01-25 03:36:13,0,0,4.92126,,,1060.8681445121,5.249344,4.7646822,0,0,0,0,10.939,1060.8681445121,4.92126,0,0,3.579104,3.131716,0,309.9, -1.2, -9.3,0,0,1024,1024,1024,1024,0,0,0,0,308.5,0,0,94,3.669,3.622,3.629,0,0,0,10.822,56.84,1060.8681445121,4.92126,6,P-GPS,
15400,2025-01-25 03:36:13,0,0,4.92126,,,1060.8681445121,5.249344,4.1159696,0,0,0,0,10.939,1060.8681445121,4.92126,0,0,3.131716,2.684328,0,308.9, -0.9, -18.3,0,0,1024,1024,1024,1024,0,0,0,0,308.5,0,0,94,3.669,3.622,3.629,0,0,0,10.822,56.84,1060.8681445121,4.92126,6,P-GPS,
15500,2025-01-25 03:36:13,0,0,4.593176,,,1060.5400605121,5.249344,3.3330406,0,0,0,0,10.897,1060.8681445121,4.92126,0,0,2.460634,2.23694,0,307.3, -0.7, -17.1,0,0,1024,1024,1024,1024,0,0,0,0,308.5,0,0,94,3.654,3.608,3.618,0,0,0,11.046,56.84,1060.5400605121,4.593176,6,P-GPS,
15600,2025-01-25 03:36:13,0,0,4.593176,,,1060.5400605121,4.92126,3.3330406,0,0,0,0,10.897,1060.8681445121,4.92126,0,0,1.789552,1.789552,0,306.8, -1.4, -12.7,0,0,1024,1024,1024,1024,0,0,0,0,308.5,0,0,94,3.654,3.608,3.618,0,0,0,11.046,56.84,1060.5400605121,4.593176,6,P-GPS,
15700,2025-01-25 03:36:13,0,0,4.593176,,,1060.5400605121,5.249344,1.901399,0,0,0,0,10.897,1060.8681445121,4.92126,0,0,1.342164,1.342164,0,306.8, -2, -10.1,0,0,1024,1024,1024,1024,0,0,0,0,308.5,0,0,94,3.654,3.608,3.618,0,0,0,11.046,56.84,1060.5400605121,4.593176,6,P-GPS,
15800,2025-01-25 03:36:13,0,0,4.593176,,,1060.5400605121,5.249344,1.4316416,0,0,0,0,10.897,1060.8681445121,4.92126,0,0,0.894776,1.11847,0,307.2, -1.7, -8.9,0,0,1024,1024,1024,1024,0,0,0,0,308.5,0,0,94,3.654,3.608,3.618,0,0,0,11.046,56.84,1060.5400605121,4.593176,6,P-GPS,
15900,2025-01-25 03:36:13,0,0,4.92126,,,1060.8681445121,5.249344,1.11847,0,0,0,0,10.897,1060.8681445121,4.92126,0,0,0.671082,0.894776,0,307.5, -1.3, -7.1,0,0,1024,1024,1024,1024,0,0,0,0,308.5,0,0,94,3.654,3.608,3.618,0,0,0,11.046,56.84,1060.8681445121,4.92126,6,P-GPS,
16000,2025-01-25 03:36:13,0,0,4.92126,,,1060.8681445121,5.249344,1.11847,0,0,0,0,10.897,1060.8681445121,4.92126,0,0,0.447388,0.671082,0,307.8, -1.2, -5.9,0,0,1024,1024,1024,1024,0,0,0,0,308.5,0,0,94,3.654,3.608,3.618,0,0,0,11.046,56.84,1060.8681445121,4.92126,6,P-GPS,
16100,2025-01-25 03:36:13,0,0,4.92126,,,1060.8681445121,5.249344,0.4921268,0,0,0,0,10.897,1060.8681445121,4.92126,0,0,0.223694,0.447388,0,308.1, -0.8, -5.3,0,0,1024,1024,1024,1024,0,0,0,0,308.5,0,0,94,3.654,3.608,3.618,0,0,0,11.046,56.84,1060.8681445121,4.92126,6,P-GPS,
16200,2025-01-25 03:36:13,0,0,4.92126,,,1060.8681445121,5.249344,0.4921268,0,0,0,0,10.897,1060.8681445121,4.92126,0,0,0.223694,0.447388,0,308.3, -0.7, -3.9,0,0,1024,1024,1024,1024,0,0,0,0,308.5,0,0,94,3.654,3.608,3.618,0,0,0,11.046,56.84,1060.8681445121,4.92126,6,P-GPS,
16300,2025-01-25 03:36:14,0,0,4.92126,,,1060.8681445121,5.249344,0.223694,0,0,0,0,10.897,1060.8681445121,4.92126,0,0,0,0.223694,0,308.6, -1, -2.8,0,0,1024,1024,1024,1024,0,0,0,0,308.5,0,0,94,3.654,3.608,3.618,0,0,0,11.046,56.84,1060.8681445121,4.92126,6,P-GPS,
16400,2025-01-25 03:36:14,0,0,4.92126,,,1060.8681445121,5.249344,0.223694,0,0,0,0,10.897,1060.8681445121,4.92126,0,0,0,0.223694,0,308.9, -1.4, -1.9,0,0,1024,1024,1024,1024,0,0,0,0,308.5,0,0,94,3.654,3.608,3.618,0,0,0,11.046,56.84,1060.8681445121,4.92126,6,P-GPS,
16500,2025-01-25 03:36:14,0,0,4.92126,,,1060.8681445121,5.249344,0.223694,0,0,0,0,10.845,1060.8681445121,4.92126,0,0,0,0.223694,0,309.1, -1.6, -1,0,0,1024,1024,1024,1024,0,0,0,0,308.5,0,0,94,3.66,3.618,3.626,0,0,0,11.692,57.02,1060.8681445121,4.92126,6,P-GPS,
16600,2025-01-25 03:36:14,0,0,4.92126,,,1060.8681445121,5.249344,0.223694,0,0,0,0,10.845,1060.8681445121,4.92126,0,0,0,0.223694,0,309.3, -1.5, -1.1,0,0,1024,1024,1024,1024,0,0,0,0,308.5,0,0,94,3.66,3.618,3.626,0,0,0,11.692,57.02,1060.8681445121,4.92126,6,P-GPS,
16700,2025-01-25 03:36:14,0,0,4.92126,,,1060.8681445121,5.249344,0.223694,0,0,0,0,10.845,1060.8681445121,4.92126,0,0,0,0.223694,0,309.4, -1.5, -1.7,0,0,1024,1024,1024,1024,0,0,0,0,308.5,0,0,94,3.66,3.618,3.626,0,0,0,11.692,57.02,1060.8681445121,4.92126,6,P-GPS,
16800,2025-01-25 03:36:14,0,0,4.92126,,,1060.8681445121,5.249344,0.223694,0,0,0,0,10.845,1060.8681445121,4.92126,0,0,0,0.223694,0,309.4, -2.5, -3.1,0,0,1024,1024,1024,1024,0,0,0,0,308.5,0,0,94,3.66,3.618,3.626,0,0,0,11.692,57.02,1060.8681445121,4.92126,6,P-GPS,
16900,2025-01-25 03:36:14,0,0,4.92126,,,1060.8681445121,5.249344,0,0,0,0,0,10.845,1060.8681445121,4.92126,0,0,0,0,0,309.4, -2.7, -2.9,0,0,1024,1034,1024,1024,0,2,0,0,308.5,0,0,94,3.66,3.618,3.626,0,0,0,11.692,57.02,1060.8681445121,4.92126,6,P-GPS,
17000,2025-01-25 03:36:14,0,0,4.92126,,,1060.8681445121,5.249344,0,0,0,0,0,10.845,1060.8681445121,4.92126,0,0,0,0,0,309.4, -1.8, -1.5,0,0,1024,1095,1024,1024,0,11,0,0,308.5,0,0,94,3.66,3.618,3.626,0,0,0,11.692,57.02,1060.8681445121,4.92126,6,P-GPS,
17100,2025-01-25 03:36:14,0,0,4.92126,,,1060.8681445121,5.249344,0,0,0,0,0,10.845,1060.8681445121,4.92126,0,0,0,0,0,309.5, -0.9, -0.6,0,0,1024,1095,1024,1024,0,11,0,0,308.5,0,0,94,3.66,3.618,3.626,0,0,0,11.692,57.02,1060.8681445121,4.92126,6,P-GPS,
17200,2025-01-25 03:36:14,0,0,4.92126,,,1060.8681445121,5.249344,0,0,0,0,0,10.845,1060.8681445121,4.92126,0,0,0,0,0,309.5, -0.6, -0.8,0,0,1024,1024,1024,1024,0,0,0,0,308.5,0,0,94,3.66,3.618,3.626,0,0,0,11.692,57.02,1060.8681445121,4.92126,6,P-GPS,
17300,2025-01-25 03:36:15,0,0,4.92126,,,1060.8681445121,5.249344,0,0,0,0,0,10.845,1060.8681445121,4.92126,0,0,0,0,0,309.6, -0.6, -1.4,0,0,1024,1024,1024,1024,0,0,0,0,308.5,0,0,94,3.66,3.618,3.626,0,0,0,11.692,57.02,1060.8681445121,4.92126,6,P-GPS,
17400,2025-01-25 03:36:15,0,0,4.92126,,,1060.8681445121,5.249344,0,0,0,0,0,10.845,1060.8681445121,4.92126,0,0,0,0,0,309.6, -0.7, -1,0,0,1024,1070,1024,1024,0,7,0,0,308.5,0,0,94,3.66,3.618,3.626,0,0,0,11.692,57.02,1060.8681445121,4.92126,6,P-GPS,
17500,2025-01-25 03:36:15,0,0,4.92126,,,1060.8681445121,5.249344,0,0,0,0,0,10.889,1060.8681445121,4.92126,0,0,0,0,0,309.7, -0.5, -0.5,0,0,1024,1072,1024,1024,0,7,0,0,308.5,0,0,94,3.658,3.61,3.617,0,0,0,10.901,57.2,1060.8681445121,4.92126,6,P-GPS,
17600,2025-01-25 03:36:15,0,0,4.92126,,,1060.8681445121,5.249344,0,0,0,0,0,10.889,1060.8681445121,4.92126,0,0,0,0,0,309.7, -0.2, -0.8,0,0,1020,1170,1024,1024,-1,22,0,0,308.5,0,0,94,3.658,3.61,3.617,0,0,0,10.901,57.2,1060.8681445121,4.92126,6,P-GPS,
17700,2025-01-25 03:36:15,0,0,4.92126,,,1060.8681445121,5.249344,0,0,0,0,0,10.889,1060.8681445121,4.92126,0,0,0,0,0,309.7, -0.3, -0.9,0,0,1024,1182,1024,1024,0,24,0,0,308.5,0,0,94,3.658,3.61,3.617,0,0,0,10.901,57.2,1060.8681445121,4.92126,6,P-GPS,
17800,2025-01-25 03:36:15,0,0,4.92126,,,1060.8681445121,5.249344,0,0,0,0,0,10.889,1060.8681445121,4.92126,0,0,0,0,0,309.6, -0.5, 0.2,0,0,1024,1212,1024,1024,0,28,0,0,308.5,0,0,94,3.658,3.61,3.617,0,0,0,10.901,57.2,1060.8681445121,4.92126,6,P-GPS,
17900,2025-01-25 03:36:15,0,0,4.92126,,,1060.8681445121,5.249344,0,0,0,0,0,10.889,1060.8681445121,4.92126,0,0,0,0,0,309.6, -0.4, 1.5,0,0,982,1278,1024,1024,-6,38,0,0,308.5,0,0,94,3.658,3.61,3.617,0,0,0,10.901,57.2,1060.8681445121,4.92126,6,P-GPS,
18000,2025-01-25 03:36:15,0,0,4.92126,,,1060.8681445121,5.249344,0,0,0,0,0,10.889,1060.8681445121,4.92126,0,0,0,0,0,309.6, -0.2, 2.2,0,0,945,1348,1024,1024,-12,49,0,0,308.5,0,0,94,3.658,3.61,3.617,0,0,0,10.901,57.2,1060.8681445121,4.92126,6,P-GPS,
18100,2025-01-25 03:36:15,0,0,4.92126,,,1060.8681445121,5.249344,0,0,0,0,0,10.889,1060.8681445121,4.92126,0,0,0,0,0,309.6, -0.3, 3.3,0,0,1024,1388,1024,1024,0,55,0,0,308.5,0,0,94,3.658,3.61,3.617,0,0,0,10.901,57.2,1060.8681445121,4.92126,6,P-GPS,
18200,2025-01-25 03:36:15,0,0,4.92126,,,1060.8681445121,5.249344,0.3131716,0,0,0,0,10.889,1060.8681445121,4.92126,0,0,0.223694,0.223694,0,309.7, -0.4, 6.2,0,0,1024,1407,1024,1024,0,58,0,0,308.5,0,0,94,3.658,3.61,3.617,0,0,0,10.901,57.2,1060.8681445121,4.92126,6,P-GPS,
18300,2025-01-25 03:36:16,0,0,4.92126,,,1060.8681445121,5.249344,0.4921268,0,0,0,0,10.889,1060.8681445121,4.92126,0,0,0.447388,0.223694,0,310.1, -0.3, 9.7,0,0,1024,1407,1024,1024,0,58,0,0,308.5,0,0,94,3.658,3.61,3.617,0,0,0,10.901,57.2,1060.8681445121,4.92126,6,P-GPS,
18400,2025-01-25 03:36:16,0,0,4.92126,,,1060.8681445121,5.249344,0.9395148,0,0,0,0,10.889,1060.8681445121,4.92126,0,0,0.671082,0.671082,0,310.8, -0.1, 11.2,0,0,984,1412,1024,1024,-6,59,0,0,308.5,0,0,94,3.658,3.61,3.617,0,0,0,10.901,57.2,1060.8681445121,4.92126,6,P-GPS,
18500,2025-01-25 03:36:16,0,0,4.92126,,,1060.8681445121,5.249344,1.4316416,0,0,0,0,10.87,1060.8681445121,4.92126,0,0,1.11847,0.894776,0,311.5, -0.1, 11.3,0,0,1002,1418,1024,1024,-3,60,0,0,308.5,0,0,94,3.652,3.603,3.611,0,0,0,11.237,57.38,1060.8681445121,4.92126,6,P-GPS,
18600,2025-01-25 03:36:16,0,0,4.92126,,,1060.8681445121,5.249344,1.7448132,0,0,0,0,10.87,1060.8681445121,4.92126,0,0,1.342164,1.11847,0,311.9, -0.3, 12.1,0,0,994,1417,1024,1024,-5,60,0,0,308.5,0,0,94,3.652,3.603,3.611,0,0,0,11.237,57.38,1060.8681445121,4.92126,6,P-GPS,
18700,2025-01-25 03:36:16,0,0,4.92126,,,1060.8681445121,5.249344,2.3711564,0,0,0,0,10.87,1060.8681445121,4.92126,0,0,1.789552,1.565858,0,312.1, -0.6, 13.2,0,0,980,1421,1024,1024,-7,60,0,0,308.5,0,0,94,3.652,3.603,3.611,0,0,0,11.237,57.38,1060.8681445121,4.92126,6,P-GPS,
18800,2025-01-25 03:36:16,0,0,4.92126,,,1060.8681445121,5.249344,2.8632832,0,0,0,0,10.87,1060.8681445121,4.92126,0,0,2.23694,1.789552,0,312.3, -0.7, 13.6,0,0,1017,1421,1024,1024,-1,60,0,0,308.5,0,0,94,3.652,3.603,3.611,0,0,0,11.237,57.38,1060.8681445121,4.92126,6,P-GPS,
18900,2025-01-25 03:36:16,0,0,4.92126,,,1060.8681445121,5.249344,3.1764548,0,0,0,0,10.87,1060.8681445121,4.92126,0,0,2.460634,2.013246,0,312.5, -0.5, 13.5,0,0,1015,1418,1024,1024,-1,60,0,0,308.5,0,0,94,3.652,3.603,3.611,0,0,0,11.237,57.38,1060.8681445121,4.92126,6,P-GPS,
19000,2025-01-25 03:36:16,0,0,4.92126,,,1060.8681445121,5.249344,3.802798,0,0,0,0,10.87,1060.8681445121,4.92126,0,0,2.908022,2.460634,0,312.7, -0.4, 13.2,0,0,1008,1400,1024,1024,-2,57,0,0,308.5,0,0,94,3.652,3.603,3.611,0,0,0,11.237,57.38,1060.8681445121,4.92126,6,P-GPS,
19100,2025-01-25 03:36:16,0,0,4.92126,,,1060.8681445121,5.249344,4.1159696,0,0,0,0,10.87,1060.8681445121,4.92126,0,0,3.131716,2.684328,0,312.6, -0.4, 12.5,0,0,996,1391,1024,1024,-4,56,0,0,308.5,0,0,94,3.652,3.603,3.611,0,0,0,11.237,57.38,1060.8681445121,4.92126,6,P-GPS,
19200,2025-01-25 03:36:17,0,0,4.92126,,,1060.8681445121,5.249344,4.7646822,0,0,0,0,10.87,1060.8681445121,4.92126,0,0,3.579104,3.131716,0,312.4, -0.7, 11,0,0,989,1391,1024,1024,-5,56,0,0,308.5,0,0,94,3.652,3.603,3.611,0,0,0,11.237,57.38,1060.8681445121,4.92126,6,P-GPS,
19300,2025-01-25 03:36:17,0,0,4.92126,,,1060.8681445121,5.249344,4.921268,0,0,0,0,10.87,1060.8681445121,4.92126,0,0,3.802798,3.131716,0,312.2, -1.1, 9.8,0,0,1022,1347,1024,1024,-0,49,0,0,308.5,0,0,94,3.652,3.603,3.611,0,0,0,11.237,57.38,1060.8681445121,4.92126,6,P-GPS,
19400,2025-01-25 03:36:17,0,0,4.92126,,,1060.8681445121,5.249344,5.2344396,0,0,0,0,10.87,1060.8681445121,4.92126,0,0,4.026492,3.35541,0,311.7, -1.1, 9.4,0,0,1024,1315,1024,1024,0,44,0,0,308.5,0,0,94,3.652,3.603,3.611,0,0,0,11.237,57.38,1060.8681445121,4.92126,6,P-GPS,
19500,2025-01-25 03:36:17,0,0,4.92126,,,1060.8681445121,5.249344,5.5476112,0,0,0,0,10.844,1060.8681445121,4.92126,0,0,4.250186,3.579104,0,311.4, -1, 8.4,0,0,1024,1315,1024,1024,0,44,0,0,308.5,0,0,94,3.644,3.595,3.602,0,0,0,11.513,57.56,1060.8681445121,4.92126,6,P-GPS,
19600,2025-01-25 03:36:17,0,0,4.92126,,,1060.8681445121,5.249344,5.7265664,0,0,0,0,10.844,1060.8681445121,4.92126,0,0,4.47388,3.579104,0,311.3, -0.9, 5.9,0,0,1023,1024,1024,1024,-0,0,0,0,308.5,0,0,94,3.644,3.595,3.602,0,0,0,11.513,57.56,1060.8681445121,4.92126,6,P-GPS,
19700,2025-01-25 03:36:17,0,0,4.92126,,,1060.8681445121,5.249344,5.8607828,0,0,0,0,10.844,1060.8681445121,4.92126,0,0,4.47388,3.802798,0,311, -0.5, 0.4,0,0,1024,1024,1024,1024,0,0,0,0,308.5,0,0,94,3.644,3.595,3.602,0,0,0,11.513,57.56,1060.8681445121,4.92126,6,P-GPS,
19800,2025-01-25 03:36:17,0,0,4.92126,,,1060.8681445121,5.249344,5.7265664,0,0,0,0,10.844,1060.8681445121,4.92126,0,0,4.47388,3.579104,0,310.4, -0.5, -14.2,0,0,1024,1024,1024,1051,0,0,0,4,308.5,0,0,94,3.644,3.595,3.602,0,0,0,11.513,57.56,1060.8681445121,4.92126,6,P-GPS,
19900,2025-01-25 03:36:17,0,0,4.92126,,,1060.8681445121,5.249344,4.921268,0,0,0,0,10.844,1060.8681445121,4.92126,0,0,3.802798,3.131716,0,308.6, -0.6, -24.7,0,0,1024,1024,1024,1139,0,0,0,17,308.5,0,0,94,3.644,3.595,3.602,0,0,0,11.513,57.56,1060.8681445121,4.92126,6,P-GPS,
20000,2025-01-25 03:36:17,0,0,4.92126,,,1060.8681445121,5.249344,3.802798,0,0,0,0,10.844,1060.8681445121,4.92126,0,0,2.908022,2.460634,0,307.7, -0.4, -22.3,0,0,1024,1024,1024,1197,0,0,0,26,308.7,0,0,94,3.644,3.595,3.602,0,0,0,11.513,57.56,1060.8681445121,4.92126,6,P-GPS,
20100,2025-01-25 03:36:17,0,0,4.92126,,,1060.8681445121,5.249344,2.684328,0,0,0,0,10.844,1060.8681445121,4.92126,0,0,2.013246,1.789552,0,307.7, -0.7, -14.7,0,0,1024,1024,1024,1283,0,0,0,39,309,0,0,94,3.644,3.595,3.602,0,0,0,11.513,57.56,1060.8681445121,4.92126,6,P-GPS,
20200,2025-01-25 03:36:18,0,0,4.92126,,,1060.8681445121,5.249344,2.2145706,0,0,0,0,10.844,1060.8681445121,4.92126,0,0,1.565858,1.565858,0,308.1, -1, -10.7,0,0,1024,1024,1024,1352,0,0,0,50,309.7,0,0,94,3.644,3.595,3.602,0,0,0,11.513,57.56,1060.8681445121,4.92126,6,P-GPS,
20300,2025-01-25 03:36:18,0,0,4.92126,,,1060.8681445121,5.249344,1.901399,0,0,0,0,10.844,1060.8681445121,4.92126,0,0,1.342164,1.342164,0,308.7, -0.8, -10.6,0,0,1024,1024,1024,1409,0,0,0,58,310.7,0,0,94,3.644,3.595,3.602,0,0,0,11.513,57.56,1060.8681445121,4.92126,6,P-GPS,
20400,2025-01-25 03:36:18,0,0,4.92126,,,1060.8681445121,5.249344,1.5882274,0,0,0,0,10.844,1060.8681445121,4.92126,0,0,1.11847,1.11847,0,309.7, -0.5, -10.6,0,0,1024,1024,1024,1374,0,0,0,53,312,0,0,94,3.644,3.595,3.602,0,0,0,11.513,57.56,1060.8681445121,4.92126,6,P-GPS,
20500,2025-01-25 03:36:18,0,0,4.92126,,,1060.8681445121,5.249344,1.2750558,0,0,0,0,10.863,1060.8681445121,4.92126,0,0,0.894776,0.894776,0,311, -0.3, -9,0,0,1024,1024,1024,1517,0,0,0,75,313.6,0,0,94,3.612,3.567,3.582,0,0,0,11.641,57.74,1060.8681445121,4.92126,6,P-GPS,
20600,2025-01-25 03:36:18,0,0,4.92126,,,1060.8681445121,5.249344,0.9395148,0,0,0,0,10.863,1060.8681445121,4.92126,0,0,0.671082,0.671082,0,312.7, -0.1, -7.2,0,0,1024,1024,1024,1517,0,0,0,75,315.3,0,0,94,3.612,3.567,3.582,0,0,0,11.641,57.74,1060.8681445121,4.92126,6,P-GPS,
20700,2025-01-25 03:36:18,0,0,4.92126,,,1060.8681445121,5.249344,0.6263432,0,0,0,0,10.863,1060.8681445121,4.92126,0,0,0.447388,0.447388,0,314.9, -0.1, -6.3,0,0,1024,1024,1024,1571,0,0,0,83,317.2,0,0,94,3.612,3.567,3.582,0,0,0,11.641,57.74,1060.8681445121,4.92126,6,P-GPS,
20800,2025-01-25 03:36:18,0,0,4.92126,,,1060.8681445121,5.249344,0.4921268,0,0,0,0,10.863,1060.8681445121,4.92126,0,0,0.223694,0.447388,0,317.4, -0.4, -5.7,0,0,1024,1024,1024,1674,0,0,0,98,319.5,0,0,94,3.612,3.567,3.582,0,0,0,11.641,57.74,1060.8681445121,4.92126,6,P-GPS,
20900,2025-01-25 03:36:18,0,0,4.92126,,,1060.8681445121,5.249344,0.4921268,0,0,0,0,10.863,1060.8681445121,4.92126,0,0,0.223694,0.447388,0,320.2, -0.3, -5.2,0,0,1024,1024,1024,1598,0,0,0,87,322.1,0,0,94,3.612,3.567,3.582,0,0,0,11.641,57.74,1060.8681445121,4.92126,6,P-GPS,
21000,2025-01-25 03:36:18,0,0,4.92126,,,1060.8681445121,5.249344,0.3131716,0,0,0,0,10.863,1060.8681445121,4.92126,0,0,0.223694,0.223694,0,322.9, -0.1, -4.3,0,0,1024,1024,1024,1593,0,0,0,86,325,0,0,94,3.612,3.567,3.582,0,0,0,11.641,57.74,1060.8681445121,4.92126,6,P-GPS,
21100,2025-01-25 03:36:18,0,0,4.92126,,,1060.8681445121,5.249344,0.3131716,0,0,0,0,10.863,1060.8681445121,4.92126,0,0,0.223694,0.223694,0,326, -0.1, -3.7,0,0,1024,1024,1024,1571,0,0,0,83,327.8,0,0,94,3.612,3.567,3.582,0,0,0,11.641,57.74,1060.8681445121,4.92126,6,P-GPS,
21200,2025-01-25 03:36:19,0,0,4.92126,,,1060.8681445121,5.249344,0.223694,0,0,0,0,10.863,1060.8681445121,4.92126,0,0,0,0.223694,0,329, 0, -3.5,0,0,1024,1024,1024,1584,0,0,0,85,330.6,0,0,94,3.612,3.567,3.582,0,0,0,11.641,57.74,1060.8681445121,4.92126,6,P-GPS,
21300,2025-01-25 03:36:19,0,0,4.92126,,,1060.8681445121,5.249344,0.223694,0,0,0,0,10.863,1060.8681445121,4.92126,0,0,0,0.223694,0,331.9, 0.3, -3.7,0,0,1024,1024,1024,1209,0,0,0,28,333.3,0,0,94,3.612,3.567,3.582,0,0,0,11.641,57.74,1060.8681445121,4.92126,6,P-GPS,
21400,2025-01-25 03:36:19,0,0,4.92126,,,1060.8681445121,5.249344,0.223694,0,0,0,0,10.863,1060.8681445121,4.92126,0,0,0,0.223694,0,334.5, 0.4, -4.2,0,0,1024,1024,1024,1024,0,0,0,0,335.8,0,0,94,3.612,3.567,3.582,0,0,0,11.641,57.74,1060.8681445121,4.92126,6,P-GPS,
21500,2025-01-25 03:36:19,0,0,4.92126,,,1060.8681445121,5.249344,0,0,0,0,0,10.857,1060.8681445121,4.92126,0,0,0,0,0,336.3, 0.4, -5.4,0,0,1024,1024,1024,1024,0,0,0,0,337.5,0,0,94,3.647,3.6,3.606,0,0,0,11.574,57.74,1060.8681445121,4.92126,6,P-GPS,
21600,2025-01-25 03:36:19,0,0,4.92126,,,1060.8681445121,5.249344,0,0,0,0,0,10.857,1060.8681445121,4.92126,0,0,0,0,0,337.4, 0.1, -4.6,0,0,1024,1024,1024,1024,0,0,0,0,338.3,0,0,94,3.647,3.6,3.606,0,0,0,11.574,57.74,1060.8681445121,4.92126,6,P-GPS,
21700,2025-01-25 03:36:19,0,0,4.92126,,,1060.8681445121,5.249344,0,0,0,0,0,10.857,1060.8681445121,4.92126,0,0,0,0,0,338.2, 0, -2.5,0,0,1024,1024,1024,1024,0,0,0,0,338.5,0,0,94,3.647,3.6,3.606,0,0,0,11.574,57.74,1060.8681445121,4.92126,6,P-GPS,
21800,2025-01-25 03:36:19,0,0,4.92126,,,1060.8681445121,5.249344,0,0,0,0,0,10.857,1060.8681445121,4.92126,0,0,0,0,0,338.6, 0.2, -1.6,0,0,1024,1024,1024,1024,0,0,0,0,338.5,0,0,94,3.647,3.6,3.606,0,0,0,11.574,57.74,1060.8681445121,4.92126,6,P-GPS,
21900,2025-01-25 03:36:19,0,0,4.92126,,,1060.8681445121,5.249344,0,0,0,0,0,10.857,1060.8681445121,4.92126,0,0,0,0,0,338.9, 0.3, -2.1,0,0,1024,1337,1024,1024,0,47,0,0,338.5,0,0,94,3.647,3.6,3.606,0,0,0,11.574,57.74,1060.8681445121,4.92126,6,P-GPS,
22000,2025-01-25 03:36:19,0,0,4.92126,,,1060.8681445121,5.249344,0,0,0,0,0,10.857,1060.8681445121,4.92126,0,0,0,0,0,339, 0.4, -0.8,0,0,1024,1417,1024,1024,0,60,0,0,338.5,0,0,94,3.647,3.6,3.606,0,0,0,11.574,57.74,1060.8681445121,4.92126,6,P-GPS,
22100,2025-01-25 03:36:19,0,0,4.92126,,,1060.8681445121,5.249344,0,0,0,0,0,10.857,1060.8681445121,4.92126,0,0,0,0,0,339.1, 0.5, 6,0,0,1024,1422,1024,1024,0,60,0,0,338.5,0,0,94,3.647,3.6,3.606,0,0,0,11.574,57.74,1060.8681445121,4.92126,6,P-GPS,
22200,2025-01-25 03:36:20,0,0,4.92126,,,1060.8681445121,5.249344,0.223694,0,0,0,0,10.857,1060.8681445121,4.92126,0,0,0,0.223694,0,340, 0.3, 12.1,0,0,1024,1341,1024,1024,0,48,0,0,338.5,0,0,94,3.647,3.6,3.606,0,0,0,11.574,57.74,1060.8681445121,4.92126,6,P-GPS,
22300,2025-01-25 03:36:20,0,0,4.92126,,,1060.8681445121,5.249344,0.9171454,0,0,0,0,10.857,1060.8681445121,4.92126,0,0,0.223694,0.894776,0,341.2, 0, 13.3,0,0,1024,1024,1024,1024,0,0,0,0,338.5,0,0,94,3.647,3.6,3.606,0,0,0,11.574,57.74,1060.8681445121,4.92126,6,P-GPS,
22400,2025-01-25 03:36:20,0,0,4.92126,,,1060.8681445121,5.249344,0.9171454,0,0,0,0,10.857,1060.8681445121,4.92126,0,0,0.447388,1.342164,0,342, -0.1, 8.1,0,0,1024,1024,1024,1024,0,0,0,0,338.5,0,0,94,3.647,3.6,3.606,0,0,0,11.574,57.74,1060.8681445121,4.92126,6,P-GPS,
