time(millisecond),datetime(utc),latitude,longitude,height_above_takeoff(feet),height_above_ground_at_drone_location(feet),ground_elevation_at_drone_location(feet),altitude_above_seaLevel(feet),height_sonar(feet),speed(mph),distance(feet),mileage(feet),satellites,gpslevel,voltage(v),max_altitude(feet),max_ascent(feet),max_speed(mph),max_distance(feet), xSpeed(mph), ySpeed(mph), zSpeed(mph), compass_heading(degrees), pitch(degrees), roll(degrees),isPhoto,isVideo,rc_elevator,rc_aileron,rc_throttle,rc_rudder,rc_elevator(percent),rc_aileron(percent),rc_throttle(percent),rc_rudder(percent),gimbal_heading(degrees),gimbal_pitch(degrees),gimbal_roll(degrees),battery_percent,voltageCell1,voltageCell2,voltageCell3,voltageCell4,voltageCell5,voltageCell6,current(A),battery_temperature(f),altitude(feet),ascent(feet),flycStateRaw,flycState,message
100,2025-01-07 02:03:22,0,0,0,Available with any HD 360 subscription,Available with any HD 360 subscription,1049.4040276754,0.328084,0,0,0,0,0,0,1049.4040276754,0,0,0,0,0,0,51.7, 4.2, 0.6,0,0,1024,1024,1024,1024,0,0,0,0,51.8,0,0,96,4.229,4.227,4.224,4.226,0,0,0,64.04,1049.4040276754,0,41,Motors_Started,"Setting new Return-To-Home altitude to 100m (328 ft). Data Recorder File Index is 84. Setting new Maximum Flight Altitude to 30m (98 ft) 機体は飛行していません。ビジョンシステムと障害物回避が無効です (Code: 180059)"
300,2025-01-07 02:03:22,0,0,0,,,1049.4040276754,0.328084,0,0,0,0,0,0,1049.4040276754,0,0,0,0,0,0,51.7, 4.2, 0.6,0,0,1024,1024,1024,1024,0,0,0,0,51.8,0,0,96,4.229,4.227,4.224,4.226,0,0,0,64.04,1049.4040276754,0,41,Motors_Started,飛行中
500,2025-01-07 02:03:22,0,0,0,,,1049.4040276754,0,0,0,0,0,0,0,1049.4040276754,0,0,0,0,0,0,51.7, 4.2, 0.6,0,0,1024,1024,1024,1024,0,0,0,0,51.8,0,0,96,4.229,4.227,4.224,4.226,0,0,0,64.04,1049.4040276754,0,41,Motors_Started,
700,2025-01-07 02:03:22,0,0,0,,,1049.4040276754,0,0,0,0,0,0,0,1049.4040276754,0,0,0,0,0,0,51.7, 4.2, 0.6,0,0,1024,1024,1024,1024,0,0,0,0,51.8,0,0,96,4.229,4.227,4.224,4.226,0,0,0,64.04,1049.4040276754,0,41,Motors_Started,"GNSSがありません。慎重に飛行してください GNSS信号が微弱です。ホバリングが不安定です。慎重に飛行してください (Code: 30002). 機体は飛行していません。ビジョンシステムと障害物回避が無効です (Code: 180059)"
900,2025-01-07 02:03:22,0,0,0,,,1049.4040276754,0,0,0,0,0,0,0,1049.4040276754,0,0,0,0,0,0,51.7, 4.2, 0.6,0,0,1024,1024,1024,1024,0,0,0,0,51.8,0,0,96,4.229,4.227,4.224,4.226,0,0,0,64.04,1049.4040276754,0,41,Motors_Started,
1100,2025-01-07 02:03:22,0,0,0,,,1049.4040276754,0,0,0,0,0,0,16.935,1049.4040276754,0,0,0,0,0,0,51.7, 4.2, 0.6,0,0,1024,1024,1024,1024,0,0,0,0,51.8,0,0,96,4.229,4.227,4.224,4.226,0,0,2.716,64.04,1049.4040276754,0,41,Motors_Started,
1300,2025-01-07 02:03:23,0,0,0,,,1049.4040276754,0,0,0,0,0,0,16.935,1049.4040276754,0,0,0,0,0,0,51.8, 4.2, 0.6,0,0,1024,1024,1024,1024,0,0,0,0,51.8,0,0,96,4.229,4.227,4.224,4.226,0,0,2.716,64.04,1049.4040276754,0,41,Motors_Started,
1500,2025-01-07 02:03:23,0,0,0,,,1049.4040276754,0,0,0,0,0,0,16.935,1049.4040276754,0,0,0,0,0,0,51.8, 4.2, 0.6,0,0,1024,1024,1024,1024,0,0,0,0,51.8,0,0,96,4.229,4.227,4.224,4.226,0,0,2.716,64.04,1049.4040276754,0,41,Motors_Started,
1700,2025-01-07 02:03:23,0,0,0,,,1049.4040276754,0,0,0,0,0,0,16.935,1049.4040276754,0,0,0,0,0,0,51.8, 4.2, 0.6,0,0,1024,1024,1024,1024,0,0,0,0,51.8,0,0,96,4.229,4.227,4.224,4.226,0,0,2.716,64.04,1049.4040276754,0,11,AutoTakeoff,
1900,2025-01-07 02:03:23,0,0,0,,,1049.4040276754,0,0,0,0,0,0,16.935,1049.4040276754,0,0,0,0,0,0,51.7, 4.1, 0.6,0,0,1024,1024,1024,1024,0,0,0,0,51.8,0,0,96,4.229,4.227,4.224,4.226,0,0,2.716,64.04,1049.4040276754,0,11,AutoTakeoff,
2100,2025-01-07 02:03:23,0,0,0,,,1049.4040276754,0,0,0,0,0,0,17.042,1049.4040276754,0,0,0,0,0,0,51.5, 1.5, 0.5,0,0,1024,1024,1024,1024,0,0,0,0,51.8,0,0,96,4.265,4.256,4.248,4.247,0,0,3.641,64.04,1049.4040276754,0,11,AutoTakeoff,"機体は飛行していません。ビジョンシステムと障害物回避が無効です (Code: 180059)"
2300,2025-01-07 02:03:24,0,0,0,,,1049.4040276754,0,0,0,0,0,0,17.042,1049.4040276754,0,0,0,0,0,-0.671082,51.6, -2.8, 0.4,0,0,1024,1024,1024,1024,0,0,0,0,51.8,0,0,96,4.265,4.256,4.248,4.247,0,0,3.641,64.04,1049.4040276754,0,11,AutoTakeoff,
2500,2025-01-07 02:03:24,0,0,0.328084,,,1049.7321116754,0.328084,0,0,0,0,0,17.042,1049.7321116754,0.328084,0,0,0,0,-0.894776,51.4, 1.2, 0.1,0,0,1024,1024,1024,1024,0,0,0,0,51.8,0,0,96,4.265,4.256,4.248,4.247,0,0,3.641,64.04,1049.7321116754,0.328084,11,AutoTakeoff,
2700,2025-01-07 02:03:24,0,0,0.656168,,,1050.0601956754,0.656168,0,0,0,0,0,17.042,1050.0601956754,0.656168,0,0,0,0,-0.894776,51.6, 2.1, 0.4,0,0,1024,1024,1024,1024,0,0,0,0,51.8,0,0,96,4.265,4.256,4.248,4.247,0,0,3.641,64.04,1050.0601956754,0.656168,11,AutoTakeoff,
2900,2025-01-07 02:03:24,0,0,0.984252,,,1050.3882796754,0.984252,0,0,0,0,0,17.042,1050.3882796754,0.984252,0,0,0,0,-0.894776,51.8, 1.1, 1.2,0,0,1024,1024,1079,1024,0,0,8,0,51.8,0,0,96,4.265,4.256,4.248,4.247,0,0,3.641,64.04,1050.3882796754,0.984252,11,AutoTakeoff,
3100,2025-01-07 02:03:24,0,0,0.984252,,,1050.3882796754,1.312336,0,0,0,0,0,16.67,1050.3882796754,0.984252,0,0,0,0,-0.894776,51.5, 0.8, 1.9,0,0,1024,1024,1131,1024,0,0,16,0,51.8,0,0,96,4.163,4.16,4.157,4.159,0,0,6.371,64.04,1050.3882796754,0.984252,11,AutoTakeoff,
3300,2025-01-07 02:03:25,0,0,1.312336,,,1050.7163636754,1.64042,0,0,0,0,0,16.67,1050.7163636754,1.312336,0,0,0,0,-0.894776,51.5, 0.9, 1.9,0,0,1024,1024,1217,1024,0,0,29,0,51.8,0,0,96,4.163,4.16,4.157,4.159,0,0,6.371,64.04,1050.7163636754,1.312336,11,AutoTakeoff,
3500,2025-01-07 02:03:25,0,0,1.968504,,,1051.3725316754,1.968504,0,0,0,0,0,16.67,1051.3725316754,1.968504,0,0,0,0,-1.342164,51.5, 0.9, 2,0,0,1024,1024,1330,1024,0,0,46,0,51.8,0,0,96,4.163,4.16,4.157,4.159,0,0,6.371,64.04,1051.3725316754,1.968504,11,AutoTakeoff,
3700,2025-01-07 02:03:25,0,0,2.296588,,,1051.7006156754,2.296588,0,0,0,0,0,16.67,1051.7006156754,2.296588,0,0,0,0,-1.789552,51.7, 0.7, 1.2,0,0,1024,1024,1365,1024,0,0,52,0,51.8,0,0,96,4.163,4.16,4.157,4.159,0,0,6.371,64.04,1051.7006156754,2.296588,11,AutoTakeoff,
3900,2025-01-07 02:03:25,0,0,2.952756,,,1052.3567836754,3.28084,0,0,0,0,0,16.67,1052.3567836754,2.952756,0,0,0,0,-2.908022,51.8, 0.8, 0.1,0,0,1024,1024,1358,1024,0,0,51,0,51.8,0,0,96,4.163,4.16,4.157,4.159,0,0,6.371,64.04,1052.3567836754,2.952756,11,AutoTakeoff,飛行中
4100,2025-01-07 02:03:25,0,0,4.265092,,,1053.6691196754,4.265092,0,0,0,0,0,16.55,1053.6691196754,4.265092,0,0,0,0,-3.802798,51.7, 1.3, 0.1,0,0,1024,1024,1350,1024,0,0,49,0,51.8,0,0,96,4.123,4.118,4.107,4.106,0,0,8.96,64.22,1053.6691196754,4.265092,6,P-GPS,
4300,2025-01-07 02:03:26,0,0,5.249344,,,1054.6533716754,5.577428,0,0,0,0,0,16.55,1054.6533716754,5.249344,0,0,0,0,-3.579104,51.8, 1, 0.1,0,0,1024,1024,1177,1024,0,0,23,0,51.8,0,0,96,4.123,4.118,4.107,4.106,0,0,8.96,64.22,1054.6533716754,5.249344,6,P-GPS,
4500,2025-01-07 02:03:26,0,0,6.56168,,,1055.9657076754,6.56168,0,0,0,0,0,16.55,1055.9657076754,6.56168,0,0,0,0,-3.35541,51.7, 0.3, 0.5,0,0,1024,1024,1039,1024,0,0,2,0,51.8,0,0,96,4.123,4.118,4.107,4.106,0,0,8.96,64.22,1055.9657076754,6.56168,6,P-GPS,
4700,2025-01-07 02:03:26,0,0,7.217848,,,1056.6218756754,7.545932,0,0,0,0,0,16.55,1056.6218756754,7.217848,0,0,0,0,-2.23694,51.7, 0.5, 0.9,0,0,1024,1489,1024,1024,0,70,0,0,51.8,0,0,96,4.123,4.118,4.107,4.106,0,0,8.96,64.22,1056.6218756754,7.217848,6,P-GPS,
4900,2025-01-07 02:03:26,0,0,7.874016,,,1057.2780436754,7.874016,0,0,0,0,0,16.55,1057.2780436754,7.874016,0,0,0,0,-0.447388,51.8, 0.5, 2.6,0,0,1019,1528,1024,1024,-1,76,0,0,51.8,0,0,96,4.123,4.118,4.107,4.106,0,0,8.96,64.22,1057.2780436754,7.874016,6,P-GPS,
5100,2025-01-07 02:03:26,0,0,7.874016,,,1057.2780436754,7.874016,0,0,0,0,0,16.581,1057.2780436754,7.874016,0,0,0,0,0,51.8, 0.5, 14,0,0,1024,1528,1024,1024,0,76,0,0,51.8,0,0,96,4.199,4.202,4.201,4.205,0,0,9.848,64.22,1057.2780436754,7.874016,6,P-GPS,
5300,2025-01-07 02:03:27,0,0,7.874016,,,1057.2780436754,7.874016,1.4316416,0,0,0,0,16.581,1057.2780436754,7.874016,0,0,-1.11847,0.894776,0,51.4, 0.4, 18.6,0,0,1021,1451,1024,1024,-0,65,0,0,51.8,0,0,96,4.199,4.202,4.201,4.205,0,0,9.848,64.22,1057.2780436754,7.874016,6,P-GPS,
5500,2025-01-07 02:03:27,0,0,7.874016,,,1057.2780436754,7.874016,2.3711564,0,0,0,0,16.581,1057.2780436754,7.874016,0,0,-1.789552,1.565858,0,51.6, 1.1, 14.9,0,0,1024,1516,1024,1024,0,75,0,0,51.8,0,0,96,4.199,4.202,4.201,4.205,0,0,9.848,64.22,1057.2780436754,7.874016,6,P-GPS,
5700,2025-01-07 02:03:27,0,0,7.874016,,,1057.2780436754,7.874016,3.4896264,0,0,0,0,16.581,1057.2780436754,7.874016,0,0,-2.684328,2.23694,0,51.6, 1.8, 16.8,0,0,1024,1399,1024,1024,0,57,0,0,51.8,0,0,96,4.199,4.202,4.201,4.205,0,0,9.848,64.22,1057.2780436754,7.874016,6,P-GPS,
5900,2025-01-07 02:03:27,0,0,7.874016,,,1057.2780436754,7.874016,4.2949248,0,0,0,0,16.581,1057.2780436754,7.874016,0,0,-3.35541,2.684328,0,51.7, 2, 16.8,0,0,1024,1412,1024,1024,0,59,0,0,51.8,0,0,96,4.199,4.202,4.201,4.205,0,0,9.848,64.22,1057.2780436754,7.874016,6,P-GPS,
6100,2025-01-07 02:03:27,0,0,7.874016,,,1057.2780436754,7.874016,5.4133948,0,0,0,0,16.546,1057.2780436754,7.874016,0,0,-4.250186,3.35541,0,51.6, 1.8, 14.8,0,0,1024,1024,1024,1024,0,0,0,0,51.8,0,0,96,4.133,4.124,4.122,4.129,0,0,7.596,64.22,1057.2780436754,7.874016,6,P-GPS,
6300,2025-01-07 02:03:28,0,0,7.874016,,,1057.2780436754,7.874016,6.2186932,0,0,0,0,16.546,1057.2780436754,7.874016,0,0,-4.921268,3.802798,0,51.9, 0.7, 10.4,0,0,1024,1024,1024,1024,0,0,0,0,51.8,0,0,96,4.133,4.124,4.122,4.129,0,0,7.596,64.22,1057.2780436754,7.874016,6,P-GPS,
6500,2025-01-07 02:03:28,0,0,7.874016,,,1057.2780436754,8.2021,5.9055216,0,0,0,0,16.546,1057.2780436754,7.874016,0,0,-4.697574,3.579104,0,52.3, 0.7, -18.6,0,0,1024,1024,1024,1024,0,0,0,0,51.8,0,0,96,4.133,4.124,4.122,4.129,0,0,7.596,64.22,1057.2780436754,7.874016,6,P-GPS,
6700,2025-01-07 02:03:28,0,0,7.874016,,,1057.2780436754,8.858268,3.6685816,0,0,0,0,16.546,1057.2780436754,7.874016,0,0,-2.908022,2.23694,0.223694,53.1, 0.1, -26.8,0,0,1024,1024,1024,1024,0,0,0,0,51.8,0,0,96,4.133,4.124,4.122,4.129,0,0,7.596,64.22,1057.2780436754,7.874016,6,P-GPS,
6900,2025-01-07 02:03:28,0,0,7.874016,,,1057.2780436754,9.514436,1.4316416,0,0,0,0,16.546,1057.2780436754,7.874016,0,0,-1.11847,0.894776,0,52.9, 2.1, -14.7,0,0,1024,1066,1024,1024,0,6,0,0,51.8,0,0,96,4.133,4.124,4.122,4.129,0,0,7.596,64.22,1057.2780436754,7.874016,6,P-GPS,
7100,2025-01-07 02:03:28,0,0,8.2021,,,1057.6061276754,9.84252,0.4921268,0,0,0,0,16.564,1057.6061276754,8.2021,0,0,-0.447388,0.223694,0,51.7, 0.7, -4.6,0,0,1024,1353,1024,1024,0,50,0,0,51.8,0,0,96,4.115,4.106,4.096,4.103,0,0,8.973,64.4,1057.6061276754,8.2021,6,P-GPS,
7300,2025-01-07 02:03:29,0,0,8.2021,,,1057.6061276754,9.84252,0.223694,0,0,0,0,16.564,1057.6061276754,8.2021,0,0,-0.223694,0,0,51.6, 0.2, 0.6,0,0,1024,1419,1024,1024,0,60,0,0,51.8,0,0,96,4.115,4.106,4.096,4.103,0,0,8.973,64.4,1057.6061276754,8.2021,6,P-GPS,
7500,2025-01-07 02:03:29,0,0,8.2021,,,1057.6061276754,9.514436,0.4921268,0,0,0,0,16.564,1057.6061276754,8.2021,0,0,-0.447388,0.223694,0,51.8, 0, 7.1,0,0,1024,1419,1024,1024,0,60,0,0,51.8,0,0,96,4.115,4.106,4.096,4.103,0,0,8.973,64.4,1057.6061276754,8.2021,6,P-GPS,
7700,2025-01-07 02:03:29,0,0,8.2021,,,1057.6061276754,9.514436,0.8052984,0,0,0,0,16.564,1057.6061276754,8.2021,0,0,-0.671082,0.447388,0,52.3, -0.1, 10.4,0,0,1024,1024,1025,1024,0,0,0,0,51.8,0,0,96,4.115,4.106,4.096,4.103,0,0,8.973,64.4,1057.6061276754,8.2021,6,P-GPS,
7900,2025-01-07 02:03:29,0,0,8.2021,,,1057.6061276754,9.514436,1.6105968,0,0,0,0,16.564,1057.6061276754,8.2021,0,0,-1.342164,0.894776,0,52.1, -0.1, 10.7,0,0,1024,1024,1024,1470,0,0,0,68,51.8,0,0,96,4.115,4.106,4.096,4.103,0,0,8.973,64.4,1057.6061276754,8.2021,6,P-GPS,
8100,2025-01-07 02:03:29,0,0,8.2021,,,1057.6061276754,9.514436,1.9237684,0,0,0,0,16.575,1057.6061276754,8.2021,0,0,-1.565858,1.11847,0,52.2, 0.3, -4.3,0,0,1024,1024,1024,1623,0,0,0,91,53.3,0,0,96,4.144,4.138,4.136,4.141,0,0,8.912,64.58,1057.6061276754,8.2021,6,P-GPS,
8300,2025-01-07 02:03:30,0,0,8.2021,,,1057.6061276754,9.514436,1.11847,0,0,0,0,16.575,1057.6061276754,8.2021,0,0,-0.894776,0.671082,0,51.8, 0.3, -9.3,0,0,1024,1024,1024,1684,0,0,0,100,61.8,0,0,96,4.144,4.138,4.136,4.141,0,0,8.912,64.58,1057.6061276754,8.2021,6,P-GPS,
8500,2025-01-07 02:03:30,0,0,8.2021,,,1057.6061276754,9.514436,0.6263432,0,0,0,0,16.575,1057.6061276754,8.2021,0,0,-0.447388,0.447388,0,58.9, 2, -5.3,0,0,1024,1024,1024,1684,0,0,0,100,73.6,0,0,96,4.144,4.138,4.136,4.141,0,0,8.912,64.58,1057.6061276754,8.2021,6,P-GPS,
8700,2025-01-07 02:03:30,0,0,8.2021,,,1057.6061276754,9.514436,0,0,0,0,0,16.575,1057.6061276754,8.2021,0,0,0,0,0,71.4, 2.9, -1.6,0,0,1024,1024,1024,1684,0,0,0,100,85.6,0,0,96,4.144,4.138,4.136,4.141,0,0,8.912,64.58,1057.6061276754,8.2021,6,P-GPS,
8900,2025-01-07 02:03:30,0,0,8.2021,,,1057.6061276754,9.514436,0,0,0,0,0,16.575,1057.6061276754,8.2021,0,0,0,0,0,83.6, 2.1, -0.2,0,0,1024,1024,1024,1684,0,0,0,100,97.6,0,0,96,4.144,4.138,4.136,4.141,0,0,8.912,64.58,1057.6061276754,8.2021,6,P-GPS,
9100,2025-01-07 02:03:31,0,0,8.2021,,,1057.6061276754,9.514436,0,0,0,0,0,16.531,1057.6061276754,8.2021,0,0,0,0,0,95.8, 1.2, 0.1,0,0,1024,1024,1024,1684,0,0,0,100,109.6,0,0,96,4.139,4.135,4.133,4.138,0,0,8.468,64.76,1057.6061276754,8.2021,6,P-GPS,
9300,2025-01-07 02:03:31,0,0,8.2021,,,1057.6061276754,9.514436,0,0,0,0,0,16.531,1057.6061276754,8.2021,0,0,0,0,0,107.8, 0.2, 0.4,0,0,1024,1024,1024,1684,0,0,0,100,121.6,0,0,96,4.139,4.135,4.133,4.138,0,0,8.468,64.76,1057.6061276754,8.2021,6,P-GPS,
9500,2025-01-07 02:03:31,0,0,8.2021,,,1057.6061276754,9.514436,0,0,0,0,0,16.531,1057.6061276754,8.2021,0,0,0,0,0,119.9, -0.5, 0.8,0,0,1024,1024,1024,1684,0,0,0,100,133.6,0,0,96,4.139,4.135,4.133,4.138,0,0,8.468,64.76,1057.6061276754,8.2021,6,P-GPS,
9700,2025-01-07 02:03:31,0,0,8.2021,,,1057.6061276754,9.186352,0,0,0,0,0,16.531,1057.6061276754,8.2021,0,0,0,0,0,131.9, -1.2, 1.1,0,0,1024,1024,1024,1684,0,0,0,100,145.6,0,0,96,4.139,4.135,4.133,4.138,0,0,8.468,64.76,1057.6061276754,8.2021,6,P-GPS,
9900,2025-01-07 02:03:31,0,0,8.2021,,,1057.6061276754,9.186352,0,0,0,0,0,16.531,1057.6061276754,8.2021,0,0,0,0,0,143.8, -1.1, 1.1,0,0,1024,1024,1024,1684,0,0,0,100,157.6,0,0,96,4.139,4.135,4.133,4.138,0,0,8.468,64.76,1057.6061276754,8.2021,6,P-GPS,
10100,2025-01-07 02:03:31,0,0,8.2021,,,1057.6061276754,9.186352,0,0,0,0,0,16.535,1057.6061276754,8.2021,0,0,0,0,0,156, -0.8, 0.9,0,0,1024,1024,1024,1684,0,0,0,100,169.6,0,0,96,4.137,4.134,4.133,4.138,0,0,8.438,64.76,1057.6061276754,8.2021,6,P-GPS,
10300,2025-01-07 02:03:32,0,0,8.2021,,,1057.6061276754,9.514436,0,0,0,0,0,16.535,1057.6061276754,8.2021,0,0,0,0,0,168, -1.7, 0.9,0,0,1024,1024,1024,1684,0,0,0,100,181.6,0,0,96,4.137,4.134,4.133,4.138,0,0,8.438,64.76,1057.6061276754,8.2021,6,P-GPS,
10500,2025-01-07 02:03:32,0,0,8.2021,,,1057.6061276754,9.186352,0,0,0,0,0,16.535,1057.6061276754,8.2021,0,0,0,0,0,179.8, -1.3, -0.1,0,0,1024,1024,1024,1684,0,0,0,100,193.6,0,0,96,4.137,4.134,4.133,4.138,0,0,8.438,64.76,1057.6061276754,8.2021,6,P-GPS,
10700,2025-01-07 02:03:32,0,0,8.2021,,,1057.6061276754,9.186352,0,0,0,0,0,16.535,1057.6061276754,8.2021,0,0,0,0,0,191.9, -1, -0.6,0,0,1024,1024,1024,1684,0,0,0,100,205.6,0,0,96,4.137,4.134,4.133,4.138,0,0,8.438,64.76,1057.6061276754,8.2021,6,P-GPS,
10900,2025-01-07 02:03:32,0,0,8.2021,,,1057.6061276754,9.186352,0,0,0,0,0,16.535,1057.6061276754,8.2021,0,0,0,0,0,203.8, -0.7, -0.2,0,0,1024,1024,1023,1684,0,0,-0,100,217.6,0,0,96,4.137,4.134,4.133,4.138,0,0,8.438,64.76,1057.6061276754,8.2021,6,P-GPS,
11100,2025-01-07 02:03:32,0,0,8.2021,,,1057.6061276754,9.186352,0,0,0,0,0,16.56,1057.6061276754,8.2021,0,0,0,0,0,215.9, -1.6, -0.5,0,0,1024,1024,1015,1684,0,0,-1,100,229.6,0,0,96,4.144,4.141,4.138,4.142,0,0,8.125,64.94,1057.6061276754,8.2021,6,P-GPS,
11300,2025-01-07 02:03:33,0,0,8.2021,,,1057.6061276754,9.186352,0,0,0,0,0,16.56,1057.6061276754,8.2021,0,0,0,0,0,227.8, -1.3, -0.8,0,0,1024,1024,1010,1684,0,0,-2,100,241.6,0,0,96,4.144,4.141,4.138,4.142,0,0,8.125,64.94,1057.6061276754,8.2021,6,P-GPS,
11500,2025-01-07 02:03:33,0,0,8.2021,,,1057.6061276754,9.186352,0,0,0,0,0,16.56,1057.6061276754,8.2021,0,0,0,0,0,239.8, -2.1, -0.9,0,0,1024,1024,1006,1684,0,0,-3,100,253.6,0,0,96,4.144,4.141,4.138,4.142,0,0,8.125,64.94,1057.6061276754,8.2021,6,P-GPS,
11700,2025-01-07 02:03:33,0,0,8.2021,,,1057.6061276754,9.186352,0,0,0,0,0,16.56,1057.6061276754,8.2021,0,0,0,0,0,251.7, -1.5, -1.1,0,0,1024,1024,1024,1658,0,0,0,96,265.6,0,0,96,4.144,4.141,4.138,4.142,0,0,8.125,64.94,1057.6061276754,8.2021,6,P-GPS,
11900,2025-01-07 02:03:33,0,0,8.2021,,,1057.6061276754,9.186352,0,0,0,0,0,16.56,1057.6061276754,8.2021,0,0,0,0,0,264, -1.6, -1,0,0,1024,1024,1024,1024,0,0,0,0,273.9,0,0,96,4.144,4.141,4.138,4.142,0,0,8.125,64.94,1057.6061276754,8.2021,6,P-GPS,
12100,2025-01-07 02:03:33,0,0,8.2021,,,1057.6061276754,9.186352,0,0,0,0,0,16.534,1057.6061276754,8.2021,0,0,0,0,0,274.4, -1.5, -0.3,0,0,1024,1024,1024,1341,0,0,0,48,274.5,0,0,96,4.136,4.132,4.131,4.138,0,0,8.059,64.94,1057.6061276754,8.2021,6,P-GPS,
12300,2025-01-07 02:03:34,0,0,8.2021,,,1057.6061276754,9.186352,0,0,0,0,0,16.534,1057.6061276754,8.2021,0,0,0,0,0,274.7, -0.9, -1.5,0,0,1024,1024,1024,1684,0,0,0,100,276.8,0,0,96,4.136,4.132,4.131,4.138,0,0,8.059,64.94,1057.6061276754,8.2021,6,P-GPS,
12500,2025-01-07 02:03:34,0,0,8.2021,,,1057.6061276754,9.186352,0,0,0,0,0,16.534,1057.6061276754,8.2021,0,0,0,0,0,275.3, -0.5, -2.9,0,0,1024,1024,1024,1024,0,0,0,0,286.5,0,0,96,4.136,4.132,4.131,4.138,0,0,8.059,64.94,1057.6061276754,8.2021,6,P-GPS,
12700,2025-01-07 02:03:34,0,0,8.2021,,,1057.6061276754,9.186352,0,0,0,0,0,16.534,1057.6061276754,8.2021,0,0,0,0,0,284.8, -0.3, -1.6,0,0,1024,1024,1024,1024,0,0,0,0,290.1,0,0,96,4.136,4.132,4.131,4.138,0,0,8.059,64.94,1057.6061276754,8.2021,6,P-GPS,
12900,2025-01-07 02:03:34,0,0,8.2021,,,1057.6061276754,9.186352,0,0,0,0,0,16.534,1057.6061276754,8.2021,0,0,0,0,0,291, -1.4, -0.8,0,0,1024,1024,1024,1452,0,0,0,65,290.1,0,0,96,4.136,4.132,4.131,4.138,0,0,8.059,64.94,1057.6061276754,8.2021,6,P-GPS,
13100,2025-01-07 02:03:34,0,0,8.2021,,,1057.6061276754,9.186352,0,0,0,0,0,16.523,1057.6061276754,8.2021,0,0,0,0,0,289.8, -0.9, -2.4,0,0,1024,1024,1024,1024,0,0,0,0,293.1,0,0,96,4.133,4.13,4.128,4.132,0,0,8.277,64.94,1057.6061276754,8.2021,6,P-GPS,
13300,2025-01-07 02:03:35,0,0,8.2021,,,1057.6061276754,9.186352,0,0,0,0,0,16.523,1057.6061276754,8.2021,0,0,0,0,0,291.8, -0.9, -2.6,0,0,1024,1024,1024,1024,0,0,0,0,295.8,0,0,96,4.133,4.13,4.128,4.132,0,0,8.277,64.94,1057.6061276754,8.2021,6,P-GPS,
13500,2025-01-07 02:03:35,0,0,8.2021,,,1057.6061276754,9.186352,0,0,0,0,0,16.523,1057.6061276754,8.2021,0,0,0,0,0,296.4, -1.3, -2.3,0,0,913,1024,1024,1024,-17,0,0,0,295.8,0,0,96,4.133,4.13,4.128,4.132,0,0,8.277,64.94,1057.6061276754,8.2021,6,P-GPS,
13700,2025-01-07 02:03:35,0,0,8.2021,,,1057.6061276754,9.186352,0,0,0,0,0,16.523,1057.6061276754,8.2021,0,0,0,0,0,295.8, -1.2, -2,0,0,748,1024,1024,1024,-42,0,0,0,295.8,0,0,96,4.133,4.13,4.128,4.132,0,0,8.277,64.94,1057.6061276754,8.2021,6,P-GPS,
13900,2025-01-07 02:03:35,0,0,8.2021,,,1057.6061276754,9.186352,0,0,0,0,0,16.523,1057.6061276754,8.2021,0,0,0,0,0,295.9, 0, -1.1,0,0,774,1024,1024,1024,-38,0,0,0,295.8,0,0,96,4.133,4.13,4.128,4.132,0,0,8.277,64.94,1057.6061276754,8.2021,6,P-GPS,
14100,2025-01-07 02:03:35,0,0,8.2021,,,1057.6061276754,9.186352,0,0,0,0,0,16.523,1057.6061276754,8.2021,0,0,0,0,0,295.9, 4.4, -1.2,0,0,764,1024,1024,1024,-39,0,0,0,295.8,0,0,95,4.125,4.119,4.117,4.124,0,0,8.289,65.12,1057.6061276754,8.2021,6,P-GPS,
14300,2025-01-07 02:03:36,0,0,8.2021,,,1057.6061276754,9.186352,0.4921268,0,0,0,0,16.523,1057.6061276754,8.2021,0,0,-0.223694,0.447388,0,295.8, 4.3, -1.3,0,0,776,1024,1024,1024,-38,0,0,0,295.8,0,0,95,4.125,4.119,4.117,4.124,0,0,8.289,65.12,1057.6061276754,8.2021,6,P-GPS,
14500,2025-01-07 02:03:36,0,0,8.2021,,,1057.6061276754,9.186352,0.8052984,0,0,0,0,16.523,1057.6061276754,8.2021,0,0,-0.447388,0.671082,0,295.9, 3.9, -1.6,0,0,742,1024,1024,1024,-43,0,0,0,295.8,0,0,95,4.125,4.119,4.117,4.124,0,0,8.289,65.12,1057.6061276754,8.2021,6,P-GPS,
14700,2025-01-07 02:03:36,0,0,8.2021,,,1057.6061276754,9.186352,1.006623,0,0,0,0,16.523,1057.6061276754,8.2021,0,0,-0.447388,0.894776,0,295.9, 4.6, -1.7,0,0,802,1024,1024,1024,-34,0,0,0,295.8,0,0,95,4.125,4.119,4.117,4.124,0,0,8.289,65.12,1057.6061276754,8.2021,6,P-GPS,
14900,2025-01-07 02:03:36,0,0,8.2021,,,1057.6061276754,9.186352,1.4987498,0,0,0,0,16.523,1057.6061276754,8.2021,0,0,-0.671082,1.342164,0,295.8, 4.4, -2,0,0,817,1024,1024,1024,-31,0,0,0,295.8,0,0,95,4.125,4.119,4.117,4.124,0,0,8.289,65.12,1057.6061276754,8.2021,6,P-GPS,
15100,2025-01-07 02:03:36,0,0,8.2021,,,1057.6061276754,9.186352,1.8119214,0,0,0,0,16.496,1057.6061276754,8.2021,0,0,-0.894776,1.565858,0,295.7, 3.7, -1.6,0,0,1024,1024,1024,1024,0,0,0,0,295.8,0,0,95,4.124,4.12,4.117,4.123,0,0,8.64,65.12,1057.6061276754,8.2021,6,P-GPS,
15300,2025-01-07 02:03:37,0,0,8.2021,,,1057.6061276754,8.858268,1.9908766,0,0,0,0,16.496,1057.6061276754,8.2021,0,0,-0.894776,1.789552,0,295.7, -3.3, -1.1,0,0,1024,1024,1102,1024,0,0,12,0,295.8,0,0,95,4.124,4.12,4.117,4.123,0,0,8.64,65.12,1057.6061276754,8.2021,6,P-GPS,
15500,2025-01-07 02:03:37,0,0,8.2021,,,1057.6061276754,9.186352,1.2974252,0,0,0,0,16.496,1057.6061276754,8.2021,0,0,-0.671082,1.11847,0,296.3, -10.6, -1.2,0,0,1024,1024,1328,1024,0,0,46,0,295.8,0,0,95,4.124,4.12,4.117,4.123,0,0,8.64,65.12,1057.6061276754,8.2021,6,P-GPS,
15700,2025-01-07 02:03:37,0,0,8.530184,,,1057.9342116754,9.186352,0.4921268,0,0,0,0,16.496,1057.9342116754,8.530184,0,0,-0.223694,0.447388,-0.223694,296.4, -6.4, -1.9,0,0,1024,1024,1369,1024,0,0,52,0,295.8,0,0,95,4.124,4.12,4.117,4.123,0,0,8.64,65.12,1057.9342116754,8.530184,6,P-GPS,
15900,2025-01-07 02:03:37,0,0,8.858268,,,1058.2622956754,9.514436,0,0,0,0,0,16.496,1058.2622956754,8.858268,0,0,0,0,-1.789552,296.2, -3, -1.8,0,0,1024,1024,1370,1024,0,0,52,0,295.8,0,0,95,4.124,4.12,4.117,4.123,0,0,8.64,65.12,1058.2622956754,8.858268,6,P-GPS,
16100,2025-01-07 02:03:37,0,0,9.514436,,,1058.9184636754,10.170604,0,0,0,0,0,16.475,1058.9184636754,9.514436,0,0,0,0,-2.908022,295.8, -1.4, -1.7,0,0,1024,1024,1367,1024,0,0,52,0,295.8,0,0,95,4.071,4.053,4.046,4.059,0,0,8.792,65.3,1058.9184636754,9.514436,6,P-GPS,
16300,2025-01-07 02:03:38,0,0,10.498688,,,1059.9027156754,11.154856,0,0,0,0,0,16.475,1059.9027156754,10.498688,0,0,0,0,-3.579104,296.1, -0.6, -1.2,0,0,1024,1024,1358,1024,0,0,51,0,295.8,0,0,95,4.071,4.053,4.046,4.059,0,0,8.792,65.3,1059.9027156754,10.498688,6,P-GPS,
16500,2025-01-07 02:03:38,0,0,11.48294,,,1060.8869676754,12.139108,0,0,0,0,0,16.475,1060.8869676754,11.48294,0,0,0,0,-3.35541,296.2, -0.8, -2.1,0,0,1024,1024,1348,1024,0,0,49,0,295.8,0,0,95,4.071,4.053,4.046,4.059,0,0,8.792,65.3,1060.8869676754,11.48294,6,P-GPS,
16700,2025-01-07 02:03:38,0,0,12.467192,,,1061.8712196754,13.12336,0,0,0,0,0,16.475,1061.8712196754,12.467192,0,0,0,0,-3.131716,296.2, 0.3, 0.3,0,0,1024,1024,1363,1024,0,0,51,0,295.8,0,0,95,4.071,4.053,4.046,4.059,0,0,8.792,65.3,1061.8712196754,12.467192,6,P-GPS,
16900,2025-01-07 02:03:38,0,0,13.451444,,,1062.8554716754,14.107612,0,0,0,0,0,16.475,1062.8554716754,13.451444,0,0,0,0,-3.131716,296.2, 0, 1.4,0,0,1024,1024,1395,1024,0,0,56,0,295.8,0,0,95,4.071,4.053,4.046,4.059,0,0,8.792,65.3,1062.8554716754,13.451444,6,P-GPS,
17100,2025-01-07 02:03:38,0,0,14.435696,,,1063.8397236754,15.091864,0,0,0,0,0,16.443,1063.8397236754,14.435696,0,0,0,0,-3.131716,296.2, 0.8, -0.5,0,0,1024,1024,1046,1024,0,0,3,0,295.8,0,0,95,4.115,4.113,4.11,4.119,0,0,10.755,65.48,1063.8397236754,14.435696,6,P-GPS,
17300,2025-01-07 02:03:39,0,0,15.419948,,,1064.8239756754,16.076116,0,0,0,0,0,16.443,1064.8239756754,15.419948,0,0,0,0,-3.131716,296.1, -0.1, -1.8,0,0,1024,1024,1024,1024,0,0,0,0,295.8,0,0,95,4.115,4.113,4.11,4.119,0,0,10.755,65.48,1064.8239756754,15.419948,6,P-GPS,
17500,2025-01-07 02:03:39,0,0,16.076116,,,1065.4801436754,17.060368,0,0,0,0,0,16.443,1065.4801436754,16.076116,0,0,0,0,-2.23694,296, -0.8, -3.9,0,0,1024,1024,1024,1024,0,0,0,0,295.8,0,0,95,4.115,4.113,4.11,4.119,0,0,10.755,65.48,1065.4801436754,16.076116,6,P-GPS,
17700,2025-01-07 02:03:39,0,0,16.4042,,,1065.8082276754,17.388452,0,0,0,0,0,16.443,1065.8082276754,16.4042,0,0,0,0,-0.671082,296, -1.3, -3.7,0,0,1024,1024,709,1024,0,0,-48,0,295.8,0,0,95,4.115,4.113,4.11,4.119,0,0,10.755,65.48,1065.8082276754,16.4042,6,P-GPS,
17900,2025-01-07 02:03:39,0,0,16.732284,,,1066.1363116754,17.388452,0,0,0,0,0,16.443,1066.1363116754,16.732284,0,0,0,0,0,296.1, -0.9, -2.6,0,0,1024,1024,733,1024,0,0,-44,0,295.8,0,0,95,4.115,4.113,4.11,4.119,0,0,10.755,65.48,1066.1363116754,16.732284,6,P-GPS,
18100,2025-01-07 02:03:39,0,0,16.4042,,,1065.8082276754,17.060368,0,0,0,0,0,16.677,1066.1363116754,16.732284,0,0,0,0,1.342164,296.2, -0.8, -2.9,0,0,1024,1024,1024,1024,0,0,0,0,295.8,0,0,95,4.153,4.148,4.14,4.144,0,0,7.896,65.48,1065.8082276754,16.4042,6,P-GPS,
18300,2025-01-07 02:03:40,0,0,15.748032,,,1065.1520596754,16.732284,0,0,0,0,0,16.677,1066.1363116754,16.732284,0,0,0,0,1.342164,296.1, -0.2, -2.4,0,0,1024,1024,1024,1024,0,0,0,0,295.8,0,0,95,4.153,4.148,4.14,4.144,0,0,7.896,65.48,1065.1520596754,15.748032,6,P-GPS,
18500,2025-01-07 02:03:40,0,0,15.419948,,,1064.8239756754,16.4042,0,0,0,0,0,16.677,1066.1363116754,16.732284,0,0,0,0,0.447388,296.4, 0.1, -2.3,0,0,1024,1024,1024,1024,0,0,0,0,295.8,0,0,95,4.153,4.148,4.14,4.144,0,0,7.896,65.48,1064.8239756754,15.419948,6,P-GPS,
18700,2025-01-07 02:03:40,0,0,15.419948,,,1064.8239756754,16.076116,0,0,0,0,0,16.677,1066.1363116754,16.732284,0,0,0,0,0,296.3, 0.4, -2.3,0,0,970,1024,1024,1024,-8,0,0,0,295.8,0,0,95,4.153,4.148,4.14,4.144,0,0,7.896,65.48,1064.8239756754,15.419948,6,P-GPS,
18900,2025-01-07 02:03:40,0,0,15.419948,,,1064.8239756754,16.076116,0,0,0,0,0,16.677,1066.1363116754,16.732284,0,0,0,0,0,296.2, -1.8, -2.5,0,0,705,1024,1024,1024,-48,0,0,0,295.8,0,0,95,4.153,4.148,4.14,4.144,0,0,7.896,65.48,1064.8239756754,15.419948,6,P-GPS,
19100,2025-01-07 02:03:40,0,0,15.419948,,,1064.8239756754,16.076116,0,0,0,0,0,16.413,1066.1363116754,16.732284,0,0,0,0,0,296.1, 0, -2.8,0,0,673,1024,1024,1024,-53,0,0,0,295.8,0,0,95,4.113,4.114,4.115,4.122,0,0,8.439,65.66,1064.8239756754,15.419948,6,P-GPS,
19300,2025-01-07 02:03:41,0,0,15.419948,,,1064.8239756754,16.076116,0.223694,0,0,0,0,16.413,1066.1363116754,16.732284,0,0,-0.223694,0,0,296, 4.5, -2.1,0,0,754,1024,1024,1024,-41,0,0,0,295.8,0,0,95,4.113,4.114,4.115,4.122,0,0,8.439,65.66,1064.8239756754,15.419948,6,P-GPS,
19500,2025-01-07 02:03:41,0,0,15.419948,,,1064.8239756754,16.076116,0.6263432,0,0,0,0,16.413,1066.1363116754,16.732284,0,0,-0.447388,0.447388,0,296.1, 7.5, -1.4,0,0,1014,1024,1024,1024,-2,0,0,0,295.8,0,0,95,4.113,4.114,4.115,4.122,0,0,8.439,65.66,1064.8239756754,15.419948,6,P-GPS,
19700,2025-01-07 02:03:41,0,0,15.419948,,,1064.8239756754,16.076116,1.2974252,0,0,0,0,16.413,1066.1363116754,16.732284,0,0,-0.671082,1.11847,0,296.5, 5.9, -0.9,0,0,1024,1024,1024,1024,0,0,0,0,295.8,0,0,95,4.113,4.114,4.115,4.122,0,0,8.439,65.66,1064.8239756754,15.419948,6,P-GPS,
19900,2025-01-07 02:03:41,0,0,15.419948,,,1064.8239756754,16.076116,1.4987498,0,0,0,0,16.413,1066.1363116754,16.732284,0,0,-0.671082,1.342164,0,295.9, -2, -0.4,0,0,1024,927,1024,1024,0,-15,0,0,295.8,0,0,95,4.113,4.114,4.115,4.122,0,0,8.439,65.66,1064.8239756754,15.419948,6,P-GPS,
20100,2025-01-07 02:03:41,0,0,15.419948,,,1064.8239756754,16.076116,1.11847,0,0,0,0,16.446,1066.1363116754,16.732284,0,0,-0.671082,0.894776,0,296.4, -9, -0.2,0,0,1024,806,1024,1024,0,-33,0,0,295.8,0,0,95,4.116,4.113,4.111,4.113,0,0,8.731,65.66,1064.8239756754,15.419948,6,P-GPS,
20300,2025-01-07 02:03:42,0,0,15.419948,,,1064.8239756754,15.748032,0.6263432,0,0,0,0,16.446,1066.1363116754,16.732284,0,0,-0.447388,0.447388,0,296.1, -3.1, -1.7,0,0,1024,783,1024,1024,0,-37,0,0,295.8,0,0,95,4.116,4.113,4.111,4.113,0,0,8.731,65.66,1064.8239756754,15.419948,6,P-GPS,
20500,2025-01-07 02:03:42,0,0,15.419948,,,1064.8239756754,16.076116,0.6263432,0,0,0,0,16.446,1066.1363116754,16.732284,0,0,-0.447388,0.447388,0,296.2, -1.6, -3.4,0,0,1024,790,1024,1024,0,-35,0,0,295.8,0,0,95,4.116,4.113,4.111,4.113,0,0,8.731,65.66,1064.8239756754,15.419948,6,P-GPS,
20700,2025-01-07 02:03:42,0,0,15.419948,,,1064.8239756754,16.076116,0.4921268,0,0,0,0,16.446,1066.1363116754,16.732284,0,0,-0.447388,0.223694,0,296.1, -1.2, -3.2,0,0,1024,791,1024,1024,0,-35,0,0,295.8,0,0,95,4.116,4.113,4.111,4.113,0,0,8.731,65.66,1064.8239756754,15.419948,6,P-GPS,
20900,2025-01-07 02:03:42,0,0,15.419948,,,1064.8239756754,16.076116,0.7158208,0,0,0,0,16.446,1066.1363116754,16.732284,0,0,-0.671082,0.223694,0,295.9, -1.4, -5.6,0,0,1024,792,1024,1024,0,-35,0,0,295.8,0,0,95,4.116,4.113,4.111,4.113,0,0,8.731,65.66,1064.8239756754,15.419948,6,P-GPS,
21100,2025-01-07 02:03:42,0,0,15.419948,,,1064.8239756754,16.076116,0.894776,0,0,0,0,16.462,1066.1363116754,16.732284,0,0,-0.894776,0,0,295.9, -1.1, -6.6,0,0,1024,804,1024,1024,0,-33,0,0,295.8,0,0,95,4.117,4.113,4.11,4.118,0,0,8.769,65.84,1064.8239756754,15.419948,6,P-GPS,
21300,2025-01-07 02:03:43,0,0,15.419948,,,1064.8239756754,15.748032,1.342164,0,0,0,0,16.462,1066.1363116754,16.732284,0,0,-1.342164,0,0,295.6, -1.8, -5.7,0,0,1024,807,1024,1024,0,-33,0,0,295.8,0,0,95,4.117,4.113,4.11,4.118,0,0,8.769,65.84,1064.8239756754,15.419948,6,P-GPS,
21500,2025-01-07 02:03:43,0,0,15.419948,,,1064.8239756754,16.076116,1.565858,0,0,0,0,16.462,1066.1363116754,16.732284,0,0,-1.565858,0,0,295.9, -1.5, -4.3,0,0,1024,813,1079,1024,0,-32,8,0,295.8,0,0,95,4.117,4.113,4.11,4.118,0,0,8.769,65.84,1064.8239756754,15.419948,6,P-GPS,
21700,2025-01-07 02:03:43,0,0,15.419948,,,1064.8239756754,16.076116,1.5882274,0,0,0,0,16.462,1066.1363116754,16.732284,0,0,-1.565858,-0.223694,0,296.4, -2, -3.2,0,0,1024,817,1167,1024,0,-31,22,0,295.8,0,0,95,4.117,4.113,4.11,4.118,0,0,8.769,65.84,1064.8239756754,15.419948,6,P-GPS,
21900,2025-01-07 02:03:43,0,0,15.419948,,,1064.8239756754,16.076116,1.5882274,0,0,0,0,16.462,1066.1363116754,16.732284,0,0,-1.565858,-0.223694,0,296.3, -1.8, -4.6,0,0,1024,828,1216,1024,0,-30,29,0,295.8,0,0,95,4.117,4.113,4.11,4.118,0,0,8.769,65.84,1064.8239756754,15.419948,6,P-GPS,
22100,2025-01-07 02:03:43,0,0,15.419948,,,1064.8239756754,16.076116,1.8342908,0,0,0,0,16.462,1066.1363116754,16.732284,0,0,-1.789552,-0.447388,-0.223694,296.1, -1.4, -5.6,0,0,1024,829,1220,1024,0,-30,30,0,295.8,0,0,95,4.12,4.116,4.114,4.119,0,0,8.485,66.02,1064.8239756754,15.419948,6,P-GPS,
22300,2025-01-07 02:03:44,0,0,15.748032,,,1065.1520596754,16.076116,2.0579848,0,0,0,0,16.462,1066.1363116754,16.732284,0,0,-2.013246,-0.447388,-0.671082,296, -2, -5,0,0,1024,835,1191,1038,0,-29,25,2,295.8,0,0,95,4.12,4.116,4.114,4.119,0,0,8.485,66.02,1065.1520596754,15.748032,6,P-GPS,
22500,2025-01-07 02:03:44,0,0,16.076116,,,1065.4801436754,16.4042,2.125093,0,0,0,0,16.462,1066.1363116754,16.732284,0,0,-2.013246,-0.671082,-0.894776,295.9, -1.4, -4,0,0,1024,846,1189,1042,0,-27,25,3,295.8,0,0,95,4.12,4.116,4.114,4.119,0,0,8.485,66.02,1065.4801436754,16.076116,6,P-GPS,
22700,2025-01-07 02:03:44,0,0,16.076116,,,1065.4801436754,16.732284,2.3264176,0,0,0,0,16.462,1066.1363116754,16.732284,0,0,-2.23694,-0.671082,-0.894776,295.9, -1.7, -3.6,0,0,1024,846,1187,1042,0,-27,25,3,295.8,0,0,95,4.12,4.116,4.114,4.119,0,0,8.485,66.02,1065.4801436754,16.076116,6,P-GPS,
22900,2025-01-07 02:03:44,0,0,16.4042,,,1065.8082276754,16.732284,2.3264176,0,0,0,0,16.462,1066.1363116754,16.732284,0,0,-2.23694,-0.671082,-0.671082,296.2, -1.6, -2.2,0,0,1024,848,1188,1042,0,-27,25,3,295.8,0,0,95,4.12,4.116,4.114,4.119,0,0,8.485,66.02,1065.8082276754,16.4042,6,P-GPS,
23100,2025-01-07 02:03:44,0,0,16.732284,,,1066.1363116754,17.060368,2.3264176,0,0,0,0,16.413,1066.1363116754,16.732284,0,0,-2.23694,-0.671082,-0.671082,296.5, -1.4, -0.7,0,0,1024,853,1186,1043,0,-26,25,3,295.8,0,0,95,4.112,4.106,4.104,4.112,0,0,9.122,66.02,1066.1363116754,16.732284,6,P-GPS,
23300,2025-01-07 02:03:45,0,0,16.732284,,,1066.1363116754,17.388452,2.3264176,0,0,0,0,16.413,1066.1363116754,16.732284,0,0,-2.23694,-0.671082,-0.671082,296.6, -2.1, -0.4,0,0,1024,862,1189,1037,0,-25,25,2,295.8,0,0,95,4.112,4.106,4.104,4.112,0,0,9.122,66.02,1066.1363116754,16.732284,6,P-GPS,
23500,2025-01-07 02:03:45,0,0,17.060368,,,1066.4643956754,17.388452,2.125093,0,0,0,0,16.413,1066.4643956754,17.060368,0,0,-2.013246,-0.671082,-0.671082,296.2, -1.7, -1.4,0,0,1024,863,1195,1027,0,-24,26,0,295.8,0,0,95,4.112,4.106,4.104,4.112,0,0,9.122,66.02,1066.4643956754,17.060368,6,P-GPS,
23700,2025-01-07 02:03:45,0,0,17.060368,,,1066.4643956754,17.716536,2.1922012,0,0,0,0,16.413,1066.4643956754,17.060368,0,0,-2.013246,-0.894776,-0.671082,296, -1.3, -2.7,0,0,1024,867,1241,1024,0,-24,33,0,295.8,0,0,95,4.112,4.106,4.104,4.112,0,0,9.122,66.02,1066.4643956754,17.060368,6,P-GPS,
23900,2025-01-07 02:03:45,0,0,17.388452,,,1066.7924796754,18.04462,2.4158952,0,0,0,0,16.413,1066.7924796754,17.388452,0,0,-2.23694,-0.894776,-0.671082,296.2, -0.1, -1.9,0,0,1024,868,1242,1024,0,-24,33,0,295.8,0,0,95,4.112,4.106,4.104,4.112,0,0,9.122,66.02,1066.7924796754,17.388452,6,P-GPS,
24100,2025-01-07 02:03:45,0,0,17.716536,,,1067.1205636754,18.372704,2.4158952,0,0,0,0,16.453,1067.1205636754,17.716536,0,0,-2.23694,-0.894776,-1.11847,296.4, -0.7, -1.2,0,0,1024,868,1241,1024,0,-24,33,0,295.8,0,0,95,4.114,4.109,4.105,4.108,0,0,8.574,66.2,1067.1205636754,17.716536,6,P-GPS,
24300,2025-01-07 02:03:46,0,0,18.04462,,,1067.4486476754,18.700788,2.1922012,0,0,0,0,16.453,1067.4486476754,18.04462,0,0,-2.013246,-0.894776,-1.11847,296.2, -1, -1.7,0,0,1024,870,1236,1024,0,-23,32,0,295.8,0,0,95,4.114,4.109,4.105,4.108,0,0,8.574,66.2,1067.4486476754,18.04462,6,P-GPS,
24500,2025-01-07 02:03:46,0,0,18.372704,,,1067.7767316754,19.028872,2.125093,0,0,0,0,16.453,1067.7767316754,18.372704,0,0,-2.013246,-0.671082,-1.11847,296.1, -0.8, -1.7,0,0,1024,877,1237,1024,0,-22,32,0,295.8,0,0,95,4.114,4.109,4.105,4.108,0,0,8.574,66.2,1067.7767316754,18.372704,6,P-GPS,
24700,2025-01-07 02:03:46,0,0,18.700788,,,1068.1048156754,19.356956,2.125093,0,0,0,0,16.453,1068.1048156754,18.700788,0,0,-2.013246,-0.671082,-1.11847,296.1, -0.6, -2.3,0,0,1024,890,1240,1024,0,-20,33,0,295.8,0,0,95,4.114,4.109,4.105,4.108,0,0,8.574,66.2,1068.1048156754,18.700788,6,P-GPS,
24900,2025-01-07 02:03:46,0,0,19.028872,,,1068.4328996754,20.013124,2.125093,0,0,0,0,16.453,1068.4328996754,19.028872,0,0,-2.013246,-0.671082,-1.11847,296.1, -0.6, -2.7,0,0,1024,899,1238,1024,0,-19,32,0,295.8,0,0,95,4.114,4.109,4.105,4.108,0,0,8.574,66.2,1068.4328996754,19.028872,6,P-GPS,
25100,2025-01-07 02:03:46,0,0,19.356956,,,1068.7609836754,20.341208,1.901399,0,0,0,0,16.455,1068.7609836754,19.356956,0,0,-1.789552,-0.671082,-1.11847,296.1, -0.7, -2.7,0,0,1024,1024,1076,1024,0,0,8,0,295.8,0,0,95,4.116,4.111,4.108,4.116,0,0,8.726,66.2,1068.7609836754,19.356956,6,P-GPS,
25300,2025-01-07 02:03:47,0,0,19.68504,,,1069.0890676754,20.669292,1.901399,0,0,0,0,16.455,1069.0890676754,19.68504,0,0,-1.789552,-0.671082,-1.11847,296.1, -1, -2.5,0,0,1024,1024,1024,1024,0,0,0,0,295.8,0,0,95,4.116,4.111,4.108,4.116,0,0,8.726,66.2,1069.0890676754,19.68504,6,P-GPS,
25500,2025-01-07 02:03:47,0,0,20.013124,,,1069.4171516754,20.997376,1.6329662,0,0,0,0,16.455,1069.4171516754,20.013124,0,0,-1.565858,-0.447388,-0.447388,295.8, -2, 7.9,0,0,1024,1024,1024,1024,0,0,0,0,295.8,0,0,95,4.116,4.111,4.108,4.116,0,0,8.726,66.2,1069.4171516754,20.013124,6,P-GPS,
25700,2025-01-07 02:03:47,0,0,20.013124,,,1069.4171516754,20.997376,0.9171454,0,0,0,0,16.455,1069.4171516754,20.013124,0,0,-0.894776,-0.223694,0,296.7, -2, 7.6,0,0,1024,1024,1024,1024,0,0,0,0,295.8,0,0,95,4.116,4.111,4.108,4.116,0,0,8.726,66.2,1069.4171516754,20.013124,6,P-GPS,
25900,2025-01-07 02:03:47,0,0,20.013124,,,1069.4171516754,20.669292,0.447388,0,0,0,0,16.455,1069.4171516754,20.013124,0,0,-0.447388,0,0,296.4, -2.3, 3.5,0,0,1024,1024,1024,1024,0,0,0,0,295.8,0,0,95,4.116,4.111,4.108,4.116,0,0,8.726,66.2,1069.4171516754,20.013124,6,P-GPS,
26100,2025-01-07 02:03:47,0,0,20.013124,,,1069.4171516754,20.341208,0.223694,0,0,0,0,16.535,1069.4171516754,20.013124,0,0,-0.223694,0,0,296.2, -2.2, 0.9,0,0,1024,1024,1024,1024,0,0,0,0,295.8,0,0,95,4.125,4.118,4.115,4.12,0,0,7.835,66.38,1069.4171516754,20.013124,6,P-GPS,
26300,2025-01-07 02:03:48,0,0,19.68504,,,1069.0890676754,20.341208,0,0,0,0,0,16.535,1069.4171516754,20.013124,0,0,0,0,0,296.2, -1.8, -0.3,0,0,1024,1024,1038,1024,0,0,2,0,295.8,0,0,95,4.125,4.118,4.115,4.12,0,0,7.835,66.38,1069.0890676754,19.68504,6,P-GPS,
26500,2025-01-07 02:03:48,0,0,19.68504,,,1069.0890676754,20.341208,0,0,0,0,0,16.535,1069.4171516754,20.013124,0,0,0,0,0,296.2, -2.1, -0.5,0,0,1024,1024,1110,1024,0,0,13,0,295.8,0,0,95,4.125,4.118,4.115,4.12,0,0,7.835,66.38,1069.0890676754,19.68504,6,P-GPS,
26700,2025-01-07 02:03:48,0,0,19.68504,,,1069.0890676754,20.341208,0,0,0,0,0,16.535,1069.4171516754,20.013124,0,0,0,0,0,296.2, -1.6, -0.9,0,0,1024,1024,1047,1024,0,0,3,0,295.8,0,0,95,4.125,4.118,4.115,4.12,0,0,7.835,66.38,1069.0890676754,19.68504,6,P-GPS,
26900,2025-01-07 02:03:48,0,0,19.68504,,,1069.0890676754,20.341208,0,0,0,0,0,16.535,1069.4171516754,20.013124,0,0,0,0,0,296.2, -1.6, -0.7,0,0,1024,1024,1024,1024,0,0,0,0,295.8,0,0,95,4.125,4.118,4.115,4.12,0,0,7.835,66.38,1069.0890676754,19.68504,6,P-GPS,
27100,2025-01-07 02:03:48,0,0,19.68504,,,1069.0890676754,20.341208,0,0,0,0,0,16.458,1069.4171516754,20.013124,0,0,0,0,0,296.3, -1.5, -0.8,0,0,1024,1024,1024,1024,0,0,0,0,295.8,0,0,95,4.109,4.103,4.1,4.109,0,0,8.401,66.38,1069.0890676754,19.68504,6,P-GPS,
27300,2025-01-07 02:03:49,0,0,19.68504,,,1069.0890676754,20.669292,0,0,0,0,0,16.458,1069.4171516754,20.013124,0,0,0,0,0,296.3, -1.5, -1.4,0,0,1024,1024,1024,1024,0,0,0,0,295.8,0,0,95,4.109,4.103,4.1,4.109,0,0,8.401,66.38,1069.0890676754,19.68504,6,P-GPS,
27500,2025-01-07 02:03:49,0,0,19.68504,,,1069.0890676754,20.669292,0,0,0,0,0,16.458,1069.4171516754,20.013124,0,0,0,0,0,296.2, -1.5, -1.5,0,0,1024,1024,1024,1024,0,0,0,0,295.8,0,0,95,4.109,4.103,4.1,4.109,0,0,8.401,66.38,1069.0890676754,19.68504,6,P-GPS,
27700,2025-01-07 02:03:49,0,0,19.68504,,,1069.0890676754,20.669292,0,0,0,0,0,16.458,1069.4171516754,20.013124,0,0,0,0,0,296.2, -1.4, -1.7,0,0,1024,1024,1024,1024,0,0,0,0,295.8,0,0,95,4.109,4.103,4.1,4.109,0,0,8.401,66.38,1069.0890676754,19.68504,6,P-GPS,
27900,2025-01-07 02:03:49,0,0,19.68504,,,1069.0890676754,20.669292,0,0,0,0,0,16.458,1069.4171516754,20.013124,0,0,0,0,0,296.2, -1.2, -1.6,0,0,1024,1024,1024,1024,0,0,0,0,295.8,0,0,95,4.109,4.103,4.1,4.109,0,0,8.401,66.38,1069.0890676754,19.68504,6,P-GPS,
28100,2025-01-07 02:03:49,0,0,19.68504,,,1069.0890676754,20.669292,0,0,0,0,0,16.448,1069.4171516754,20.013124,0,0,0,0,0,296.2, -1, -1.4,0,0,1024,1024,1024,1024,0,0,0,0,295.8,0,0,95,4.115,4.109,4.108,4.113,0,0,8.464,66.38,1069.0890676754,19.68504,6,P-GPS,
28300,2025-01-07 02:03:50,0,0,19.68504,,,1069.0890676754,20.669292,0,0,0,0,0,16.448,1069.4171516754,20.013124,0,0,0,0,0,296.2, -0.9, -1.2,0,0,1024,1024,1024,1024,0,0,0,0,295.8,0,0,95,4.115,4.109,4.108,4.113,0,0,8.464,66.38,1069.0890676754,19.68504,6,P-GPS,
28500,2025-01-07 02:03:50,0,0,19.68504,,,1069.0890676754,20.669292,0,0,0,0,0,16.448,1069.4171516754,20.013124,0,0,0,0,0,296.2, -0.9, -1.1,0,0,1024,1024,1024,1024,0,0,0,0,295.8,0,0,95,4.115,4.109,4.108,4.113,0,0,8.464,66.38,1069.0890676754,19.68504,6,P-GPS,
28700,2025-01-07 02:03:50,0,0,19.68504,,,1069.0890676754,20.669292,0,0,0,0,0,16.448,1069.4171516754,20.013124,0,0,0,0,0,296.2, -0.7, -1,0,0,1024,1024,1024,1024,0,0,0,0,295.8,0,0,95,4.115,4.109,4.108,4.113,0,0,8.464,66.38,1069.0890676754,19.68504,6,P-GPS,
28900,2025-01-07 02:03:50,0,0,19.68504,,,1069.0890676754,20.669292,0,0,0,0,0,16.448,1069.4171516754,20.013124,0,0,0,0,0,296.2, -0.8, -0.9,0,0,1024,1024,1024,1024,0,0,0,0,295.8,0,0,95,4.115,4.109,4.108,4.113,0,0,8.464,66.38,1069.0890676754,19.68504,6,P-GPS,
29100,2025-01-07 02:03:50,0,0,19.68504,,,1069.0890676754,20.669292,0,0,0,0,0,16.443,1069.4171516754,20.013124,0,0,0,0,0,296.1, -0.7, -1,0,0,1024,1089,1024,1024,0,10,0,0,295.8,0,0,95,4.114,4.11,4.109,4.114,0,0,8.447,66.56,1069.0890676754,19.68504,6,P-GPS,
29300,2025-01-07 02:03:51,0,0,19.68504,,,1069.0890676754,20.669292,0,0,0,0,0,16.443,1069.4171516754,20.013124,0,0,0,0,0,296.1, -0.5, -0.8,0,0,1024,1103,1024,1024,0,12,0,0,295.8,0,0,95,4.114,4.11,4.109,4.114,0,0,8.447,66.56,1069.0890676754,19.68504,6,P-GPS,
29500,2025-01-07 02:03:51,0,0,19.68504,,,1069.0890676754,20.669292,0,0,0,0,0,16.443,1069.4171516754,20.013124,0,0,0,0,0,296.1, -0.8, -0.5,0,0,1024,1024,1024,1024,0,0,0,0,295.8,0,0,95,4.114,4.11,4.109,4.114,0,0,8.447,66.56,1069.0890676754,19.68504,6,P-GPS,
29700,2025-01-07 02:03:51,0,0,19.68504,,,1069.0890676754,20.669292,0,0,0,0,0,16.443,1069.4171516754,20.013124,0,0,0,0,0,296.2, -0.8, -0.7,0,0,1024,1024,1024,1024,0,0,0,0,295.8,0,0,95,4.114,4.11,4.109,4.114,0,0,8.447,66.56,1069.0890676754,19.68504,6,P-GPS,
29900,2025-01-07 02:03:51,0,0,19.68504,,,1069.0890676754,20.669292,0,0,0,0,0,16.443,1069.4171516754,20.013124,0,0,0,0,0,296.2, -0.7, -1,0,0,1024,1024,1024,1024,0,0,0,0,295.8,0,0,95,4.114,4.11,4.109,4.114,0,0,8.447,66.56,1069.0890676754,19.68504,6,P-GPS,
30100,2025-01-07 02:03:51,0,0,19.68504,,,1069.0890676754,20.669292,0,0,0,0,0,16.447,1069.4171516754,20.013124,0,0,0,0,0,296.2, -0.7, -0.8,0,0,1024,1024,1024,1024,0,0,0,0,295.8,0,0,95,4.115,4.109,4.108,4.114,0,0,8.358,66.56,1069.0890676754,19.68504,6,P-GPS,
30300,2025-01-07 02:03:52,0,0,19.68504,,,1069.0890676754,20.669292,0,0,0,0,0,16.447,1069.4171516754,20.013124,0,0,0,0,0,296.2, -0.3, -0.8,0,0,1024,1024,1024,1146,0,0,0,18,295.8,0,0,95,4.115,4.109,4.108,4.114,0,0,8.358,66.56,1069.0890676754,19.68504,6,P-GPS,
30500,2025-01-07 02:03:52,0,0,19.68504,,,1069.0890676754,20.669292,0,0,0,0,0,16.447,1069.4171516754,20.013124,0,0,0,0,0,296.2, -0.4, -0.6,0,0,1024,1024,1024,1048,0,0,0,4,295.9,0,0,95,4.115,4.109,4.108,4.114,0,0,8.358,66.56,1069.0890676754,19.68504,6,P-GPS,
30700,2025-01-07 02:03:52,0,0,19.68504,,,1069.0890676754,20.669292,0,0,0,0,0,16.447,1069.4171516754,20.013124,0,0,0,0,0,296.3, -0.4, -0.3,0,0,1024,1024,1024,1266,0,0,0,37,296.1,0,0,95,4.115,4.109,4.108,4.114,0,0,8.358,66.56,1069.0890676754,19.68504,6,P-GPS,
30900,2025-01-07 02:03:52,0,0,19.68504,,,1069.0890676754,20.669292,0,0,0,0,0,16.447,1069.4171516754,20.013124,0,0,0,0,0,296.4, -0.4, 0,0,0,1024,1024,1024,1302,0,0,0,42,296.9,0,0,95,4.115,4.109,4.108,4.114,0,0,8.358,66.56,1069.0890676754,19.68504,6,P-GPS,
31100,2025-01-07 02:03:52,0,0,19.68504,,,1069.0890676754,20.669292,0,0,0,0,0,16.451,1069.4171516754,20.013124,0,0,0,0,0,297.1, -0.3, -0.1,0,0,1024,1024,1024,1254,0,0,0,35,298.2,0,0,95,4.115,4.11,4.109,4.115,0,0,8.287,66.74,1069.0890676754,19.68504,6,P-GPS,
31300,2025-01-07 02:03:53,0,0,19.68504,,,1069.0890676754,20.669292,0,0,0,0,0,16.451,1069.4171516754,20.013124,0,0,0,0,0,298.4, -0.3, -0.3,0,0,1024,1024,1024,1107,0,0,0,13,299.9,0,0,95,4.115,4.11,4.109,4.115,0,0,8.287,66.74,1069.0890676754,19.68504,6,P-GPS,
31500,2025-01-07 02:03:53,0,0,19.68504,,,1069.0890676754,20.669292,0,0,0,0,0,16.451,1069.4171516754,20.013124,0,0,0,0,0,299.9, -0.2, -0.4,0,0,1024,1024,1024,1024,0,0,0,0,300.7,0,0,95,4.115,4.11,4.109,4.115,0,0,8.287,66.74,1069.0890676754,19.68504,6,P-GPS,
31700,2025-01-07 02:03:53,0,0,19.68504,,,1069.0890676754,20.669292,0,0,0,0,0,16.451,1069.4171516754,20.013124,0,0,0,0,0,301.2, -0.2, -0.4,0,0,1024,1024,1024,1024,0,0,0,0,300.7,0,0,95,4.115,4.11,4.109,4.115,0,0,8.287,66.74,1069.0890676754,19.68504,6,P-GPS,
31900,2025-01-07 02:03:53,0,0,19.68504,,,1069.0890676754,20.669292,0,0,0,0,0,16.451,1069.4171516754,20.013124,0,0,0,0,0,300.9, -0.2, -0.7,0,0,1024,1024,1024,1024,0,0,0,0,300.7,0,0,95,4.115,4.11,4.109,4.115,0,0,8.287,66.74,1069.0890676754,19.68504,6,P-GPS,
32100,2025-01-07 02:03:54,0,0,19.68504,,,1069.0890676754,20.669292,0,0,0,0,0,16.446,1069.4171516754,20.013124,0,0,0,0,0,300.9, -0.3, -0.4,0,0,1024,1024,1024,1363,0,0,0,51,300.7,0,0,95,4.113,4.109,4.107,4.114,0,0,8.317,66.74,1069.0890676754,19.68504,6,P-GPS,
32500,2025-01-07 02:03:54,0,0,19.68504,,,1069.0890676754,20.669292,0,0,0,0,0,16.446,1069.4171516754,20.013124,0,0,0,0,0,301, -0.6, -0.1,0,0,1024,1024,1024,1389,0,0,0,55,303.3,0,0,95,4.113,4.109,4.107,4.114,0,0,8.317,66.74,1069.0890676754,19.68504,6,P-GPS,
32700,2025-01-07 02:03:54,0,0,19.68504,,,1069.0890676754,20.669292,0,0,0,0,0,16.446,1069.4171516754,20.013124,0,0,0,0,0,303.1, -0.7, -0.6,0,0,1024,1024,1024,1317,0,0,0,44,306.2,0,0,95,4.113,4.109,4.107,4.114,0,0,8.317,66.74,1069.0890676754,19.68504,6,P-GPS,
32900,2025-01-07 02:03:54,0,0,19.68504,,,1069.0890676754,20.669292,0,0,0,0,0,16.446,1069.4171516754,20.013124,0,0,0,0,0,306, -0.8, 0.1,0,0,1024,1024,1024,1024,0,0,0,0,307.9,0,0,95,4.113,4.109,4.107,4.114,0,0,8.317,66.74,1069.0890676754,19.68504,6,P-GPS,
33100,2025-01-07 02:03:54,0,0,19.68504,,,1069.0890676754,20.669292,0,0,0,0,0,16.436,1069.4171516754,20.013124,0,0,0,0,0,308.4, -1, -0.4,0,0,1024,1024,1024,1024,0,0,0,0,308,0,0,95,4.109,4.103,4.101,4.108,0,0,8.42,66.92,1069.0890676754,19.68504,6,P-GPS,
33300,2025-01-07 02:03:55,0,0,19.68504,,,1069.0890676754,20.669292,0,0,0,0,0,16.436,1069.4171516754,20.013124,0,0,0,0,0,308.1, -1.3, 0.4,0,0,1024,1024,1024,711,0,0,0,-47,308,0,0,95,4.109,4.103,4.101,4.108,0,0,8.42,66.92,1069.0890676754,19.68504,6,P-GPS,
33500,2025-01-07 02:03:55,0,0,19.68504,,,1069.0890676754,20.341208,0,0,0,0,0,16.436,1069.4171516754,20.013124,0,0,0,0,0,308.3, -1.7, 1,0,0,1024,1024,1024,614,0,0,0,-62,307.6,0,0,95,4.109,4.103,4.101,4.108,0,0,8.42,66.92,1069.0890676754,19.68504,6,P-GPS,
33700,2025-01-07 02:03:55,0,0,19.68504,,,1069.0890676754,20.341208,0,0,0,0,0,16.436,1069.4171516754,20.013124,0,0,0,0,0,308.4, -1.1, 0.3,0,0,1024,1024,1024,1024,0,0,0,0,305.5,0,0,95,4.109,4.103,4.101,4.108,0,0,8.42,66.92,1069.0890676754,19.68504,6,P-GPS,
33900,2025-01-07 02:03:55,0,0,19.68504,,,1069.0890676754,20.341208,0,0,0,0,0,16.436,1069.4171516754,20.013124,0,0,0,0,0,306, -1.6, -0.4,0,0,1024,1024,1024,1024,0,0,0,0,305.3,0,0,95,4.109,4.103,4.101,4.108,0,0,8.42,66.92,1069.0890676754,19.68504,6,P-GPS,
34100,2025-01-07 02:03:55,0,0,20.013124,,,1069.4171516754,20.341208,0,0,0,0,0,16.42,1069.4171516754,20.013124,0,0,0,0,0,305.8, -1.8, -0.8,0,0,1024,1024,1024,1024,0,0,0,0,305.3,0,0,94,4.113,4.109,4.107,4.115,0,0,8.614,66.92,1069.4171516754,20.013124,6,P-GPS,
34300,2025-01-07 02:03:56,0,0,20.013124,,,1069.4171516754,20.341208,0,0,0,0,0,16.42,1069.4171516754,20.013124,0,0,0,0,0,305.6, -1.7, -0.5,0,0,1024,877,1024,1024,0,-22,0,0,305.3,0,0,94,4.113,4.109,4.107,4.115,0,0,8.614,66.92,1069.4171516754,20.013124,6,P-GPS,
34500,2025-01-07 02:03:56,0,0,19.68504,,,1069.0890676754,20.341208,0,0,0,0,0,16.42,1069.4171516754,20.013124,0,0,0,0,0,305.6, -1.3, -0.7,0,0,1024,844,1024,1024,0,-27,0,0,305.3,0,0,94,4.113,4.109,4.107,4.115,0,0,8.614,66.92,1069.0890676754,19.68504,6,P-GPS,
34700,2025-01-07 02:03:56,0,0,19.68504,,,1069.0890676754,20.341208,0,0,0,0,0,16.42,1069.4171516754,20.013124,0,0,0,0,0,305.6, -1, -1.3,0,0,1024,846,1024,1024,0,-27,0,0,305.3,0,0,94,4.113,4.109,4.107,4.115,0,0,8.614,66.92,1069.0890676754,19.68504,6,P-GPS,
34900,2025-01-07 02:03:56,0,0,19.68504,,,1069.0890676754,20.341208,0,0,0,0,0,16.42,1069.4171516754,20.013124,0,0,0,0,0,305.4, -1, -2.5,0,0,1024,831,1024,1024,0,-29,0,0,305.3,0,0,94,4.113,4.109,4.107,4.115,0,0,8.614,66.92,1069.0890676754,19.68504,6,P-GPS,
35100,2025-01-07 02:03:57,0,0,19.68504,,,1069.0890676754,20.669292,0,0,0,0,0,16.461,1069.4171516754,20.013124,0,0,0,0,0,305.4, -1.2, -2.9,0,0,1024,1024,1024,1024,0,0,0,0,305.3,0,0,94,4.115,4.112,4.109,4.117,0,0,8.061,67.1,1069.0890676754,19.68504,6,P-GPS,
35300,2025-01-07 02:03:57,0,0,19.68504,,,1069.0890676754,20.669292,0.223694,0,0,0,0,16.461,1069.4171516754,20.013124,0,0,-0.223694,0,0,305.6, -1.6, -1.6,0,0,1024,1024,1024,1024,0,0,0,0,305.3,0,0,94,4.115,4.112,4.109,4.117,0,0,8.061,67.1,1069.0890676754,19.68504,6,P-GPS,
35500,2025-01-07 02:03:57,0,0,19.68504,,,1069.0890676754,20.669292,0.223694,0,0,0,0,16.461,1069.4171516754,20.013124,0,0,-0.223694,0,0,305.6, -2.3, 0.9,0,0,1024,1355,1024,1024,0,50,0,0,305.3,0,0,94,4.115,4.112,4.109,4.117,0,0,8.061,67.1,1069.0890676754,19.68504,6,P-GPS,
35700,2025-01-07 02:03:57,0,0,19.68504,,,1069.0890676754,20.341208,0,0,0,0,0,16.461,1069.4171516754,20.013124,0,0,0,0,0,305.9, -2.9, 0.3,0,0,1024,1382,1024,1024,0,54,0,0,305.3,0,0,94,4.115,4.112,4.109,4.117,0,0,8.061,67.1,1069.0890676754,19.68504,6,P-GPS,
35900,2025-01-07 02:03:57,0,0,19.356956,,,1068.7609836754,20.341208,0,0,0,0,0,16.461,1069.4171516754,20.013124,0,0,0,0,0,305.5, -2.4, 2.7,0,0,1024,1355,1024,1024,0,50,0,0,305.3,0,0,94,4.115,4.112,4.109,4.117,0,0,8.061,67.1,1068.7609836754,19.356956,6,P-GPS,
36100,2025-01-07 02:03:57,0,0,19.356956,,,1068.7609836754,20.341208,0.4921268,0,0,0,0,16.454,1069.4171516754,20.013124,0,0,0.447388,0.223694,0,305.5, -1.8, 7.5,0,0,1024,1254,1024,1024,0,35,0,0,305.3,0,0,94,4.114,4.112,4.108,4.114,0,0,8.082,67.1,1068.7609836754,19.356956,6,P-GPS,
36300,2025-01-07 02:03:58,0,0,19.356956,,,1068.7609836754,20.341208,1.11847,0,0,0,0,16.454,1069.4171516754,20.013124,0,0,0.894776,0.671082,0,305.8, -2.1, 7.3,0,0,1024,1101,1024,1024,0,12,0,0,305.3,0,0,94,4.114,4.112,4.108,4.114,0,0,8.082,67.1,1068.7609836754,19.356956,6,P-GPS,
36500,2025-01-07 02:03:58,0,0,19.356956,,,1068.7609836754,20.341208,1.6105968,0,0,0,0,16.454,1069.4171516754,20.013124,0,0,1.342164,0.894776,0,305.7, -2, 4.5,0,0,1024,1024,1024,1024,0,0,0,0,305.3,0,0,94,4.114,4.112,4.108,4.114,0,0,8.082,67.1,1068.7609836754,19.356956,6,P-GPS,
36700,2025-01-07 02:03:58,0,0,19.028872,,,1068.4328996754,20.341208,1.8119214,0,0,0,0,16.454,1069.4171516754,20.013124,0,0,1.565858,0.894776,0,305.8, -1.7, -2.8,0,0,1024,1024,1024,1024,0,0,0,0,305.3,0,0,94,4.114,4.112,4.108,4.114,0,0,8.082,67.1,1068.4328996754,19.028872,6,P-GPS,
36900,2025-01-07 02:03:58,0,0,19.028872,,,1068.4328996754,20.341208,1.11847,0,0,0,0,16.454,1069.4171516754,20.013124,0,0,0.894776,0.671082,0,305.3, -1.7, -9.7,0,0,1024,1024,1133,1024,0,0,17,0,305.3,0,0,94,4.114,4.112,4.108,4.114,0,0,8.082,67.1,1068.4328996754,19.028872,6,P-GPS,
37100,2025-01-07 02:03:58,0,0,19.028872,,,1068.4328996754,20.669292,0.4921268,0,0,0,0,16.441,1069.4171516754,20.013124,0,0,0.447388,0.223694,0,304.8, -3, -6.7,0,0,1024,1024,1172,1024,0,0,22,0,305.3,0,0,94,4.11,4.107,4.105,4.112,0,0,8.25,67.1,1068.4328996754,19.028872,6,P-GPS,
37300,2025-01-07 02:03:59,0,0,18.700788,,,1068.1048156754,20.669292,0,0,0,0,0,16.441,1069.4171516754,20.013124,0,0,0,0,0,305.4, -2.9, -3.4,0,0,1024,1024,1189,1024,0,0,25,0,305.3,0,0,94,4.11,4.107,4.105,4.112,0,0,8.25,67.1,1068.1048156754,18.700788,6,P-GPS,
37500,2025-01-07 02:03:59,0,0,18.700788,,,1068.1048156754,20.669292,0,0,0,0,0,16.441,1069.4171516754,20.013124,0,0,0,0,-0.447388,305.7, -3, -1.2,0,0,1024,1024,1024,1024,0,0,0,0,305.3,0,0,94,4.11,4.107,4.105,4.112,0,0,8.25,67.1,1068.1048156754,18.700788,6,P-GPS,
37700,2025-01-07 02:03:59,0,0,19.028872,,,1068.4328996754,20.997376,0,0,0,0,0,16.441,1069.4171516754,20.013124,0,0,0,0,-0.671082,305.7, -3.5, -1.2,0,0,1024,1024,1024,1024,0,0,0,0,305.3,0,0,94,4.11,4.107,4.105,4.112,0,0,8.25,67.1,1068.4328996754,19.028872,6,P-GPS,
37900,2025-01-07 02:03:59,0,0,19.028872,,,1068.4328996754,21.32546,0,0,0,0,0,16.441,1069.4171516754,20.013124,0,0,0,0,-0.223694,305.7, -3.5, -1.7,0,0,1024,1024,1024,1024,0,0,0,0,305.3,0,0,94,4.11,4.107,4.105,4.112,0,0,8.25,67.1,1068.4328996754,19.028872,6,P-GPS,
38100,2025-01-07 02:03:59,0,0,18.700788,,,1068.1048156754,20.997376,0,0,0,0,0,16.4,1069.4171516754,20.013124,0,0,0,0,0,305.8, -2.9, -2.3,0,0,1024,1024,1024,1024,0,0,0,0,305.3,0,0,94,4.13,4.124,4.119,4.121,0,0,8.64,67.28,1068.1048156754,18.700788,6,P-GPS,
38300,2025-01-07 02:04:00,0,0,18.700788,,,1068.1048156754,20.997376,0,0,0,0,0,16.4,1069.4171516754,20.013124,0,0,0,0,0,305.9, -3.5, -2.8,0,0,1024,1024,1024,1024,0,0,0,0,305.3,0,0,94,4.13,4.124,4.119,4.121,0,0,8.64,67.28,1068.1048156754,18.700788,6,P-GPS,
38500,2025-01-07 02:04:00,0,0,18.700788,,,1068.1048156754,20.997376,0,0,0,0,0,16.4,1069.4171516754,20.013124,0,0,0,0,0,305.5, -3, -3.1,0,0,1024,1024,1024,1024,0,0,0,0,305.3,0,0,94,4.13,4.124,4.119,4.121,0,0,8.64,67.28,1068.1048156754,18.700788,6,P-GPS,
38700,2025-01-07 02:04:00,0,0,18.700788,,,1068.1048156754,20.997376,0,0,0,0,0,16.4,1069.4171516754,20.013124,0,0,0,0,0,305.5, -3.6, -2.2,0,0,1024,1024,1024,1024,0,0,0,0,305.3,0,0,94,4.13,4.124,4.119,4.121,0,0,8.64,67.28,1068.1048156754,18.700788,6,P-GPS,
38900,2025-01-07 02:04:00,0,0,18.372704,,,1067.7767316754,20.997376,0.223694,0,0,0,0,16.4,1069.4171516754,20.013124,0,0,-0.223694,0,0,305.7, -4.3, 0.9,0,0,1024,1024,1024,1024,0,0,0,0,305.3,0,0,94,4.13,4.124,4.119,4.121,0,0,8.64,67.28,1067.7767316754,18.372704,6,P-GPS,
39100,2025-01-07 02:04:00,0,0,18.372704,,,1067.7767316754,20.997376,0,0,0,0,0,16.41,1069.4171516754,20.013124,0,0,0,0,0,305.7, -4.4, 0.9,0,0,1024,1024,1024,1024,0,0,0,0,305.3,0,0,94,4.105,4.101,4.098,4.105,0,0,8.01,67.28,1067.7767316754,18.372704,6,P-GPS,
39300,2025-01-07 02:04:01,0,0,18.372704,,,1067.7767316754,20.997376,0,0,0,0,0,16.41,1069.4171516754,20.013124,0,0,0,0,0,305.7, -3.8, 0.3,0,0,1024,1024,1024,1024,0,0,0,0,305.3,0,0,94,4.105,4.101,4.098,4.105,0,0,8.01,67.28,1067.7767316754,18.372704,6,P-GPS,
39500,2025-01-07 02:04:01,0,0,18.372704,,,1067.7767316754,20.997376,0,0,0,0,0,16.41,1069.4171516754,20.013124,0,0,0,0,0,305.9, -3, -2.2,0,0,1024,1024,1024,1024,0,0,0,0,305.3,0,0,94,4.105,4.101,4.098,4.105,0,0,8.01,67.28,1067.7767316754,18.372704,6,P-GPS,
39700,2025-01-07 02:04:01,0,0,18.372704,,,1067.7767316754,20.997376,0,0,0,0,0,16.41,1069.4171516754,20.013124,0,0,0,0,0,305.6, -2.7, -1.3,0,0,1024,1024,1024,1024,0,0,0,0,305.3,0,0,94,4.105,4.101,4.098,4.105,0,0,8.01,67.28,1067.7767316754,18.372704,6,P-GPS,
39900,2025-01-07 02:04:01,0,0,18.372704,,,1067.7767316754,20.997376,0,0,0,0,0,16.41,1069.4171516754,20.013124,0,0,0,0,0,305.4, -2.4, -0.8,0,0,1024,1024,1024,1024,0,0,0,0,305.3,0,0,94,4.105,4.101,4.098,4.105,0,0,8.01,67.28,1067.7767316754,18.372704,6,P-GPS,
40100,2025-01-07 02:04:01,0,0,18.372704,,,1067.7767316754,20.997376,0,0,0,0,0,16.371,1069.4171516754,20.013124,0,0,0,0,0,305.6, -2.4, 0.3,0,0,1024,1024,1024,1024,0,0,0,0,305.3,0,0,94,4.106,4.103,4.102,4.108,0,0,8.966,67.46,1067.7767316754,18.372704,6,P-GPS,
40300,2025-01-07 02:04:02,0,0,18.372704,,,1067.7767316754,20.997376,0,0,0,0,0,16.371,1069.4171516754,20.013124,0,0,0,0,0,305.7, -3.1, 1.5,0,0,1024,1024,1024,1024,0,0,0,0,305.3,0,0,94,4.106,4.103,4.102,4.108,0,0,8.966,67.46,1067.7767316754,18.372704,6,P-GPS,
40500,2025-01-07 02:04:02,0,0,18.372704,,,1067.7767316754,20.997376,0,0,0,0,0,16.371,1069.4171516754,20.013124,0,0,0,0,0,305.5, -3.8, 0.9,0,0,1024,1024,1024,1024,0,0,0,0,305.3,0,0,94,4.106,4.103,4.102,4.108,0,0,8.966,67.46,1067.7767316754,18.372704,6,P-GPS,
40700,2025-01-07 02:04:02,0,0,18.372704,,,1067.7767316754,20.997376,0,0,0,0,0,16.371,1069.4171516754,20.013124,0,0,0,0,0,305.5, -3.3, -0.2,0,0,1024,1024,1024,1024,0,0,0,0,305.3,0,0,94,4.106,4.103,4.102,4.108,0,0,8.966,67.46,1067.7767316754,18.372704,6,P-GPS,
40900,2025-01-07 02:04:02,0,0,18.372704,,,1067.7767316754,20.997376,0,0,0,0,0,16.371,1069.4171516754,20.013124,0,0,0,0,0,305.7, -3.7, -0.8,0,0,1024,1024,1024,1024,0,0,0,0,305.3,0,0,94,4.106,4.103,4.102,4.108,0,0,8.966,67.46,1067.7767316754,18.372704,6,P-GPS,
41100,2025-01-07 02:04:02,0,0,18.372704,,,1067.7767316754,20.997376,0,0,0,0,0,16.437,1069.4171516754,20.013124,0,0,0,0,0,305.8, -2.6, -1.3,0,0,1024,1024,1024,1024,0,0,0,0,305.3,0,0,94,4.101,4.096,4.095,4.105,0,0,8.278,67.64,1067.7767316754,18.372704,6,P-GPS,
41300,2025-01-07 02:04:03,0,0,18.372704,,,1067.7767316754,20.997376,0,0,0,0,0,16.437,1069.4171516754,20.013124,0,0,0,0,0,305.7, -2.6, -1.1,0,0,1024,1024,1024,1024,0,0,0,0,305.3,0,0,94,4.101,4.096,4.095,4.105,0,0,8.278,67.64,1067.7767316754,18.372704,6,P-GPS,
41500,2025-01-07 02:04:03,0,0,18.372704,,,1067.7767316754,20.997376,0,0,0,0,0,16.437,1069.4171516754,20.013124,0,0,0,0,0,305.6, -3, -1.2,0,0,1024,1024,1024,1024,0,0,0,0,305.3,0,0,94,4.101,4.096,4.095,4.105,0,0,8.278,67.64,1067.7767316754,18.372704,6,P-GPS,
41700,2025-01-07 02:04:03,0,0,18.700788,,,1068.1048156754,21.32546,0,0,0,0,0,16.437,1069.4171516754,20.013124,0,0,0,0,0,305.5, -3.3, -1.8,0,0,1024,1024,1024,1024,0,0,0,0,305.3,0,0,94,4.101,4.096,4.095,4.105,0,0,8.278,67.64,1068.1048156754,18.700788,6,P-GPS,
41900,2025-01-07 02:04:03,0,0,18.700788,,,1068.1048156754,21.32546,0,0,0,0,0,16.437,1069.4171516754,20.013124,0,0,0,0,0,305.6, -4.5, -0.7,0,0,1024,1024,1024,1024,0,0,0,0,305.3,0,0,94,4.101,4.096,4.095,4.105,0,0,8.278,67.64,1068.1048156754,18.700788,6,P-GPS,
42100,2025-01-07 02:04:03,0,0,18.700788,,,1068.1048156754,21.32546,0,0,0,0,0,16.422,1069.4171516754,20.013124,0,0,0,0,0,305.9, -4.9, -1.5,0,0,1024,1024,1024,1024,0,0,0,0,305.3,0,0,94,4.108,4.104,4.102,4.113,0,0,8.585,67.64,1068.1048156754,18.700788,6,P-GPS,
42300,2025-01-07 02:04:04,0,0,18.700788,,,1068.1048156754,20.997376,0,0,0,0,0,16.422,1069.4171516754,20.013124,0,0,0,0,0,305.7, -3.8, -3,0,0,1024,1024,1024,1024,0,0,0,0,305.3,-36,0,94,4.108,4.104,4.102,4.113,0,0,8.585,67.64,1068.1048156754,18.700788,6,P-GPS,
42500,2025-01-07 02:04:04,0,0,18.700788,,,1068.1048156754,20.997376,0,0,0,0,0,16.422,1069.4171516754,20.013124,0,0,0,0,0,305.9, -3.7, -2.9,0,0,1024,1024,1024,1024,0,0,0,0,305.3,-89.5,0,94,4.108,4.104,4.102,4.113,0,0,8.585,67.64,1068.1048156754,18.700788,6,P-GPS,
42700,2025-01-07 02:04:04,0,0,18.700788,,,1068.1048156754,21.32546,0,0,0,0,0,16.422,1069.4171516754,20.013124,0,0,0,0,0,306, -3.8, -3.2,0,0,1024,1024,1024,1024,0,0,0,0,305.3,-90,0,94,4.108,4.104,4.102,4.113,0,0,8.585,67.64,1068.1048156754,18.700788,6,P-GPS,
42900,2025-01-07 02:04:04,0,0,18.700788,,,1068.1048156754,20.997376,0,0,0,0,0,16.422,1069.4171516754,20.013124,0,0,0,0,0,305.5, -2.8, -2,0,0,1024,1024,1024,1024,0,0,0,0,305.3,-90,0,94,4.108,4.104,4.102,4.113,0,0,8.585,67.64,1068.1048156754,18.700788,6,P-GPS,
43100,2025-01-07 02:04:04,0,0,18.700788,,,1068.1048156754,20.997376,0,0,0,0,0,16.396,1069.4171516754,20.013124,0,0,0,0,0,305.7, -2.9, -2.5,0,0,1024,1024,1024,1024,0,0,0,0,305.3,-90,0,94,4.096,4.094,4.092,4.106,0,0,8.491,67.82,1068.1048156754,18.700788,6,P-GPS,
43300,2025-01-07 02:04:05,0,0,19.028872,,,1068.4328996754,20.997376,0,0,0,0,0,16.396,1069.4171516754,20.013124,0,0,0,0,0,305.6, -2.7, -1.9,0,0,1024,1024,1024,1024,0,0,0,0,305.3,-90,0,94,4.096,4.094,4.092,4.106,0,0,8.491,67.82,1068.4328996754,19.028872,6,P-GPS,
43500,2025-01-07 02:04:05,0,0,19.028872,,,1068.4328996754,21.32546,0,0,0,0,0,16.396,1069.4171516754,20.013124,0,0,0,0,0,305.4, -2.8, -0.5,0,0,1024,1024,1024,1024,0,0,0,0,305.3,-90,0,94,4.096,4.094,4.092,4.106,0,0,8.491,67.82,1068.4328996754,19.028872,6,P-GPS,
43700,2025-01-07 02:04:05,0,0,19.028872,,,1068.4328996754,21.32546,0,0,0,0,0,16.396,1069.4171516754,20.013124,0,0,0,0,0,305.6, -2.7, -0.1,0,0,1024,1024,1024,1024,0,0,0,0,305.3,-90,0,94,4.096,4.094,4.092,4.106,0,0,8.491,67.82,1068.4328996754,19.028872,6,P-GPS,
43900,2025-01-07 02:04:05,0,0,19.028872,,,1068.4328996754,21.32546,0,0,0,0,0,16.396,1069.4171516754,20.013124,0,0,0,0,0,305.7, -2.3, -1.3,0,0,1024,1024,1024,1024,0,0,0,0,305.3,-90,0,94,4.096,4.094,4.092,4.106,0,0,8.491,67.82,1068.4328996754,19.028872,6,P-GPS,
44100,2025-01-07 02:04:05,0,0,19.028872,,,1068.4328996754,21.32546,0,0,0,0,0,16.431,1069.4171516754,20.013124,0,0,0,0,0,305.8, -3, -2,0,0,1024,1024,1024,1024,0,0,0,0,305.3,-90,0,94,4.109,4.105,4.102,4.107,0,0,8.412,67.82,1068.4328996754,19.028872,6,P-GPS,
44300,2025-01-07 02:04:06,0,0,19.028872,,,1068.4328996754,21.32546,0,0,0,0,0,16.431,1069.4171516754,20.013124,0,0,0,0,0,305.8, -3.6, -2.2,0,0,1024,1024,1024,1024,0,0,0,0,305.3,-90,0,94,4.109,4.105,4.102,4.107,0,0,8.412,67.82,1068.4328996754,19.028872,6,P-GPS,
44500,2025-01-07 02:04:06,0,0,19.028872,,,1068.4328996754,21.32546,0,0,0,0,0,16.431,1069.4171516754,20.013124,0,0,0,0,0,305.9, -3.7, -1.8,0,0,1024,1024,1024,1024,0,0,0,0,305.3,-90,0,94,4.109,4.105,4.102,4.107,0,0,8.412,67.82,1068.4328996754,19.028872,6,P-GPS,
44700,2025-01-07 02:04:06,0,0,19.356956,,,1068.7609836754,21.32546,0,0,0,0,0,16.431,1069.4171516754,20.013124,0,0,0,0,0,305.9, -3.6, -2.9,0,0,1024,1024,1024,1024,0,0,0,0,305.3,-90,0,94,4.109,4.105,4.102,4.107,0,0,8.412,67.82,1068.7609836754,19.356956,6,P-GPS,
44900,2025-01-07 02:04:06,0,0,19.356956,,,1068.7609836754,21.32546,0,0,0,0,0,16.431,1069.4171516754,20.013124,0,0,0,0,0,305.9, -3.5, -2.8,0,0,1024,1024,1024,1024,0,0,0,0,305.3,-90,0,94,4.109,4.105,4.102,4.107,0,0,8.412,67.82,1068.7609836754,19.356956,6,P-GPS,
