time(millisecond),datetime(utc),latitude,longitude,height_above_takeoff(feet),height_above_ground_at_drone_location(feet),ground_elevation_at_drone_location(feet),altitude_above_seaLevel(feet),height_sonar(feet),speed(mph),distance(feet),mileage(feet),satellites,gpslevel,voltage(v),max_altitude(feet),max_ascent(feet),max_speed(mph),max_distance(feet), xSpeed(mph), ySpeed(mph), zSpeed(mph), compass_heading(degrees), pitch(degrees), roll(degrees),isPhoto,isVideo,rc_elevator,rc_aileron,rc_throttle,rc_rudder,rc_elevator(percent),rc_aileron(percent),rc_throttle(percent),rc_rudder(percent),gimbal_heading(degrees),gimbal_pitch(degrees),gimbal_roll(degrees),battery_percent,voltageCell1,voltageCell2,voltageCell3,voltageCell4,voltageCell5,voltageCell6,current(A),battery_temperature(f),altitude(feet),ascent(feet),flycStateRaw,flycState,message
100,2025-01-07 00:41:39,0,0,0,Available with any HD 360 subscription,Available with any HD 360 subscription,1051.0870001702,0.328084,0,0,0,0,0,0,1051.0870001702,0,0,0,0,0,0,66.5, 3.8, 0.8,0,0,1024,1024,1024,1024,0,0,0,0,66.5,0,0,96,4.146,4.14,4.139,4.148,0,0,0,51.08,1051.0870001702,0,41,Motors_Started,"機体は飛行していません。ビジョンシステムと障害物回避が無効です (Code: 180059)"
300,2025-01-07 00:41:39,0,0,0,,,1051.0870001702,0.328084,0,0,0,0,0,0,1051.0870001702,0,0,0,0,0,0,66.5, 3.8, 0.8,0,0,1024,1024,1024,1024,0,0,0,0,66.5,0,0,96,4.146,4.14,4.139,4.148,0,0,0,51.08,1051.0870001702,0,41,Motors_Started,
500,2025-01-07 00:41:39,0,0,0,,,1051.0870001702,0,0,0,0,0,0,0,1051.0870001702,0,0,0,0,0,0,66.4, 3.9, 0.8,0,0,1024,1024,1024,1024,0,0,0,0,66.5,0,0,96,4.146,4.14,4.139,4.148,0,0,0,51.08,1051.0870001702,0,41,Motors_Started,"Setting new Return-To-Home altitude to 100m (328 ft). Data Recorder File Index is 83. Setting new Maximum Flight Altitude to 30m (98 ft). GNSSがありません。慎重に飛行してください GNSS信号が微弱です。ホバリングが不安定です。慎重に飛行してください (Code: 30002). 機体は飛行していません。ビジョンシステムと障害物回避が無効です (Code: 180059)"
700,2025-01-07 00:41:40,0,0,0,,,1051.0870001702,0,0,0,0,0,0,0,1051.0870001702,0,0,0,0,0,0,66.6, 3.9, 0.8,0,0,1024,1024,1024,1024,0,0,0,0,66.5,0,0,96,4.146,4.14,4.139,4.148,0,0,0,51.08,1051.0870001702,0,41,Motors_Started,
900,2025-01-07 00:41:40,0,0,0,,,1051.0870001702,0,0,0,0,0,0,0,1051.0870001702,0,0,0,0,0,0,66.6, 3.9, 0.8,0,0,1024,1024,1024,1024,0,0,0,0,66.5,0,0,96,4.146,4.14,4.139,4.148,0,0,0,51.08,1051.0870001702,0,41,Motors_Started,
1100,2025-01-07 00:41:40,0,0,0,,,1051.0870001702,0,0,0,0,0,0,0,1051.0870001702,0,0,0,0,0,0,66.7, 3.8, 0.8,0,0,1024,1024,1024,1024,0,0,0,0,66.5,0,0,96,4.146,4.14,4.139,4.148,0,0,0,51.08,1051.0870001702,0,41,Motors_Started,
1300,2025-01-07 00:41:40,0,0,0,,,1051.0870001702,0,0,0,0,0,0,0,1051.0870001702,0,0,0,0,0,0,66.6, 3.8, 0.9,0,0,1024,1024,1024,1024,0,0,0,0,66.5,0,0,96,4.146,4.14,4.139,4.148,0,0,0,51.08,1051.0870001702,0,41,Motors_Started,
1500,2025-01-07 00:41:40,0,0,0,,,1051.0870001702,0,0,0,0,0,0,16.595,1051.0870001702,0,0,0,0,0,0,66.7, 3.8, 0.9,0,0,1024,1024,1024,1024,0,0,0,0,66.5,0,0,96,4.146,4.14,4.139,4.148,0,0,4.186,51.08,1051.0870001702,0,41,Motors_Started,
1700,2025-01-07 00:41:41,0,0,0,,,1051.0870001702,0,0,0,0,0,0,16.595,1051.0870001702,0,0,0,0,0,0,66.7, 3.8, 0.8,0,0,1024,1024,1024,1024,0,0,0,0,66.5,0,0,96,4.146,4.14,4.139,4.148,0,0,4.186,51.08,1051.0870001702,0,11,AutoTakeoff,
1900,2025-01-07 00:41:41,0,0,0,,,1051.0870001702,0,0,0,0,0,0,16.595,1051.0870001702,0,0,0,0,0,0,66.8, 3.8, 0.8,0,0,1024,1024,1024,1024,0,0,0,0,66.5,0,0,96,4.146,4.14,4.139,4.148,0,0,4.186,51.08,1051.0870001702,0,11,AutoTakeoff,"機体は飛行していません。ビジョンシステムと障害物回避が無効です (Code: 180059)"
2100,2025-01-07 00:41:41,0,0,0,,,1051.0870001702,0,0,0,0,0,0,16.595,1051.0870001702,0,0,0,0,0,0,67.1, 0.2, 0.8,0,0,1024,1024,1024,1024,0,0,0,0,66.5,0,0,96,4.146,4.14,4.139,4.148,0,0,4.186,51.08,1051.0870001702,0,11,AutoTakeoff,
2300,2025-01-07 00:41:41,0,0,0,,,1051.0870001702,0,0,0,0,0,0,16.595,1051.0870001702,0,0,0,0,0,-0.671082,67.6, -2.9, 0.3,0,0,1024,1024,1024,1024,0,0,0,0,66.6,0,0,96,4.146,4.14,4.139,4.148,0,0,4.186,51.08,1051.0870001702,0,11,AutoTakeoff,
2500,2025-01-07 00:41:41,0,0,0,,,1051.0870001702,0.328084,0,0,0,0,0,16.681,1051.0870001702,0,0,0,0,0,-0.894776,67.1, 1.3, 0.2,0,0,1024,1024,1024,1024,0,0,0,0,66.6,0,0,96,4.132,4.119,4.113,4.108,0,0,3.421,51.08,1051.0870001702,0,11,AutoTakeoff,
2700,2025-01-07 00:41:42,0,0,0.328084,,,1051.4150841702,0.656168,0,0,0,0,0,16.681,1051.4150841702,0.328084,0,0,0,0,-0.894776,67.4, 2.1, 0.7,0,0,1024,1024,1024,1024,0,0,0,0,66.6,0,0,96,4.132,4.119,4.113,4.108,0,0,3.421,51.08,1051.4150841702,0.328084,11,AutoTakeoff,
2900,2025-01-07 00:41:42,0,0,0.656168,,,1051.7431681702,0.984252,0,0,0,0,0,16.681,1051.7431681702,0.656168,0,0,0,0,-0.894776,67.3, 1.9, 1.9,0,0,1024,1024,1024,1024,0,0,0,0,66.7,0,0,96,4.132,4.119,4.113,4.108,0,0,3.421,51.08,1051.7431681702,0.656168,11,AutoTakeoff,
3100,2025-01-07 00:41:42,0,0,0.984252,,,1052.0712521702,1.312336,0,0,0,0,0,16.681,1052.0712521702,0.984252,0,0,0,0,-0.671082,67.1, 1.4, 2.6,0,0,1024,1024,1024,1024,0,0,0,0,66.7,0,0,96,4.132,4.119,4.113,4.108,0,0,3.421,51.08,1052.0712521702,0.984252,11,AutoTakeoff,
3300,2025-01-07 00:41:42,0,0,1.312336,,,1052.3993361702,1.64042,0,0,0,0,0,16.681,1052.3993361702,1.312336,0,0,0,0,-0.894776,67, 1.5, 0.8,0,0,1120,1024,1024,1024,15,0,0,0,66.7,0,0,96,4.132,4.119,4.113,4.108,0,0,3.421,51.08,1052.3993361702,1.312336,11,AutoTakeoff,
3500,2025-01-07 00:41:42,0,0,1.64042,,,1052.7274201702,1.968504,0,0,0,0,0,16.193,1052.7274201702,1.64042,0,0,0,0,-0.894776,67.2, 1.1, -0.6,0,0,1169,1024,1024,1024,22,0,0,0,66.7,0,0,96,4.043,4.033,4.031,4.035,0,0,8.016,51.08,1052.7274201702,1.64042,11,AutoTakeoff,
3700,2025-01-07 00:41:43,0,0,1.968504,,,1053.0555041702,2.296588,0,0,0,0,0,16.193,1053.0555041702,1.968504,0,0,0,0,-1.11847,67.3, 0.6, 0,0,0,1234,1024,1024,1024,32,0,0,0,66.7,0,0,96,4.043,4.033,4.031,4.035,0,0,8.016,51.08,1053.0555041702,1.968504,11,AutoTakeoff,飛行中
3900,2025-01-07 00:41:43,0,0,2.296588,,,1053.3835881702,2.624672,0,0,0,0,0,16.193,1053.3835881702,2.296588,0,0,0,0,-1.11847,67.4, -0.5, 0.8,0,0,1246,1024,1024,1024,34,0,0,0,66.8,0,0,96,4.043,4.033,4.031,4.035,0,0,8.016,51.08,1053.3835881702,2.296588,11,AutoTakeoff,
4100,2025-01-07 00:41:43,0,0,2.624672,,,1053.7116721702,2.952756,0,0,0,0,0,16.193,1053.7116721702,2.624672,0,0,0,0,-1.11847,67.6, -0.6, 0.2,0,0,1243,1024,1024,1024,33,0,0,0,66.8,0,0,96,4.043,4.033,4.031,4.035,0,0,8.016,51.08,1053.7116721702,2.624672,11,AutoTakeoff,
4300,2025-01-07 00:41:43,0,0,2.952756,,,1054.0397561702,3.28084,0,0,0,0,0,16.193,1054.0397561702,2.952756,0,0,0,0,-1.11847,67.5, -0.1, 0.4,0,0,1264,1024,1024,1024,36,0,0,0,66.8,0,0,96,4.043,4.033,4.031,4.035,0,0,8.016,51.08,1054.0397561702,2.952756,11,AutoTakeoff,
4500,2025-01-07 00:41:43,0,0,3.28084,,,1054.3678401702,3.608924,0,0,0,0,0,16.124,1054.3678401702,3.28084,0,0,0,0,-1.11847,67.5, -0.4, 1.1,0,0,1305,1024,1024,1024,43,0,0,0,66.8,0,0,96,4.036,4.029,4.028,4.034,0,0,8.985,51.08,1054.3678401702,3.28084,11,AutoTakeoff,
4700,2025-01-07 00:41:44,0,0,3.608924,,,1054.6959241702,3.937008,0.223694,0,0,0,0,16.124,1054.6959241702,3.608924,0,0,0.223694,0,-0.447388,67.1, -1.8, 2.6,0,0,1327,1024,1024,1024,46,0,0,0,66.8,0,0,96,4.036,4.029,4.028,4.034,0,0,8.985,51.08,1054.6959241702,3.608924,6,P-GPS,
4900,2025-01-07 00:41:44,0,0,3.608924,,,1054.6959241702,3.937008,0.4921268,0,0,0,0,16.124,1054.6959241702,3.608924,0,0,0.223694,0.447388,0,66.9, -5, 3,0,0,1307,1024,1024,1024,43,0,0,0,66.8,0,0,96,4.036,4.029,4.028,4.034,0,0,8.985,51.08,1054.6959241702,3.608924,6,P-GPS,
5100,2025-01-07 00:41:44,0,0,3.608924,,,1054.6959241702,3.937008,0.9171454,0,0,0,0,16.124,1054.6959241702,3.608924,0,0,0.223694,0.894776,0,66.9, -6.5, 2.1,0,0,1214,1024,1024,1024,29,0,0,0,66.8,0,0,96,4.036,4.029,4.028,4.034,0,0,8.985,51.08,1054.6959241702,3.608924,6,P-GPS,
5300,2025-01-07 00:41:44,0,0,3.608924,,,1054.6959241702,3.937008,1.4092722,0,0,0,0,16.124,1054.6959241702,3.608924,0,0,0.447388,1.342164,0,67.1, -5.8, 0.7,0,0,1024,1024,1024,1025,0,0,0,0,66.8,0,0,96,4.036,4.029,4.028,4.034,0,0,8.985,51.08,1054.6959241702,3.608924,6,P-GPS,
5500,2025-01-07 00:41:44,0,0,3.608924,,,1054.6959241702,3.937008,1.7000744,0,0,0,0,16.241,1054.6959241702,3.608924,0,0,0.671082,1.565858,0,66.7, 5.3, 2.3,0,0,1024,1024,1024,1250,0,0,0,34,66.9,0,0,96,4.055,4.043,4.042,4.047,0,0,7.982,51.26,1054.6959241702,3.608924,6,P-GPS,
5700,2025-01-07 00:41:45,0,0,3.608924,,,1054.6959241702,3.937008,0.9171454,0,0,0,0,16.241,1054.6959241702,3.608924,0,0,0.223694,0.894776,0,66.5, 9.3, 2.8,0,0,1024,1024,1024,1314,0,0,0,44,67.3,0,0,96,4.055,4.043,4.042,4.047,0,0,7.982,51.26,1054.6959241702,3.608924,6,P-GPS,
5900,2025-01-07 00:41:45,0,0,3.608924,,,1054.6959241702,3.937008,0.447388,0,0,0,0,16.241,1054.6959241702,3.608924,0,0,0,0.447388,0,66.8, 4.9, 1.8,0,0,1024,1024,1024,1451,0,0,0,65,68.9,0,0,96,4.055,4.043,4.042,4.047,0,0,7.982,51.26,1054.6959241702,3.608924,6,P-GPS,
6100,2025-01-07 00:41:45,0,0,3.608924,,,1054.6959241702,3.937008,0.223694,0,0,0,0,16.241,1054.6959241702,3.608924,0,0,0,0.223694,0,68.6, 3.6, 0.9,0,0,1024,1024,1024,1501,0,0,0,72,72.5,0,0,96,4.055,4.043,4.042,4.047,0,0,7.982,51.26,1054.6959241702,3.608924,6,P-GPS,
6300,2025-01-07 00:41:45,0,0,3.608924,,,1054.6959241702,3.937008,0,0,0,0,0,16.241,1054.6959241702,3.608924,0,0,0,0,0,71.1, 2.4, 1.2,0,0,1024,1024,1024,1516,0,0,0,75,77.8,0,0,96,4.055,4.043,4.042,4.047,0,0,7.982,51.26,1054.6959241702,3.608924,6,P-GPS,
6500,2025-01-07 00:41:45,0,0,3.608924,,,1054.6959241702,3.937008,0,0,0,0,0,16.13,1054.6959241702,3.608924,0,0,0,0,0,76.5, 0.6, 3.3,0,0,1024,1024,1024,1523,0,0,0,76,83.8,0,0,96,4.04,4.032,4.031,4.037,0,0,8.472,51.26,1054.6959241702,3.608924,6,P-GPS,
6700,2025-01-07 00:41:46,0,0,3.608924,,,1054.6959241702,3.937008,0,0,0,0,0,16.13,1054.6959241702,3.608924,0,0,0,0,0,82.9, -0.6, 1.7,0,0,1024,1024,1024,1536,0,0,0,78,89.9,0,0,96,4.04,4.032,4.031,4.037,0,0,8.472,51.26,1054.6959241702,3.608924,6,P-GPS,
6900,2025-01-07 00:41:46,0,0,3.608924,,,1054.6959241702,3.937008,0,0,0,0,0,16.13,1054.6959241702,3.608924,0,0,0,0,0,89.2, 0, 0.6,0,0,1024,1024,1024,1541,0,0,0,78,96.5,0,0,96,4.04,4.032,4.031,4.037,0,0,8.472,51.26,1054.6959241702,3.608924,6,P-GPS,
7100,2025-01-07 00:41:46,0,0,3.608924,,,1054.6959241702,3.937008,0,0,0,0,0,16.13,1054.6959241702,3.608924,0,0,0,0,0,95.5, -0.1, 0.2,0,0,1024,1024,1024,1550,0,0,0,80,103.3,0,0,96,4.04,4.032,4.031,4.037,0,0,8.472,51.26,1054.6959241702,3.608924,6,P-GPS,
7300,2025-01-07 00:41:46,0,0,3.608924,,,1054.6959241702,3.937008,0,0,0,0,0,16.13,1054.6959241702,3.608924,0,0,0,0,0,101.8, -0.3, 1.7,0,0,1024,1024,1024,1551,0,0,0,80,110.1,0,0,96,4.04,4.032,4.031,4.037,0,0,8.472,51.26,1054.6959241702,3.608924,6,P-GPS,
7500,2025-01-07 00:41:46,0,0,3.608924,,,1054.6959241702,3.937008,0,0,0,0,0,16.119,1054.6959241702,3.608924,0,0,0,0,0,108.7, -0.7, 2.2,0,0,1024,1024,1024,1313,0,0,0,44,117.2,0,0,96,4.034,4.025,4.025,4.032,0,0,8.396,51.44,1054.6959241702,3.608924,6,P-GPS,
7700,2025-01-07 00:41:47,0,0,3.608924,,,1054.6959241702,3.937008,0,0,0,0,0,16.119,1054.6959241702,3.608924,0,0,0,0,0,115.4, -0.9, 2.4,0,0,1024,1024,1024,1024,0,0,0,0,121.6,0,0,96,4.034,4.025,4.025,4.032,0,0,8.396,51.44,1054.6959241702,3.608924,6,P-GPS,
7900,2025-01-07 00:41:47,0,0,3.608924,,,1054.6959241702,3.937008,0,0,0,0,0,16.119,1054.6959241702,3.608924,0,0,0,0,0,121.8, 0, 1.8,0,0,1024,1024,1024,1024,0,0,0,0,121.8,0,0,96,4.034,4.025,4.025,4.032,0,0,8.396,51.44,1054.6959241702,3.608924,6,P-GPS,
8100,2025-01-07 00:41:47,0,0,3.608924,,,1054.6959241702,3.937008,0,0,0,0,0,16.119,1054.6959241702,3.608924,0,0,0,0,0,121.6, 0, 0.7,0,0,1024,1024,1024,1423,0,0,0,60,121.8,0,0,96,4.034,4.025,4.025,4.032,0,0,8.396,51.44,1054.6959241702,3.608924,6,P-GPS,
8300,2025-01-07 00:41:47,0,0,3.608924,,,1054.6959241702,3.937008,0,0,0,0,0,16.119,1054.6959241702,3.608924,0,0,0,0,0,121.9, -0.5, 0.9,0,0,1024,1024,1024,1390,0,0,0,55,126,0,0,96,4.034,4.025,4.025,4.032,0,0,8.396,51.44,1054.6959241702,3.608924,6,P-GPS,
8500,2025-01-07 00:41:47,0,0,3.608924,,,1054.6959241702,3.937008,0,0,0,0,0,16.095,1054.6959241702,3.608924,0,0,0,0,0,124.2, -0.3, 1,0,0,1024,1024,1024,1024,0,0,0,0,130.2,0,0,96,4.031,4.021,4.021,4.024,0,0,8.472,51.44,1054.6959241702,3.608924,6,P-GPS,
8700,2025-01-07 00:41:48,0,0,3.608924,,,1054.6959241702,3.937008,0,0,0,0,0,16.095,1054.6959241702,3.608924,0,0,0,0,0,130.9, 0, 2,0,0,1024,1024,1024,1024,0,0,0,0,130.4,0,0,96,4.031,4.021,4.021,4.024,0,0,8.472,51.44,1054.6959241702,3.608924,6,P-GPS,
8900,2025-01-07 00:41:48,0,0,3.608924,,,1054.6959241702,3.937008,0,0,0,0,0,16.095,1054.6959241702,3.608924,0,0,0,0,0,130, -0.6, 1.3,0,0,1400,1024,1024,1024,57,0,0,0,130.4,0,0,96,4.031,4.021,4.021,4.024,0,0,8.472,51.44,1054.6959241702,3.608924,6,P-GPS,
9100,2025-01-07 00:41:48,0,0,3.608924,,,1054.6959241702,3.937008,0,0,0,0,0,16.095,1054.6959241702,3.608924,0,0,0,0,0,129.6, -3, 1.1,0,0,1401,1024,1024,1024,57,0,0,0,130.4,0,0,96,4.031,4.021,4.021,4.024,0,0,8.472,51.44,1054.6959241702,3.608924,6,P-GPS,
9300,2025-01-07 00:41:48,0,0,3.608924,,,1054.6959241702,3.937008,0.3131716,0,0,0,0,16.095,1054.6959241702,3.608924,0,0,-0.223694,0.223694,0,129.8, -9.4, 0.8,0,0,1077,1024,1024,1024,8,0,0,0,130.4,0,0,96,4.031,4.021,4.021,4.024,0,0,8.472,51.44,1054.6959241702,3.608924,6,P-GPS,
9500,2025-01-07 00:41:48,0,0,3.608924,,,1054.6959241702,3.937008,0.9395148,0,0,0,0,16.088,1054.6959241702,3.608924,0,0,-0.671082,0.671082,0,130.2, -11.5, 0,0,0,1024,1024,1024,1024,0,0,0,0,130.4,0,0,96,4.031,4.023,4.023,4.027,0,0,8.586,51.44,1054.6959241702,3.608924,6,P-GPS,
9700,2025-01-07 00:41:49,0,0,3.608924,,,1054.6959241702,3.937008,1.6105968,0,0,0,0,16.088,1054.6959241702,3.608924,0,0,-0.894776,1.342164,0,129.8, 1.7, -1.3,0,0,1024,1024,1024,1024,0,0,0,0,130.4,0,0,96,4.031,4.023,4.023,4.027,0,0,8.586,51.44,1054.6959241702,3.608924,6,P-GPS,
9900,2025-01-07 00:41:49,0,0,3.608924,,,1054.6959241702,3.937008,1.006623,0,0,0,0,16.088,1054.6959241702,3.608924,0,0,-0.447388,0.894776,0,130.6, 9.6, 2.2,0,0,1024,1024,1107,1024,0,0,13,0,130.4,0,0,96,4.031,4.023,4.023,4.027,0,0,8.586,51.44,1054.6959241702,3.608924,6,P-GPS,
10100,2025-01-07 00:41:49,0,0,3.608924,,,1054.6959241702,3.937008,0.447388,0,0,0,0,16.088,1054.6959241702,3.608924,0,0,0,0.447388,0,131, 4.3, 3.7,0,0,1024,1024,1241,1024,0,0,33,0,130.4,0,0,96,4.031,4.023,4.023,4.027,0,0,8.586,51.44,1054.6959241702,3.608924,6,P-GPS,
10300,2025-01-07 00:41:49,0,0,3.608924,,,1054.6959241702,3.937008,0.223694,0,0,0,0,16.088,1054.6959241702,3.608924,0,0,0,0.223694,0,131.6, 2.1, 3.3,0,0,1024,1024,1336,1024,0,0,47,0,130.4,0,0,96,4.031,4.023,4.023,4.027,0,0,8.586,51.44,1054.6959241702,3.608924,6,P-GPS,
10500,2025-01-07 00:41:49,0,0,3.937008,,,1055.0240081702,3.937008,0,0,0,0,0,16.058,1055.0240081702,3.937008,0,0,0,0,-1.342164,131.2, 0.5, 2,0,0,1024,1024,1324,1024,0,0,45,0,130.4,0,0,95,4.023,4.018,4.018,4.025,0,0,8.729,51.62,1055.0240081702,3.937008,6,P-GPS,
10700,2025-01-07 00:41:50,0,0,4.593176,,,1055.6801761702,4.92126,0,0,0,0,0,16.058,1055.6801761702,4.593176,0,0,0,0,-2.460634,130.6, -0.2, 1.7,0,0,1024,1024,1316,1024,0,0,44,0,130.4,0,0,95,4.023,4.018,4.018,4.025,0,0,8.729,51.62,1055.6801761702,4.593176,6,P-GPS,
10900,2025-01-07 00:41:50,0,0,5.577428,,,1056.6644281702,5.577428,0,0,0,0,0,16.058,1056.6644281702,5.577428,0,0,0,0,-2.684328,130.1, 0.4, 2.9,0,0,1024,1024,1316,1024,0,0,44,0,130.4,0,0,95,4.023,4.018,4.018,4.025,0,0,8.729,51.62,1056.6644281702,5.577428,6,P-GPS,
11100,2025-01-07 00:41:50,0,0,6.233596,,,1057.3205961702,6.233596,0,0,0,0,0,16.058,1057.3205961702,6.233596,0,0,0,0,-2.684328,130.5, 0.4, 0.7,0,0,1024,1024,1316,1024,0,0,44,0,130.4,0,0,95,4.023,4.018,4.018,4.025,0,0,8.729,51.62,1057.3205961702,6.233596,6,P-GPS,
11300,2025-01-07 00:41:50,0,0,6.889764,,,1057.9767641702,6.889764,0,0,0,0,0,16.058,1057.9767641702,6.889764,0,0,0,0,-2.460634,130.3, 1, 0.4,0,0,1024,1024,1319,1024,0,0,45,0,130.4,0,0,95,4.023,4.018,4.018,4.025,0,0,8.729,51.62,1057.9767641702,6.889764,6,P-GPS,
11500,2025-01-07 00:41:50,0,0,7.874016,,,1058.9610161702,7.545932,0,0,0,0,0,15.943,1058.9610161702,7.874016,0,0,0,0,-2.23694,130.4, 1.3, 1,0,0,1024,1024,1237,1024,0,0,32,0,130.4,0,0,95,4.018,4.011,4.012,4.017,0,0,10.221,51.8,1058.9610161702,7.874016,6,P-GPS,
11700,2025-01-07 00:41:51,0,0,8.530184,,,1059.6171841702,8.530184,0,0,0,0,0,15.943,1059.6171841702,8.530184,0,0,0,0,-2.460634,130.5, 1.7, 1.3,0,0,1024,1024,1024,1024,0,0,0,0,130.4,0,0,95,4.018,4.011,4.012,4.017,0,0,10.221,51.8,1059.6171841702,8.530184,6,P-GPS,
11900,2025-01-07 00:41:51,0,0,9.186352,,,1060.2733521702,8.858268,0,0,0,0,0,15.943,1060.2733521702,9.186352,0,0,0,0,-1.342164,130.6, 2.5, 1.6,0,0,1061,1024,1024,1024,6,0,0,0,130.4,0,0,95,4.018,4.011,4.012,4.017,0,0,10.221,51.8,1060.2733521702,9.186352,6,P-GPS,
12100,2025-01-07 00:41:51,0,0,9.186352,,,1060.2733521702,8.858268,0,0,0,0,0,15.943,1060.2733521702,9.186352,0,0,0,0,-0.223694,130.6, 1.7, 1.6,0,0,1370,1024,1024,1024,52,0,0,0,130.4,0,0,95,4.018,4.011,4.012,4.017,0,0,10.221,51.8,1060.2733521702,9.186352,6,P-GPS,
12300,2025-01-07 00:41:51,0,0,9.186352,,,1060.2733521702,8.858268,0,0,0,0,0,15.943,1060.2733521702,9.186352,0,0,0,0,0,130.6, 0.7, 1.7,0,0,1398,1024,1024,1024,57,0,0,0,130.4,0,0,95,4.018,4.011,4.012,4.017,0,0,10.221,51.8,1060.2733521702,9.186352,6,P-GPS,
12500,2025-01-07 00:41:51,0,0,9.186352,,,1060.2733521702,8.858268,0,0,0,0,0,16.199,1060.2733521702,9.186352,0,0,0,0,0,130.3, -5.4, 2.2,0,0,1384,1024,1024,1024,55,0,0,0,130.4,0,0,95,4.031,4.025,4.02,4.023,0,0,8.126,51.8,1060.2733521702,9.186352,6,P-GPS,
12700,2025-01-07 00:41:52,0,0,9.186352,,,1060.2733521702,8.858268,0.6263432,0,0,0,0,16.199,1060.2733521702,9.186352,0,0,-0.447388,0.447388,0,130.2, -9.3, 2.1,0,0,1377,1024,1024,1024,53,0,0,0,130.4,0,0,95,4.031,4.025,4.02,4.023,0,0,8.126,51.8,1060.2733521702,9.186352,6,P-GPS,
12900,2025-01-07 00:41:52,0,0,9.186352,,,1060.2733521702,8.858268,1.4316416,0,0,0,0,16.199,1060.2733521702,9.186352,0,0,-0.894776,1.11847,0,130.3, -9.6, 1.6,0,0,1371,1024,1024,1024,53,0,0,0,130.4,0,0,95,4.031,4.025,4.02,4.023,0,0,8.126,51.8,1060.2733521702,9.186352,6,P-GPS,
13100,2025-01-07 00:41:52,0,0,9.186352,,,1060.2733521702,8.858268,2.0579848,0,0,0,0,16.199,1060.2733521702,9.186352,0,0,-1.342164,1.565858,0,130.3, -8.6, 1.6,0,0,1350,1024,1024,1024,49,0,0,0,130.4,0,0,95,4.031,4.025,4.02,4.023,0,0,8.126,51.8,1060.2733521702,9.186352,6,P-GPS,
13300,2025-01-07 00:41:52,0,0,9.186352,,,1060.2733521702,8.858268,2.684328,0,0,0,0,16.199,1060.2733521702,9.186352,0,0,-1.789552,2.013246,0,130.4, -7.7, 1.7,0,0,1307,1024,1024,1024,43,0,0,0,130.4,0,0,95,4.031,4.025,4.02,4.023,0,0,8.126,51.8,1060.2733521702,9.186352,6,P-GPS,
13500,2025-01-07 00:41:52,0,0,9.186352,,,1060.2733521702,8.530184,3.3330406,0,0,0,0,16.029,1060.2733521702,9.186352,0,0,-2.23694,2.460634,0,130.5, -6.6, 1.8,0,0,1024,1024,1024,1024,0,0,0,0,130.4,0,0,95,4.011,4.003,4.005,4.01,0,0,8.498,51.98,1060.2733521702,9.186352,6,P-GPS,
13700,2025-01-07 00:41:53,0,0,9.186352,,,1060.2733521702,8.858268,3.802798,0,0,0,0,16.029,1060.2733521702,9.186352,0,0,-2.460634,2.908022,0,130.5, -4.8, 1.1,0,0,1024,1024,1024,1215,0,0,0,29,130.4,0,0,95,4.011,4.003,4.005,4.01,0,0,8.498,51.98,1060.2733521702,9.186352,6,P-GPS,
13900,2025-01-07 00:41:53,0,0,9.186352,,,1060.2733521702,9.514436,3.6462122,0,0,0,0,16.029,1060.2733521702,9.186352,0,0,-2.460634,2.684328,0,130.4, 14.1, 0.9,0,0,1024,1024,1094,1382,0,0,11,54,133,0,0,95,4.011,4.003,4.005,4.01,0,0,8.498,51.98,1060.2733521702,9.186352,6,P-GPS,
14100,2025-01-07 00:41:53,0,0,9.186352,,,1060.2733521702,10.170604,2.0579848,0,0,0,0,16.029,1060.2733521702,9.186352,0,0,-1.342164,1.565858,0,131.8, 19.3, 1.7,0,0,1024,1024,1024,1024,0,0,0,0,136.9,0,0,95,4.011,4.003,4.005,4.01,0,0,8.498,51.98,1060.2733521702,9.186352,6,P-GPS,
14300,2025-01-07 00:41:53,0,0,9.186352,,,1060.2733521702,10.498688,0.8052984,0,0,0,0,16.029,1060.2733521702,9.186352,0,0,-0.447388,0.671082,0,136.3, 10.1, 3.4,0,0,1024,1024,1024,1024,0,0,0,0,137.3,0,0,95,4.011,4.003,4.005,4.01,0,0,8.498,51.98,1060.2733521702,9.186352,6,P-GPS,
14500,2025-01-07 00:41:54,0,0,9.186352,,,1060.2733521702,10.826772,0.3131716,0,0,0,0,15.995,1060.2733521702,9.186352,0,0,-0.223694,0.223694,0,137.2, 4.9, 2.7,0,0,1024,1024,1024,1024,0,0,0,0,137.3,0,0,95,4.003,3.999,4.005,4.005,0,0,8.943,52.16,1060.2733521702,9.186352,6,P-GPS,
14900,2025-01-07 00:41:54,0,0,9.186352,,,1060.2733521702,10.826772,0,0,0,0,0,15.995,1060.2733521702,9.186352,0,0,0,0,0,137.6, 1.9, 2.2,0,0,1024,1024,1024,1024,0,0,0,0,137.3,0,0,95,4.003,3.999,4.005,4.005,0,0,8.943,52.16,1060.2733521702,9.186352,6,P-GPS,
15100,2025-01-07 00:41:54,0,0,9.186352,,,1060.2733521702,10.826772,0,0,0,0,0,15.995,1060.2733521702,9.186352,0,0,0,0,0,137.5, 1.7, 2.1,0,0,1024,1024,1024,1024,0,0,0,0,137.3,0,0,95,4.003,3.999,4.005,4.005,0,0,8.943,52.16,1060.2733521702,9.186352,6,P-GPS,
15300,2025-01-07 00:41:54,0,0,9.186352,,,1060.2733521702,10.826772,0,0,0,0,0,15.995,1060.2733521702,9.186352,0,0,0,0,0,137.6, 0.8, 1.6,0,0,1024,1024,1024,1024,0,0,0,0,137.3,0,0,95,4.003,3.999,4.005,4.005,0,0,8.943,52.16,1060.2733521702,9.186352,6,P-GPS,
15500,2025-01-07 00:41:54,0,0,9.186352,,,1060.2733521702,10.826772,0,0,0,0,0,16.042,1060.2733521702,9.186352,0,0,0,0,0,137.4, 1, 1.9,0,0,1024,1024,1024,1024,0,0,0,0,137.3,0,0,95,4.004,3.996,3.996,4.002,0,0,8.83,52.34,1060.2733521702,9.186352,6,P-GPS,
15700,2025-01-07 00:41:55,0,0,9.186352,,,1060.2733521702,10.498688,0,0,0,0,0,16.042,1060.2733521702,9.186352,0,0,0,0,0,137.8, 1.9, 2,0,0,1024,1024,1024,1024,0,0,0,0,137.3,0,0,95,4.004,3.996,3.996,4.002,0,0,8.83,52.34,1060.2733521702,9.186352,6,P-GPS,
15900,2025-01-07 00:41:55,0,0,9.186352,,,1060.2733521702,10.498688,0,0,0,0,0,16.042,1060.2733521702,9.186352,0,0,0,0,0,137.6, 1.3, 2,0,0,1024,1024,1024,1024,0,0,0,0,137.3,0,0,95,4.004,3.996,3.996,4.002,0,0,8.83,52.34,1060.2733521702,9.186352,6,P-GPS,
16100,2025-01-07 00:41:55,0,0,9.186352,,,1060.2733521702,10.498688,0,0,0,0,0,16.042,1060.2733521702,9.186352,0,0,0,0,0,137.5, 1.3, 2.7,0,0,1024,1024,1024,1024,0,0,0,0,137.3,0,0,95,4.004,3.996,3.996,4.002,0,0,8.83,52.34,1060.2733521702,9.186352,6,P-GPS,
16300,2025-01-07 00:41:55,0,0,9.186352,,,1060.2733521702,10.498688,0,0,0,0,0,16.042,1060.2733521702,9.186352,0,0,0,0,0,137.6, 1.2, 2.1,0,0,1024,1024,1024,1024,0,0,0,0,137.3,0,0,95,4.004,3.996,3.996,4.002,0,0,8.83,52.34,1060.2733521702,9.186352,6,P-GPS,
16500,2025-01-07 00:41:55,0,0,9.186352,,,1060.2733521702,10.498688,0,0,0,0,0,16.019,1060.2733521702,9.186352,0,0,0,0,0,137.6, 0.3, 1,0,0,1024,1024,1024,1024,0,0,0,0,137.3,0,0,95,4.01,4,3.998,4.003,0,0,8.81,52.52,1060.2733521702,9.186352,6,P-GPS,
16700,2025-01-07 00:41:56,0,0,9.186352,,,1060.2733521702,10.498688,0,0,0,0,0,16.019,1060.2733521702,9.186352,0,0,0,0,0,137.6, 0.8, 1,0,0,1024,1024,1024,1024,0,0,0,0,137.3,0,0,95,4.01,4,3.998,4.003,0,0,8.81,52.52,1060.2733521702,9.186352,6,P-GPS,
16900,2025-01-07 00:41:56,0,0,9.186352,,,1060.2733521702,10.498688,0,0,0,0,0,16.019,1060.2733521702,9.186352,0,0,0,0,0,137.5, 1.3, 1.6,0,0,1024,1024,1024,1024,0,0,0,0,137.3,0,0,95,4.01,4,3.998,4.003,0,0,8.81,52.52,1060.2733521702,9.186352,6,P-GPS,
17100,2025-01-07 00:41:56,0,0,9.186352,,,1060.2733521702,10.498688,0,0,0,0,0,16.019,1060.2733521702,9.186352,0,0,0,0,0,137.7, 1.2, 1.2,0,0,1024,1024,1024,1024,0,0,0,0,137.3,0,0,95,4.01,4,3.998,4.003,0,0,8.81,52.52,1060.2733521702,9.186352,6,P-GPS,
17300,2025-01-07 00:41:56,0,0,9.186352,,,1060.2733521702,10.498688,0,0,0,0,0,16.019,1060.2733521702,9.186352,0,0,0,0,0,137.6, 1.3, 0.6,0,0,1024,1024,1024,1024,0,0,0,0,137.3,0,0,95,4.01,4,3.998,4.003,0,0,8.81,52.52,1060.2733521702,9.186352,6,P-GPS,
17500,2025-01-07 00:41:56,0,0,9.186352,,,1060.2733521702,10.498688,0,0,0,0,0,16.017,1060.2733521702,9.186352,0,0,0,0,0,137.6, 1.3, 0.6,0,0,1024,1024,1024,1024,0,0,0,0,137.3,0,0,95,4.003,3.997,3.996,4.002,0,0,8.71,52.52,1060.2733521702,9.186352,6,P-GPS,
17700,2025-01-07 00:41:57,0,0,9.186352,,,1060.2733521702,10.498688,0,0,0,0,0,16.017,1060.2733521702,9.186352,0,0,0,0,0,137.6, 1.5, 1.2,0,0,1095,1024,1024,1024,11,0,0,0,137.3,0,0,95,4.003,3.997,3.996,4.002,0,0,8.71,52.52,1060.2733521702,9.186352,6,P-GPS,
17900,2025-01-07 00:41:57,0,0,9.186352,,,1060.2733521702,10.498688,0,0,0,0,0,16.017,1060.2733521702,9.186352,0,0,0,0,0,137.6, 0.9, 1.3,0,0,1385,1024,1024,1024,55,0,0,0,137.3,0,0,95,4.003,3.997,3.996,4.002,0,0,8.71,52.52,1060.2733521702,9.186352,6,P-GPS,
18100,2025-01-07 00:41:57,0,0,9.186352,,,1060.2733521702,10.498688,0,0,0,0,0,16.017,1060.2733521702,9.186352,0,0,0,0,0,137.5, 0.4, 1.5,0,0,1468,1024,1024,1024,67,0,0,0,137.3,0,0,95,4.003,3.997,3.996,4.002,0,0,8.71,52.52,1060.2733521702,9.186352,6,P-GPS,
18300,2025-01-07 00:41:57,0,0,9.186352,,,1060.2733521702,10.498688,0,0,0,0,0,16.017,1060.2733521702,9.186352,0,0,0,0,0,137.5, -4.9, 1.5,0,0,1441,1024,1024,1024,63,0,0,0,137.3,0,0,95,4.003,3.997,3.996,4.002,0,0,8.71,52.52,1060.2733521702,9.186352,6,P-GPS,
18500,2025-01-07 00:41:57,0,0,9.186352,,,1060.2733521702,10.498688,0.6263432,0,0,0,0,16.015,1060.2733521702,9.186352,0,0,-0.447388,0.447388,0,137.4, -9.6, 1.5,0,0,1419,1024,1024,1024,60,0,0,0,137.3,0,0,95,4.01,4.002,4.004,4.009,0,0,8.737,52.7,1060.2733521702,9.186352,6,P-GPS,
18700,2025-01-07 00:41:58,0,0,9.186352,,,1060.2733521702,10.170604,1.4316416,0,0,0,0,16.015,1060.2733521702,9.186352,0,0,-1.11847,0.894776,0,137.5, -9.4, 0.9,0,0,1386,1024,1024,1024,55,0,0,0,137.3,0,0,95,4.01,4.002,4.004,4.009,0,0,8.737,52.7,1060.2733521702,9.186352,6,P-GPS,
18900,2025-01-07 00:41:58,0,0,9.186352,,,1060.2733521702,10.170604,2.2145706,0,0,0,0,16.015,1060.2733521702,9.186352,0,0,-1.565858,1.565858,0,137.5, -8.5, 0.9,0,0,1369,1024,1024,1024,52,0,0,0,137.3,0,0,95,4.01,4.002,4.004,4.009,0,0,8.737,52.7,1060.2733521702,9.186352,6,P-GPS,
19100,2025-01-07 00:41:58,0,0,9.186352,,,1060.2733521702,10.170604,2.8409138,0,0,0,0,16.015,1060.2733521702,9.186352,0,0,-2.013246,2.013246,0,137.5, -8.1, 1.1,0,0,1337,1024,1024,1024,47,0,0,0,137.3,0,0,95,4.01,4.002,4.004,4.009,0,0,8.737,52.7,1060.2733521702,9.186352,6,P-GPS,
19300,2025-01-07 00:41:58,0,0,9.186352,,,1060.2733521702,10.498688,3.4896264,0,0,0,0,16.015,1060.2733521702,9.186352,0,0,-2.460634,2.460634,0,137.5, -6.4, 0.7,0,0,1264,1024,1024,1024,36,0,0,0,137.3,0,0,95,4.01,4.002,4.004,4.009,0,0,8.737,52.7,1060.2733521702,9.186352,6,P-GPS,
19500,2025-01-07 00:41:58,0,0,9.186352,,,1060.2733521702,10.498688,3.9593838,0,0,0,0,15.995,1060.2733521702,9.186352,0,0,-2.908022,2.684328,0,137.6, -4.5, 1.1,0,0,1024,1024,1024,1024,0,0,0,0,137.3,0,0,95,4.001,3.993,3.992,3.996,0,0,8.681,52.7,1060.2733521702,9.186352,6,P-GPS,
19700,2025-01-07 00:41:59,0,0,9.186352,,,1060.2733521702,10.498688,4.2725554,0,0,0,0,15.995,1060.2733521702,9.186352,0,0,-3.131716,2.908022,0,137.7, -2.6, 1.4,0,0,1024,1024,1024,1024,0,0,0,0,137.3,0,0,95,4.001,3.993,3.992,3.996,0,0,8.681,52.7,1060.2733521702,9.186352,6,P-GPS,
19900,2025-01-07 00:41:59,0,0,9.186352,,,1060.2733521702,10.498688,3.802798,0,0,0,0,15.995,1060.2733521702,9.186352,0,0,-2.684328,2.684328,0,137.7, 18.7, 1,0,0,1024,1024,1179,1024,0,0,23,0,137.3,0,0,95,4.001,3.993,3.992,3.996,0,0,8.681,52.7,1060.2733521702,9.186352,6,P-GPS,
20100,2025-01-07 00:41:59,0,0,9.186352,,,1060.2733521702,10.498688,2.0579848,0,0,0,0,15.995,1060.2733521702,9.186352,0,0,-1.565858,1.342164,0,138.1, 19.7, 1.3,0,0,1024,1024,1246,1024,0,0,34,0,137.3,0,0,95,4.001,3.993,3.992,3.996,0,0,8.681,52.7,1060.2733521702,9.186352,6,P-GPS,
20300,2025-01-07 00:41:59,0,0,9.186352,,,1060.2733521702,10.498688,0.6263432,0,0,0,0,15.995,1060.2733521702,9.186352,0,0,-0.447388,0.447388,-0.671082,137.6, 9.7, 1.8,0,0,1024,1024,1241,1024,0,0,33,0,137.3,0,0,95,4.001,3.993,3.992,3.996,0,0,8.681,52.7,1060.2733521702,9.186352,6,P-GPS,
20500,2025-01-07 00:41:59,0,0,9.514436,,,1060.6014361702,10.826772,0,0,0,0,0,15.989,1060.6014361702,9.514436,0,0,0,0,-1.11847,137.4, 4.1, 2,0,0,1024,1024,1024,1024,0,0,0,0,137.3,0,0,95,3.962,3.945,3.945,3.953,0,0,8.915,52.7,1060.6014361702,9.514436,6,P-GPS,
20700,2025-01-07 00:42:00,0,0,9.84252,,,1060.9295201702,11.48294,0,0,0,0,0,15.989,1060.9295201702,9.84252,0,0,0,0,-1.11847,137.6, 2.1, 2,0,0,1024,1024,1024,1024,0,0,0,0,137.3,0,0,95,3.962,3.945,3.945,3.953,0,0,8.915,52.7,1060.9295201702,9.84252,6,P-GPS,
20900,2025-01-07 00:42:00,0,0,10.170604,,,1061.2576041702,11.811024,0,0,0,0,0,15.989,1061.2576041702,10.170604,0,0,0,0,-0.447388,137.6, 1.4, 2.2,0,0,1024,1024,1024,1024,0,0,0,0,137.3,0,0,95,3.962,3.945,3.945,3.953,0,0,8.915,52.7,1061.2576041702,10.170604,6,P-GPS,
21100,2025-01-07 00:42:00,0,0,10.170604,,,1061.2576041702,11.811024,0,0,0,0,0,15.989,1061.2576041702,10.170604,0,0,0,0,0,137.6, 1.1, 1.5,0,0,1024,1024,1024,1024,0,0,0,0,137.3,0,0,95,3.962,3.945,3.945,3.953,0,0,8.915,52.7,1061.2576041702,10.170604,6,P-GPS,
21300,2025-01-07 00:42:00,0,0,10.170604,,,1061.2576041702,11.811024,0,0,0,0,0,15.989,1061.2576041702,10.170604,0,0,0,0,0,137.6, 2.2, 1.2,0,0,1024,1024,1024,1024,0,0,0,0,137.3,0,0,95,3.962,3.945,3.945,3.953,0,0,8.915,52.7,1061.2576041702,10.170604,6,P-GPS,
21500,2025-01-07 00:42:00,0,0,10.170604,,,1061.2576041702,11.811024,0,0,0,0,0,16.097,1061.2576041702,10.170604,0,0,0,0,0,137.7, 2.6, 1.1,0,0,1024,1024,1024,1024,0,0,0,0,137.3,0,0,95,4.008,4.001,4,4.005,0,0,9.197,52.88,1061.2576041702,10.170604,6,P-GPS,
21700,2025-01-07 00:42:01,0,0,10.170604,,,1061.2576041702,11.811024,0,0,0,0,0,16.097,1061.2576041702,10.170604,0,0,0,0,0,137.5, 2.5, 1.1,0,0,1024,1024,1067,1024,0,0,7,0,137.3,0,0,95,4.008,4.001,4,4.005,0,0,9.197,52.88,1061.2576041702,10.170604,6,P-GPS,
21900,2025-01-07 00:42:01,0,0,10.170604,,,1061.2576041702,11.811024,0,0,0,0,0,16.097,1061.2576041702,10.170604,0,0,0,0,0,137.4, 1.6, 1.9,0,0,1024,1024,1024,1024,0,0,0,0,137.3,0,0,95,4.008,4.001,4,4.005,0,0,9.197,52.88,1061.2576041702,10.170604,6,P-GPS,
22100,2025-01-07 00:42:01,0,0,10.170604,,,1061.2576041702,11.811024,0,0,0,0,0,16.097,1061.2576041702,10.170604,0,0,0,0,0,137.4, 0.6, 2.3,0,0,1024,1024,1024,1024,0,0,0,0,137.3,0,0,95,4.008,4.001,4,4.005,0,0,9.197,52.88,1061.2576041702,10.170604,6,P-GPS,
22300,2025-01-07 00:42:01,0,0,10.170604,,,1061.2576041702,11.811024,0,0,0,0,0,16.097,1061.2576041702,10.170604,0,0,0,0,0,137.7, 0, 2.1,0,0,1024,1024,1024,1024,0,0,0,0,137.3,0,0,95,4.008,4.001,4,4.005,0,0,9.197,52.88,1061.2576041702,10.170604,6,P-GPS,
22500,2025-01-07 00:42:01,0,0,10.170604,,,1061.2576041702,11.811024,0,0,0,0,0,15.976,1061.2576041702,10.170604,0,0,0,0,0,137.5, 0.3, 1.9,0,0,1024,1024,1054,1024,0,0,5,0,137.3,0,0,95,4.007,3.998,3.997,4.002,0,0,8.654,53.06,1061.2576041702,10.170604,6,P-GPS,
22700,2025-01-07 00:42:02,0,0,10.170604,,,1061.2576041702,11.811024,0,0,0,0,0,15.976,1061.2576041702,10.170604,0,0,0,0,0,137.6, 1.7, 2.1,0,0,1024,1024,1129,1024,0,0,16,0,137.3,0,0,95,4.007,3.998,3.997,4.002,0,0,8.654,53.06,1061.2576041702,10.170604,6,P-GPS,
22900,2025-01-07 00:42:02,0,0,10.170604,,,1061.2576041702,11.811024,0,0,0,0,0,15.976,1061.2576041702,10.170604,0,0,0,0,0,137.7, 1.7, 2.1,0,0,1024,1024,1291,1024,0,0,40,0,137.3,0,0,95,4.007,3.998,3.997,4.002,0,0,8.654,53.06,1061.2576041702,10.170604,6,P-GPS,
23100,2025-01-07 00:42:02,0,0,10.170604,,,1061.2576041702,11.811024,0,0,0,0,0,15.976,1061.2576041702,10.170604,0,0,0,0,-0.223694,137.7, 1.5, 1.4,0,0,1024,1024,1302,1024,0,0,42,0,137.3,0,0,95,4.007,3.998,3.997,4.002,0,0,8.654,53.06,1061.2576041702,10.170604,6,P-GPS,
23300,2025-01-07 00:42:02,0,0,10.498688,,,1061.5856881702,11.811024,0,0,0,0,0,15.976,1061.5856881702,10.498688,0,0,0,0,-0.894776,137.9, 1.8, 1.1,0,0,1024,1024,1317,1024,0,0,44,0,137.3,0,0,95,4.007,3.998,3.997,4.002,0,0,8.654,53.06,1061.5856881702,10.498688,6,P-GPS,
23500,2025-01-07 00:42:02,0,0,10.826772,,,1061.9137721702,12.467192,0,0,0,0,0,15.973,1061.9137721702,10.826772,0,0,0,0,-2.013246,137.6, 2.2, 2.2,0,0,1024,1024,1345,1024,0,0,49,0,137.3,0,0,95,3.949,3.924,3.914,3.925,0,0,8.722,53.24,1061.9137721702,10.826772,6,P-GPS,
23700,2025-01-07 00:42:03,0,0,11.811024,,,1062.8980241702,13.12336,0,0,0,0,0,15.973,1062.8980241702,11.811024,0,0,0,0,-2.460634,137.9, 2.4, 4.1,0,0,1024,1024,1313,1024,0,0,44,0,137.3,0,0,95,3.949,3.924,3.914,3.925,0,0,8.722,53.24,1062.8980241702,11.811024,6,P-GPS,
23900,2025-01-07 00:42:03,0,0,12.467192,,,1063.5541921702,13.779528,0,0,0,0,0,15.973,1063.5541921702,12.467192,0,0,0,0,-2.684328,137.8, 1, 3.7,0,0,1024,1024,1318,1024,0,0,45,0,137.3,0,0,95,3.949,3.924,3.914,3.925,0,0,8.722,53.24,1063.5541921702,12.467192,6,P-GPS,
24100,2025-01-07 00:42:03,0,0,13.451444,,,1064.5384441702,14.76378,0,0,0,0,0,15.973,1064.5384441702,13.451444,0,0,0,0,-2.460634,137.9, 0.3, 1.7,0,0,1024,1024,1308,1024,0,0,43,0,137.3,0,0,95,3.949,3.924,3.914,3.925,0,0,8.722,53.24,1064.5384441702,13.451444,6,P-GPS,
24300,2025-01-07 00:42:03,0,0,14.107612,,,1065.1946121702,15.419948,0,0,0,0,0,15.973,1065.1946121702,14.107612,0,0,0,0,-2.460634,137.4, 1.3, 0.7,0,0,1024,1024,1304,1024,0,0,42,0,137.3,0,0,95,3.949,3.924,3.914,3.925,0,0,8.722,53.24,1065.1946121702,14.107612,6,P-GPS,
24500,2025-01-07 00:42:03,0,0,14.76378,,,1065.8507801702,16.076116,0,0,0,0,0,15.788,1065.8507801702,14.76378,0,0,0,0,-2.23694,137.6, 2.3, 1.1,0,0,1024,1024,1314,1024,0,0,44,0,137.3,0,0,95,3.989,3.981,3.977,3.987,0,0,10.751,53.24,1065.8507801702,14.76378,6,P-GPS,
24700,2025-01-07 00:42:04,0,0,15.419948,,,1066.5069481702,17.060368,0,0,0,0,0,15.788,1066.5069481702,15.419948,0,0,0,0,-2.23694,137.5, 2.1, 0.8,0,0,1024,1024,1312,1024,0,0,44,0,137.3,0,0,95,3.989,3.981,3.977,3.987,0,0,10.751,53.24,1066.5069481702,15.419948,6,P-GPS,
24900,2025-01-07 00:42:04,0,0,16.4042,,,1067.4912001702,17.716536,0,0,0,0,0,15.788,1067.4912001702,16.4042,0,0,0,0,-2.23694,137.5, 1.5, 1,0,0,1024,1024,1312,1024,0,0,44,0,137.3,0,0,95,3.989,3.981,3.977,3.987,0,0,10.751,53.24,1067.4912001702,16.4042,6,P-GPS,
25100,2025-01-07 00:42:04,0,0,17.060368,,,1068.1473681702,18.372704,0,0,0,0,0,15.788,1068.1473681702,17.060368,0,0,0,0,-2.460634,137.7, 1.5, 1.2,0,0,1024,1024,1308,1024,0,0,43,0,137.3,0,0,95,3.989,3.981,3.977,3.987,0,0,10.751,53.24,1068.1473681702,17.060368,6,P-GPS,
25300,2025-01-07 00:42:04,0,0,18.372704,,,1069.4597041702,19.028872,0,0,0,0,0,15.788,1069.4597041702,18.372704,0,0,0,0,-2.460634,137.5, 1.6, 1.1,0,0,1024,1024,1312,1024,0,0,44,0,137.3,0,0,95,3.989,3.981,3.977,3.987,0,0,10.751,53.24,1069.4597041702,18.372704,6,P-GPS,
25500,2025-01-07 00:42:04,0,0,19.028872,,,1070.1158721702,19.68504,0,0,0,0,0,15.909,1070.1158721702,19.028872,0,0,0,0,-2.23694,137.4, 1.7, 2,0,0,1024,1024,1310,1024,0,0,43,0,137.3,0,0,95,3.985,3.978,3.98,3.985,0,0,9.035,53.42,1070.1158721702,19.028872,6,P-GPS,
25700,2025-01-07 00:42:05,0,0,19.68504,,,1070.7720401702,20.341208,0,0,0,0,0,15.909,1070.7720401702,19.68504,0,0,0,0,-2.23694,137.7, 2.2, 2.7,0,0,1024,1024,1288,1024,0,0,40,0,137.3,0,0,95,3.985,3.978,3.98,3.985,0,0,9.035,53.42,1070.7720401702,19.68504,6,P-GPS,
25900,2025-01-07 00:42:05,0,0,20.013124,,,1071.1001241702,20.997376,0,0,0,0,0,15.909,1071.1001241702,20.013124,0,0,0,0,-2.23694,137.8, 1.8, 1.6,0,0,1024,1024,1024,1024,0,0,0,0,137.3,0,0,95,3.985,3.978,3.98,3.985,0,0,9.035,53.42,1071.1001241702,20.013124,6,P-GPS,
26100,2025-01-07 00:42:05,0,0,20.341208,,,1071.4282081702,21.653544,0,0,0,0,0,15.909,1071.4282081702,20.341208,0,0,0,0,-1.565858,137.7, 1.7, 2.2,0,0,1024,1024,1024,1024,0,0,0,0,137.3,0,0,95,3.985,3.978,3.98,3.985,0,0,9.035,53.42,1071.4282081702,20.341208,6,P-GPS,
26300,2025-01-07 00:42:05,0,0,20.669292,,,1071.7562921702,21.981628,0,0,0,0,0,15.909,1071.7562921702,20.669292,0,0,0,0,-0.447388,137.7, 2.1, 3.6,0,0,1012,1265,1024,1024,-2,37,0,0,137.3,0,0,95,3.985,3.978,3.98,3.985,0,0,9.035,53.42,1071.7562921702,20.669292,6,P-GPS,
26500,2025-01-07 00:42:05,0,0,20.669292,,,1071.7562921702,21.981628,0,0,0,0,0,15.922,1071.7562921702,20.669292,0,0,0,0,0,138.1, 0.9, 3.6,0,0,1010,1265,1024,1024,-2,37,0,0,137.3,0,0,95,4.057,4.035,4.027,4.025,0,0,9.106,53.6,1071.7562921702,20.669292,6,P-GPS,
26700,2025-01-07 00:42:06,0,0,20.669292,,,1071.7562921702,21.981628,0,0,0,0,0,15.922,1071.7562921702,20.669292,0,0,0,0,0,137.8, 2.2, 4.9,0,0,1011,1353,1024,1024,-2,50,0,0,137.3,0,0,95,4.057,4.035,4.027,4.025,0,0,9.106,53.6,1071.7562921702,20.669292,6,P-GPS,
26900,2025-01-07 00:42:06,0,0,20.669292,,,1071.7562921702,21.981628,0,0,0,0,0,15.922,1071.7562921702,20.669292,0,0,0,0,0,137.8, 1.6, 8.4,0,0,1007,1480,1024,1024,-3,69,0,0,137.3,0,0,95,4.057,4.035,4.027,4.025,0,0,9.106,53.6,1071.7562921702,20.669292,6,P-GPS,
27100,2025-01-07 00:42:06,0,0,20.669292,,,1071.7562921702,21.981628,0.6263432,0,0,0,0,15.922,1071.7562921702,20.669292,0,0,-0.447388,-0.447388,0,138.1, 1.7, 11.3,0,0,1011,1553,1024,1024,-2,80,0,0,137.3,0,0,95,4.057,4.035,4.027,4.025,0,0,9.106,53.6,1071.7562921702,20.669292,6,P-GPS,
27300,2025-01-07 00:42:06,0,0,20.669292,,,1071.7562921702,21.981628,1.2750558,0,0,0,0,15.922,1071.7562921702,20.669292,0,0,-0.894776,-0.894776,0,137.8, 1.7, 14.8,0,0,1024,1024,1024,1024,0,0,0,0,137.3,0,0,95,4.057,4.035,4.027,4.025,0,0,9.106,53.6,1071.7562921702,20.669292,6,P-GPS,
27500,2025-01-07 00:42:06,0,0,20.997376,,,1072.0843761702,21.981628,2.2145706,0,0,0,0,15.95,1072.0843761702,20.997376,0,0,-1.565858,-1.565858,0,137.6, 2.3, 16.3,0,0,1024,1024,1024,1024,0,0,0,0,137.3,0,0,95,3.991,3.984,3.985,3.99,0,0,7.945,53.6,1072.0843761702,20.997376,6,P-GPS,
27700,2025-01-07 00:42:07,0,0,20.997376,,,1072.0843761702,21.981628,2.684328,0,0,0,0,15.95,1072.0843761702,20.997376,0,0,-1.789552,-2.013246,0,138.1, 2.4, -3.6,0,0,1024,1024,1024,1024,0,0,0,0,137.3,0,0,95,3.991,3.984,3.985,3.99,0,0,7.945,53.6,1072.0843761702,20.997376,6,P-GPS,
27900,2025-01-07 00:42:07,0,0,20.997376,,,1072.0843761702,21.981628,1.7448132,0,0,0,0,15.95,1072.0843761702,20.997376,0,0,-1.11847,-1.342164,0,137.4, 2.3, -11.9,0,0,1024,1024,1024,1200,0,0,0,27,137.4,0,0,95,3.991,3.984,3.985,3.99,0,0,7.945,53.6,1072.0843761702,20.997376,6,P-GPS,
28100,2025-01-07 00:42:07,0,0,20.997376,,,1072.0843761702,21.981628,0.6263432,0,0,0,0,15.95,1072.0843761702,20.997376,0,0,-0.447388,-0.447388,0,137.6, 1.7, -6.4,0,0,1024,1024,1024,1557,0,0,0,81,138.9,0,0,95,3.991,3.984,3.985,3.99,0,0,7.945,53.6,1072.0843761702,20.997376,6,P-GPS,
28300,2025-01-07 00:42:07,0,0,20.997376,,,1072.0843761702,21.981628,0.223694,0,0,0,0,15.95,1072.0843761702,20.997376,0,0,0,-0.223694,0,137.4, 2, -0.9,0,0,1024,1024,1024,1684,0,0,0,100,145.6,0,0,95,3.991,3.984,3.985,3.99,0,0,7.945,53.6,1072.0843761702,20.997376,6,P-GPS,
28500,2025-01-07 00:42:07,0,0,20.997376,,,1072.0843761702,21.981628,0.223694,0,0,0,0,15.984,1072.0843761702,20.997376,0,0,0,-0.223694,0,143.6, 1.5, 0.4,0,0,1024,1024,1024,1684,0,0,0,100,156,0,0,95,3.985,3.977,3.978,3.984,0,0,8.834,53.78,1072.0843761702,20.997376,6,P-GPS,
28700,2025-01-07 00:42:08,0,0,20.997376,,,1072.0843761702,21.981628,0,0,0,0,0,15.984,1072.0843761702,20.997376,0,0,0,0,0,153.6, 1.7, 1,0,0,1024,1024,1024,1684,0,0,0,100,167.9,0,0,95,3.985,3.977,3.978,3.984,0,0,8.834,53.78,1072.0843761702,20.997376,6,P-GPS,
28900,2025-01-07 00:42:08,0,0,20.997376,,,1072.0843761702,21.981628,0,0,0,0,0,15.984,1072.0843761702,20.997376,0,0,0,0,0,165.6, 1.8, 0.8,0,0,1024,1024,1024,1684,0,0,0,100,179.9,0,0,95,3.985,3.977,3.978,3.984,0,0,8.834,53.78,1072.0843761702,20.997376,6,P-GPS,
29100,2025-01-07 00:42:08,0,0,20.997376,,,1072.0843761702,21.981628,0,0,0,0,0,15.984,1072.0843761702,20.997376,0,0,0,0,0,177.6, 1.2, 2.1,0,0,1024,1024,1024,1684,0,0,0,100,191.9,0,0,95,3.985,3.977,3.978,3.984,0,0,8.834,53.78,1072.0843761702,20.997376,6,P-GPS,
29300,2025-01-07 00:42:08,0,0,20.997376,,,1072.0843761702,21.981628,0,0,0,0,0,15.984,1072.0843761702,20.997376,0,0,0,0,0,190, -0.2, 1.9,0,0,1024,1024,1024,1684,0,0,0,100,203.9,0,0,95,3.985,3.977,3.978,3.984,0,0,8.834,53.78,1072.0843761702,20.997376,6,P-GPS,
29500,2025-01-07 00:42:08,0,0,20.997376,,,1072.0843761702,22.309712,0,0,0,0,0,15.921,1072.0843761702,20.997376,0,0,0,0,0,201.8, -0.4, 1.8,0,0,1024,1024,1024,1684,0,0,0,100,215.9,0,0,94,3.995,3.989,3.988,3.997,0,0,9.25,53.96,1072.0843761702,20.997376,6,P-GPS,
29700,2025-01-07 00:42:09,0,0,20.997376,,,1072.0843761702,22.309712,0,0,0,0,0,15.921,1072.0843761702,20.997376,0,0,0,0,0,213.7, -0.7, 1,0,0,1024,1024,1024,1684,0,0,0,100,227.9,0,0,94,3.995,3.989,3.988,3.997,0,0,9.25,53.96,1072.0843761702,20.997376,6,P-GPS,
29900,2025-01-07 00:42:09,0,0,20.997376,,,1072.0843761702,22.309712,0,0,0,0,0,15.921,1072.0843761702,20.997376,0,0,0,0,0,225.9, -0.8, 0.5,0,0,1024,1024,1024,1684,0,0,0,100,239.9,0,0,94,3.995,3.989,3.988,3.997,0,0,9.25,53.96,1072.0843761702,20.997376,6,P-GPS,
30100,2025-01-07 00:42:09,0,0,20.997376,,,1072.0843761702,21.981628,0,0,0,0,0,15.921,1072.0843761702,20.997376,0,0,0,0,0,237.7, -1.2, 0.7,0,0,1024,1024,1024,1684,0,0,0,100,251.9,0,0,94,3.995,3.989,3.988,3.997,0,0,9.25,53.96,1072.0843761702,20.997376,6,P-GPS,
30300,2025-01-07 00:42:09,0,0,20.997376,,,1072.0843761702,21.981628,0,0,0,0,0,15.921,1072.0843761702,20.997376,0,0,0,0,0,249.9, -1.7, 0.6,0,0,1024,1024,1024,1684,0,0,0,100,263.9,0,0,94,3.995,3.989,3.988,3.997,0,0,9.25,53.96,1072.0843761702,20.997376,6,P-GPS,
30500,2025-01-07 00:42:09,0,0,20.997376,,,1072.0843761702,21.981628,0,0,0,0,0,15.959,1072.0843761702,20.997376,0,0,0,0,0,262, -1.8, 0.2,0,0,1024,1024,1024,1367,0,0,0,52,275.8,0,0,94,4.002,3.995,3.996,4,0,0,8.604,53.96,1072.0843761702,20.997376,6,P-GPS,
30700,2025-01-07 00:42:10,0,0,20.997376,,,1072.0843761702,21.981628,0,0,0,0,0,15.959,1072.0843761702,20.997376,0,0,0,0,0,274, -2.1, 0.3,0,0,1024,1024,1024,1024,0,0,0,0,280.7,0,0,94,4.002,3.995,3.996,4,0,0,8.604,53.96,1072.0843761702,20.997376,6,P-GPS,
30900,2025-01-07 00:42:10,0,0,20.997376,,,1072.0843761702,21.981628,0,0,0,0,0,15.959,1072.0843761702,20.997376,0,0,0,0,0,282, -1.9, 0.4,0,0,1024,1024,1024,1684,0,0,0,100,280.9,0,0,94,4.002,3.995,3.996,4,0,0,8.604,53.96,1072.0843761702,20.997376,6,P-GPS,
31100,2025-01-07 00:42:10,0,0,20.997376,,,1072.0843761702,21.981628,0,0,0,0,0,15.959,1072.0843761702,20.997376,0,0,0,0,0,281, -1.9, 0.5,0,0,1024,1024,1024,1509,0,0,0,73,287.2,0,0,94,4.002,3.995,3.996,4,0,0,8.604,53.96,1072.0843761702,20.997376,6,P-GPS,
31300,2025-01-07 00:42:10,0,0,20.669292,,,1071.7562921702,22.309712,0,0,0,0,0,15.959,1072.0843761702,20.997376,0,0,0,0,0,284.4, -1.3, -0.4,0,0,1024,1024,1024,1024,0,0,0,0,290.1,0,0,94,4.002,3.995,3.996,4,0,0,8.604,53.96,1071.7562921702,20.669292,6,P-GPS,
31500,2025-01-07 00:42:10,0,0,20.997376,,,1072.0843761702,22.309712,0,0,0,0,0,15.971,1072.0843761702,20.997376,0,0,0,0,0,291.5, -1.1, 0,0,0,1024,1024,1024,1045,0,0,0,3,290.1,0,0,94,3.991,3.984,3.985,3.99,0,0,8.402,54.14,1072.0843761702,20.997376,6,P-GPS,
31700,2025-01-07 00:42:11,0,0,20.997376,,,1072.0843761702,21.981628,0,0,0,0,0,15.971,1072.0843761702,20.997376,0,0,0,0,0,290.1, -1.2, 0.1,0,0,1024,1024,1024,1456,0,0,0,65,291.7,0,0,94,3.991,3.984,3.985,3.99,0,0,8.402,54.14,1072.0843761702,20.997376,6,P-GPS,
31900,2025-01-07 00:42:11,0,0,20.997376,,,1072.0843761702,21.981628,0,0,0,0,0,15.971,1072.0843761702,20.997376,0,0,0,0,0,290.7, -1.6, 0.9,0,0,1024,1024,1024,1024,0,0,0,0,295.7,0,0,94,3.991,3.984,3.985,3.99,0,0,8.402,54.14,1072.0843761702,20.997376,6,P-GPS,
32100,2025-01-07 00:42:11,0,0,20.997376,,,1072.0843761702,21.981628,0,0,0,0,0,15.971,1072.0843761702,20.997376,0,0,0,0,0,295.5, -1.2, 0.7,0,0,1024,839,1024,1024,0,-28,0,0,296,0,0,94,3.991,3.984,3.985,3.99,0,0,8.402,54.14,1072.0843761702,20.997376,6,P-GPS,
32300,2025-01-07 00:42:11,0,0,20.997376,,,1072.0843761702,22.309712,0,0,0,0,0,15.971,1072.0843761702,20.997376,0,0,0,0,0,296.2, -0.4, -0.5,0,0,1024,760,1024,1024,0,-40,0,0,296,0,0,94,3.991,3.984,3.985,3.99,0,0,8.402,54.14,1072.0843761702,20.997376,6,P-GPS,
32500,2025-01-07 00:42:11,0,0,20.997376,,,1072.0843761702,22.309712,0,0,0,0,0,15.978,1072.0843761702,20.997376,0,0,0,0,0,295.8, -1.2, -1.5,0,0,1024,798,1024,1024,0,-34,0,0,296,0,0,94,4,3.993,3.994,3.999,0,0,8.575,54.14,1072.0843761702,20.997376,6,P-GPS,
32700,2025-01-07 00:42:12,0,0,20.997376,,,1072.0843761702,21.981628,0.3131716,0,0,0,0,15.978,1072.0843761702,20.997376,0,0,-0.223694,-0.223694,0,296, -1.6, -4.5,0,0,1024,842,1024,1024,0,-28,0,0,296,0,0,94,4,3.993,3.994,3.999,0,0,8.575,54.14,1072.0843761702,20.997376,6,P-GPS,
32900,2025-01-07 00:42:12,0,0,20.997376,,,1072.0843761702,22.309712,0.7158208,0,0,0,0,15.978,1072.0843761702,20.997376,0,0,-0.671082,-0.223694,0,295.9, -1.7, -2.5,0,0,1024,881,1024,1024,0,-22,0,0,296,0,0,94,4,3.993,3.994,3.999,0,0,8.575,54.14,1072.0843761702,20.997376,6,P-GPS,
33100,2025-01-07 00:42:12,0,0,20.997376,,,1072.0843761702,22.309712,1.006623,0,0,0,0,15.978,1072.0843761702,20.997376,0,0,-0.894776,-0.447388,0,296, -1.6, -1.1,0,0,1024,892,1024,1024,0,-20,0,0,296,0,0,94,4,3.993,3.994,3.999,0,0,8.575,54.14,1072.0843761702,20.997376,6,P-GPS,
33300,2025-01-07 00:42:12,0,0,20.997376,,,1072.0843761702,22.309712,1.006623,0,0,0,0,15.978,1072.0843761702,20.997376,0,0,-0.894776,-0.447388,0,295.9, -1.8, 0.1,0,0,1024,907,1024,1024,0,-18,0,0,296,0,0,94,4,3.993,3.994,3.999,0,0,8.575,54.14,1072.0843761702,20.997376,6,P-GPS,
33500,2025-01-07 00:42:12,0,0,20.997376,,,1072.0843761702,22.309712,1.006623,0,0,0,0,15.991,1072.0843761702,20.997376,0,0,-0.894776,-0.447388,0,296.2, -1.2, 1.1,0,0,1024,927,1024,1024,0,-15,0,0,296,0,0,94,3.996,3.989,3.989,3.993,0,0,8.347,54.32,1072.0843761702,20.997376,6,P-GPS,
33700,2025-01-07 00:42:13,0,0,20.997376,,,1072.0843761702,22.309712,1.006623,0,0,0,0,15.991,1072.0843761702,20.997376,0,0,-0.894776,-0.447388,0,296.2, -1, 1.7,0,0,1024,941,1024,1024,0,-13,0,0,296,0,0,94,3.996,3.989,3.989,3.993,0,0,8.347,54.32,1072.0843761702,20.997376,6,P-GPS,
33900,2025-01-07 00:42:13,0,0,20.997376,,,1072.0843761702,22.309712,1.006623,0,0,0,0,15.991,1072.0843761702,20.997376,0,0,-0.894776,-0.447388,0,296.1, -0.7, 1.3,0,0,1024,956,1024,1024,0,-10,0,0,296,0,0,94,3.996,3.989,3.989,3.993,0,0,8.347,54.32,1072.0843761702,20.997376,6,P-GPS,
34100,2025-01-07 00:42:13,0,0,20.997376,,,1072.0843761702,22.309712,1.006623,0,0,0,0,15.991,1072.0843761702,20.997376,0,0,-0.894776,-0.447388,0,296.4, -0.8, 1,0,0,1024,960,1024,1024,0,-10,0,0,296,0,0,94,3.996,3.989,3.989,3.993,0,0,8.347,54.32,1072.0843761702,20.997376,6,P-GPS,
34300,2025-01-07 00:42:13,0,0,20.997376,,,1072.0843761702,22.309712,1.006623,0,0,0,0,15.991,1072.0843761702,20.997376,0,0,-0.894776,-0.447388,0,296.4, -1.6, 0.7,0,0,1024,958,1024,1024,0,-10,0,0,296,0,0,94,3.996,3.989,3.989,3.993,0,0,8.347,54.32,1072.0843761702,20.997376,6,P-GPS,
34500,2025-01-07 00:42:13,0,0,20.997376,,,1072.0843761702,22.309712,0.8052984,0,0,0,0,15.932,1072.0843761702,20.997376,0,0,-0.671082,-0.447388,0,296.5, -1.7, 0.8,0,0,1024,895,1024,1024,0,-20,0,0,296,0,0,94,4.002,3.995,3.997,4.003,0,0,8.776,54.5,1072.0843761702,20.997376,6,P-GPS,
34700,2025-01-07 00:42:14,0,0,20.997376,,,1072.0843761702,22.309712,0.7158208,0,0,0,0,15.932,1072.0843761702,20.997376,0,0,-0.671082,-0.223694,0,296.5, -1.5, 0.7,0,0,1024,897,1024,1024,0,-19,0,0,296,0,0,94,4.002,3.995,3.997,4.003,0,0,8.776,54.5,1072.0843761702,20.997376,6,P-GPS,
34900,2025-01-07 00:42:14,0,0,20.997376,,,1072.0843761702,22.309712,0.7158208,0,0,0,0,15.932,1072.0843761702,20.997376,0,0,-0.671082,-0.223694,0,296.5, -1.6, 0,0,0,1024,888,1024,1024,0,-21,0,0,296,0,0,94,4.002,3.995,3.997,4.003,0,0,8.776,54.5,1072.0843761702,20.997376,6,P-GPS,
35100,2025-01-07 00:42:14,0,0,20.997376,,,1072.0843761702,22.309712,0.7158208,0,0,0,0,15.932,1072.0843761702,20.997376,0,0,-0.671082,-0.223694,0,296.3, -1.4, -1.1,0,0,1024,919,1024,1024,0,-16,0,0,296,0,0,94,4.002,3.995,3.997,4.003,0,0,8.776,54.5,1072.0843761702,20.997376,6,P-GPS,
35500,2025-01-07 00:42:15,0,0,20.997376,,,1072.0843761702,22.309712,0.7158208,0,0,0,0,15.999,1072.0843761702,20.997376,0,0,-0.671082,-0.223694,0,296.4, -1.6, -1.3,0,0,1024,1024,1056,1024,0,0,5,0,296,0,0,94,4.001,3.994,3.995,4,0,0,8.135,54.5,1072.0843761702,20.997376,6,P-GPS,
35700,2025-01-07 00:42:15,0,0,20.997376,,,1072.0843761702,22.309712,0.8052984,0,0,0,0,15.999,1072.0843761702,20.997376,0,0,-0.671082,-0.447388,0,296.3, -1.6, -1.5,0,0,1024,1024,1199,1024,0,0,27,0,296,0,0,94,4.001,3.994,3.995,4,0,0,8.135,54.5,1072.0843761702,20.997376,6,P-GPS,
35900,2025-01-07 00:42:15,0,0,20.997376,,,1072.0843761702,22.309712,0.7158208,0,0,0,0,15.999,1072.0843761702,20.997376,0,0,-0.671082,-0.223694,0,296.1, -1.2, 3.2,0,0,1024,1024,1238,1024,0,0,32,0,296,0,0,94,4.001,3.994,3.995,4,0,0,8.135,54.5,1072.0843761702,20.997376,6,P-GPS,
36100,2025-01-07 00:42:15,0,0,21.32546,,,1072.4124601702,22.637796,0.3131716,0,0,0,0,15.999,1072.4124601702,21.32546,0,0,-0.223694,-0.223694,-0.447388,296.3, -1, 3,0,0,1024,1024,1266,1024,0,0,37,0,296,0,0,94,4.001,3.994,3.995,4,0,0,8.135,54.5,1072.4124601702,21.32546,6,P-GPS,
36300,2025-01-07 00:42:15,0,0,21.32546,,,1072.4124601702,22.637796,0,0,0,0,0,15.999,1072.4124601702,21.32546,0,0,0,0,-1.11847,296.2, -1, 1,0,0,1024,1024,1259,1024,0,0,36,0,296,0,0,94,4.001,3.994,3.995,4,0,0,8.135,54.5,1072.4124601702,21.32546,6,P-GPS,
36500,2025-01-07 00:42:15,0,0,21.981628,,,1073.0686281702,23.293964,0,0,0,0,0,15.985,1073.0686281702,21.981628,0,0,0,0,-1.342164,296.3, -1.3, 0.1,0,0,1024,1024,1246,1024,0,0,34,0,296,0,0,94,3.967,3.964,3.964,3.971,0,0,8.315,54.5,1073.0686281702,21.981628,6,P-GPS,
36700,2025-01-07 00:42:16,0,0,22.309712,,,1073.3967121702,23.622048,0,0,0,0,0,15.985,1073.3967121702,22.309712,0,0,0,0,-1.342164,296.3, -1.1, 0.9,0,0,1024,1024,1244,1024,0,0,33,0,296,0,0,94,3.967,3.964,3.964,3.971,0,0,8.315,54.5,1073.3967121702,22.309712,6,P-GPS,
36900,2025-01-07 00:42:16,0,0,22.637796,,,1073.7247961702,24.278216,0,0,0,0,0,15.985,1073.7247961702,22.637796,0,0,0,0,-1.342164,296.5, -1.2, 0.6,0,0,1024,1024,1253,1024,0,0,35,0,296,0,0,94,3.967,3.964,3.964,3.971,0,0,8.315,54.5,1073.7247961702,22.637796,6,P-GPS,
37100,2025-01-07 00:42:16,0,0,23.293964,,,1074.3809641702,24.6063,0,0,0,0,0,15.985,1074.3809641702,23.293964,0,0,0,0,-1.342164,296.4, -1, 0,0,0,1024,1024,1137,1024,0,0,17,0,296,0,0,94,3.967,3.964,3.964,3.971,0,0,8.315,54.5,1074.3809641702,23.293964,6,P-GPS,
37300,2025-01-07 00:42:16,0,0,23.622048,,,1074.7090481702,24.934384,0,0,0,0,0,15.985,1074.7090481702,23.622048,0,0,0,0,-1.342164,296.5, -1.6, 0.4,0,0,1024,1024,1024,1024,0,0,0,0,296,0,0,94,3.967,3.964,3.964,3.971,0,0,8.315,54.5,1074.7090481702,23.622048,6,P-GPS,
37500,2025-01-07 00:42:17,0,0,23.950132,,,1075.0371321702,25.262468,0,0,0,0,0,15.985,1075.0371321702,23.950132,0,0,0,0,-0.894776,296.3, -2.2, -0.1,0,0,1024,886,1024,1024,0,-21,0,0,296,0,0,94,3.997,3.986,3.985,3.991,0,0,9.077,54.68,1075.0371321702,23.950132,6,P-GPS,
37700,2025-01-07 00:42:17,0,0,23.950132,,,1075.0371321702,25.590552,0,0,0,0,0,15.985,1075.0371321702,23.950132,0,0,0,0,0,296.2, -1.8, -0.8,0,0,1024,655,1024,1024,0,-56,0,0,296,0,0,94,3.997,3.986,3.985,3.991,0,0,9.077,54.68,1075.0371321702,23.950132,6,P-GPS,
37900,2025-01-07 00:42:17,0,0,23.950132,,,1075.0371321702,25.590552,0,0,0,0,0,15.985,1075.0371321702,23.950132,0,0,0,0,0,296.6, -1.9, -2.8,0,0,1024,672,1024,1024,0,-53,0,0,296,0,0,94,3.997,3.986,3.985,3.991,0,0,9.077,54.68,1075.0371321702,23.950132,6,P-GPS,
38100,2025-01-07 00:42:17,0,0,23.950132,,,1075.0371321702,25.590552,0.223694,0,0,0,0,15.985,1075.0371321702,23.950132,0,0,-0.223694,0,0,296.6, -1.9, -8.5,0,0,1024,697,1024,1024,0,-50,0,0,296,0,0,94,3.997,3.986,3.985,3.991,0,0,9.077,54.68,1075.0371321702,23.950132,6,P-GPS,
38300,2025-01-07 00:42:17,0,0,23.950132,,,1075.0371321702,25.590552,1.006623,0,0,0,0,15.985,1075.0371321702,23.950132,0,0,-0.894776,-0.447388,0,295.9, -2, -11,0,0,1024,756,1024,1024,0,-41,0,0,296,0,0,94,3.997,3.986,3.985,3.991,0,0,9.077,54.68,1075.0371321702,23.950132,6,P-GPS,
38500,2025-01-07 00:42:17,0,0,23.950132,,,1075.0371321702,25.918636,1.7000744,0,0,0,0,16.039,1075.0371321702,23.950132,0,0,-1.565858,-0.671082,0,295.9, -1.8, -9.7,0,0,1024,764,1024,1024,0,-39,0,0,296,0,0,94,3.996,3.988,3.989,3.993,0,0,7.835,54.86,1075.0371321702,23.950132,6,P-GPS,
38700,2025-01-07 00:42:18,0,0,23.950132,,,1075.0371321702,25.590552,2.1922012,0,0,0,0,16.039,1075.0371321702,23.950132,0,0,-2.013246,-0.894776,0,295.8, -1.7, -7.4,0,0,1024,804,1024,1024,0,-33,0,0,296,0,0,94,3.996,3.988,3.989,3.993,0,0,7.835,54.86,1075.0371321702,23.950132,6,P-GPS,
38900,2025-01-07 00:42:18,0,0,23.950132,,,1075.0371321702,25.590552,2.5053728,0,0,0,0,16.039,1075.0371321702,23.950132,0,0,-2.23694,-1.11847,0,295.9, -1.4, -6.1,0,0,1024,812,1024,1024,0,-32,0,0,296,0,0,94,3.996,3.988,3.989,3.993,0,0,7.835,54.86,1075.0371321702,23.950132,6,P-GPS,
39100,2025-01-07 00:42:18,0,0,24.278216,,,1075.3652161702,25.590552,2.7066974,0,0,0,0,16.039,1075.3652161702,24.278216,0,0,-2.460634,-1.11847,0,296.1, -1.5, -5.1,0,0,1024,825,1024,1024,0,-30,0,0,296,0,0,94,3.996,3.988,3.989,3.993,0,0,7.835,54.86,1075.3652161702,24.278216,6,P-GPS,
39300,2025-01-07 00:42:18,0,0,24.278216,,,1075.3652161702,25.590552,2.908022,0,0,0,0,16.039,1075.3652161702,24.278216,0,0,-2.684328,-1.11847,0,296.2, -1.6, -4.3,0,0,1024,842,1024,1024,0,-28,0,0,296,0,0,94,3.996,3.988,3.989,3.993,0,0,7.835,54.86,1075.3652161702,24.278216,6,P-GPS,
39500,2025-01-07 00:42:18,0,0,24.278216,,,1075.3652161702,25.590552,2.9974996,0,0,0,0,15.977,1075.3652161702,24.278216,0,0,-2.684328,-1.342164,0,296.3, -1.8, -3.7,0,0,1024,860,1024,1024,0,-25,0,0,296,0,0,94,3.996,3.989,3.99,3.997,0,0,8.426,54.86,1075.3652161702,24.278216,6,P-GPS,
39700,2025-01-07 00:42:19,0,0,24.278216,,,1075.3652161702,25.590552,2.908022,0,0,0,0,15.977,1075.3652161702,24.278216,0,0,-2.684328,-1.11847,0,296.4, -2, -3.6,0,0,1024,888,1024,1024,0,-21,0,0,296,0,0,94,3.996,3.989,3.99,3.997,0,0,8.426,54.86,1075.3652161702,24.278216,6,P-GPS,
39900,2025-01-07 00:42:19,0,0,24.278216,,,1075.3652161702,25.590552,3.1988242,0,0,0,0,15.977,1075.3652161702,24.278216,0,0,-2.908022,-1.342164,0,296.3, -2.1, -2,0,0,1024,921,1024,1024,0,-16,0,0,296,0,0,94,3.996,3.989,3.99,3.997,0,0,8.426,54.86,1075.3652161702,24.278216,6,P-GPS,
40100,2025-01-07 00:42:19,0,0,24.278216,,,1075.3652161702,25.590552,3.1093466,0,0,0,0,15.977,1075.3652161702,24.278216,0,0,-2.908022,-1.11847,0,296.3, -2.9, -0.7,0,0,1024,1024,1024,1024,0,0,0,0,296,0,0,94,3.996,3.989,3.99,3.997,0,0,8.426,54.86,1075.3652161702,24.278216,6,P-GPS,
40300,2025-01-07 00:42:19,0,0,24.278216,,,1075.3652161702,25.590552,2.908022,0,0,0,0,15.977,1075.3652161702,24.278216,0,0,-2.684328,-1.11847,0,295.9, -3, 10.2,0,0,1024,1024,1024,1024,0,0,0,0,296,0,0,94,3.996,3.989,3.99,3.997,0,0,8.426,54.86,1075.3652161702,24.278216,6,P-GPS,
40500,2025-01-07 00:42:19,0,0,24.278216,,,1075.3652161702,25.590552,1.7000744,0,0,0,0,15.956,1075.3652161702,24.278216,0,0,-1.565858,-0.671082,0,296.9, -3, 13.6,0,0,1024,1024,1024,1024,0,0,0,0,296,0,0,94,3.999,3.99,3.986,3.99,0,0,8.439,55.04,1075.3652161702,24.278216,6,P-GPS,
40700,2025-01-07 00:42:20,0,0,23.950132,,,1075.0371321702,24.934384,0.7158208,0,0,0,0,15.956,1075.3652161702,24.278216,0,0,-0.671082,-0.223694,0,297.5, -3, 7.5,0,0,1024,1024,1024,1024,0,0,0,0,296,0,0,94,3.999,3.99,3.986,3.99,0,0,8.439,55.04,1075.0371321702,23.950132,6,P-GPS,
40900,2025-01-07 00:42:20,0,0,23.950132,,,1075.0371321702,24.6063,0.223694,0,0,0,0,15.956,1075.3652161702,24.278216,0,0,-0.223694,0,0,296.2, -3.6, 2.2,0,0,1024,1024,1024,1024,0,0,0,0,296,0,0,94,3.999,3.99,3.986,3.99,0,0,8.439,55.04,1075.0371321702,23.950132,6,P-GPS,
41100,2025-01-07 00:42:20,0,0,24.278216,,,1075.3652161702,24.934384,0.223694,0,0,0,0,15.956,1075.3652161702,24.278216,0,0,-0.223694,0,0,296, -2.6, 1,0,0,1024,1024,1024,1024,0,0,0,0,296,0,0,94,3.999,3.99,3.986,3.99,0,0,8.439,55.04,1075.3652161702,24.278216,6,P-GPS,
41300,2025-01-07 00:42:20,0,0,24.278216,,,1075.3652161702,25.262468,0.223694,0,0,0,0,15.956,1075.3652161702,24.278216,0,0,-0.223694,0,0,296.1, -2.6, 2.2,0,0,1024,1024,1024,1024,0,0,0,0,296,0,0,94,3.999,3.99,3.986,3.99,0,0,8.439,55.04,1075.3652161702,24.278216,6,P-GPS,
41500,2025-01-07 00:42:20,0,0,23.950132,,,1075.0371321702,25.590552,0.223694,0,0,0,0,15.926,1075.3652161702,24.278216,0,0,-0.223694,0,0,296, -3.3, 3.1,0,0,1024,1024,1024,1024,0,0,0,0,296,0,0,94,3.994,3.987,3.989,3.995,0,0,8.58,55.04,1075.0371321702,23.950132,6,P-GPS,
41700,2025-01-07 00:42:21,0,0,23.950132,,,1075.0371321702,25.590552,0,0,0,0,0,15.926,1075.3652161702,24.278216,0,0,0,0,0,296.2, -3.4, 3.5,0,0,1024,1024,1024,1024,0,0,0,0,296,0,0,94,3.994,3.987,3.989,3.995,0,0,8.58,55.04,1075.0371321702,23.950132,6,P-GPS,
41900,2025-01-07 00:42:21,0,0,23.950132,,,1075.0371321702,25.590552,0,0,0,0,0,15.926,1075.3652161702,24.278216,0,0,0,0,0,296.2, -3.4, 2.4,0,0,1024,1024,1024,1024,0,0,0,0,296,0,0,94,3.994,3.987,3.989,3.995,0,0,8.58,55.04,1075.0371321702,23.950132,6,P-GPS,
42100,2025-01-07 00:42:21,0,0,23.950132,,,1075.0371321702,25.590552,0,0,0,0,0,15.926,1075.3652161702,24.278216,0,0,0,0,0,296.4, -3.4, 1.3,0,0,1024,1024,1024,1024,0,0,0,0,296,0,0,94,3.994,3.987,3.989,3.995,0,0,8.58,55.04,1075.0371321702,23.950132,6,P-GPS,
42300,2025-01-07 00:42:21,0,0,23.950132,,,1075.0371321702,25.590552,0,0,0,0,0,15.926,1075.3652161702,24.278216,0,0,0,0,0,296.4, -3.1, 1.5,0,0,1024,1024,1024,1024,0,0,0,0,296,0,0,94,3.994,3.987,3.989,3.995,0,0,8.58,55.04,1075.0371321702,23.950132,6,P-GPS,
42500,2025-01-07 00:42:21,0,0,23.950132,,,1075.0371321702,25.590552,0,0,0,0,0,15.977,1075.3652161702,24.278216,0,0,0,0,0,296.3, -2.9, 0.8,0,0,1024,1024,1024,1024,0,0,0,0,296,0,0,94,3.995,3.987,3.987,3.993,0,0,8.278,55.22,1075.0371321702,23.950132,6,P-GPS,
42700,2025-01-07 00:42:22,0,0,23.950132,,,1075.0371321702,25.590552,0,0,0,0,0,15.977,1075.3652161702,24.278216,0,0,0,0,0,296.3, -2.5, 0.9,0,0,1024,1024,1024,1024,0,0,0,0,296,0,0,94,3.995,3.987,3.987,3.993,0,0,8.278,55.22,1075.0371321702,23.950132,6,P-GPS,
42900,2025-01-07 00:42:22,0,0,24.278216,,,1075.3652161702,25.918636,0,0,0,0,0,15.977,1075.3652161702,24.278216,0,0,0,0,0,296.2, -2.3, 1.8,0,0,1024,1024,1024,1024,0,0,0,0,296,0,0,94,3.995,3.987,3.987,3.993,0,0,8.278,55.22,1075.3652161702,24.278216,6,P-GPS,
43100,2025-01-07 00:42:22,0,0,24.278216,,,1075.3652161702,25.590552,0,0,0,0,0,15.977,1075.3652161702,24.278216,0,0,0,0,0,296.1, -2.8, 2.1,0,0,1024,1024,1024,1024,0,0,0,0,296,0,0,94,3.995,3.987,3.987,3.993,0,0,8.278,55.22,1075.3652161702,24.278216,6,P-GPS,
43300,2025-01-07 00:42:22,0,0,24.278216,,,1075.3652161702,25.590552,0,0,0,0,0,15.977,1075.3652161702,24.278216,0,0,0,0,0,296.3, -2.5, 1,0,0,1024,1024,1024,1024,0,0,0,0,296,0,0,94,3.995,3.987,3.987,3.993,0,0,8.278,55.22,1075.3652161702,24.278216,6,P-GPS,
43500,2025-01-07 00:42:22,0,0,24.278216,,,1075.3652161702,25.590552,0,0,0,0,0,15.959,1075.3652161702,24.278216,0,0,0,0,0,296.2, -2.1, 1.3,0,0,1024,1024,1024,1024,0,0,0,0,296,0,0,94,3.987,3.979,3.982,3.985,0,0,8.456,55.4,1075.3652161702,24.278216,6,P-GPS,
43700,2025-01-07 00:42:23,0,0,24.278216,,,1075.3652161702,25.590552,0,0,0,0,0,15.959,1075.3652161702,24.278216,0,0,0,0,0,296.3, -1.9, 2,0,0,1024,1024,1024,1024,0,0,0,0,296,0,0,94,3.987,3.979,3.982,3.985,0,0,8.456,55.4,1075.3652161702,24.278216,6,P-GPS,
43900,2025-01-07 00:42:23,0,0,24.278216,,,1075.3652161702,25.918636,0,0,0,0,0,15.959,1075.3652161702,24.278216,0,0,0,0,0,296.4, -1.3, 2.2,0,0,1024,1024,1024,1024,0,0,0,0,296,0,0,94,3.987,3.979,3.982,3.985,0,0,8.456,55.4,1075.3652161702,24.278216,6,P-GPS,
44100,2025-01-07 00:42:23,0,0,24.278216,,,1075.3652161702,25.590552,0,0,0,0,0,15.959,1075.3652161702,24.278216,0,0,0,0,0,296.4, -1.3, 1.4,0,0,1024,1024,1024,1024,0,0,0,0,296,0,0,94,3.987,3.979,3.982,3.985,0,0,8.456,55.4,1075.3652161702,24.278216,6,P-GPS,
44300,2025-01-07 00:42:23,0,0,24.6063,,,1075.6933001702,25.918636,0,0,0,0,0,15.959,1075.6933001702,24.6063,0,0,0,0,0,296.3, -0.9, -0.1,0,0,1024,1024,1024,1024,0,0,0,0,296,0,0,94,3.987,3.979,3.982,3.985,0,0,8.456,55.4,1075.6933001702,24.6063,6,P-GPS,
44500,2025-01-07 00:42:23,0,0,24.6063,,,1075.6933001702,25.918636,0.223694,0,0,0,0,15.918,1075.6933001702,24.6063,0,0,-0.223694,0,0,296.2, -0.9, 2.1,0,0,1024,1024,1024,1024,0,0,0,0,296,0,0,94,3.978,3.97,3.972,3.977,0,0,8.864,55.4,1075.6933001702,24.6063,6,P-GPS,
44700,2025-01-07 00:42:24,0,0,24.6063,,,1075.6933001702,25.918636,0.223694,0,0,0,0,15.918,1075.6933001702,24.6063,0,0,-0.223694,0,0,296.2, -1.9, 3.8,0,0,1024,1024,1024,1024,0,0,0,0,296,0,0,94,3.978,3.97,3.972,3.977,0,0,8.864,55.4,1075.6933001702,24.6063,6,P-GPS,
44900,2025-01-07 00:42:24,0,0,24.6063,,,1075.6933001702,25.918636,0,0,0,0,0,15.918,1075.6933001702,24.6063,0,0,0,0,0,296.3, -2, 3.8,0,0,1024,1024,1024,1024,0,0,0,0,296,0,0,94,3.978,3.97,3.972,3.977,0,0,8.864,55.4,1075.6933001702,24.6063,6,P-GPS,
45100,2025-01-07 00:42:24,0,0,24.6063,,,1075.6933001702,25.918636,0,0,0,0,0,15.918,1075.6933001702,24.6063,0,0,0,0,0,296.3, -2.3, 3.2,0,0,1024,1024,1024,1024,0,0,0,0,296,0,0,94,3.978,3.97,3.972,3.977,0,0,8.864,55.4,1075.6933001702,24.6063,6,P-GPS,
