time(millisecond),datetime(utc),latitude,longitude,height_above_takeoff(feet),height_above_ground_at_drone_location(feet),ground_elevation_at_drone_location(feet),altitude_above_seaLevel(feet),height_sonar(feet),speed(mph),distance(feet),mileage(feet),satellites,gpslevel,voltage(v),max_altitude(feet),max_ascent(feet),max_speed(mph),max_distance(feet), xSpeed(mph), ySpeed(mph), zSpeed(mph), compass_heading(degrees), pitch(degrees), roll(degrees),isPhoto,isVideo,rc_elevator,rc_aileron,rc_throttle,rc_rudder,rc_elevator(percent),rc_aileron(percent),rc_throttle(percent),rc_rudder(percent),gimbal_heading(degrees),gimbal_pitch(degrees),gimbal_roll(degrees),battery_percent,voltageCell1,voltageCell2,voltageCell3,voltageCell4,voltageCell5,voltageCell6,current(A),battery_temperature(f),altitude(feet),ascent(feet),flycStateRaw,flycState,message
100,2025-01-07 02:25:58,0,0,0,Available with any HD 360 subscription,Available with any HD 360 subscription,1052.4244470634,0.328084,0,0,0,14,2,0,1052.4244470634,0,0,0,0,0,0,285, 4.3, 0.4,0,0,1024,1024,1024,1024,0,0,0,0,292,0,0,96,4.236,4.231,4.23,4.227,0,0,0,64.04,1052.4244470634,0,41,Motors_Started,"機体が高度区域 (500 m)にいます。慎重に飛行してください。 (Code: 190001). IMU初期化中。IMUデータを復旧します (Code: 1610001A). センサーエラー。機体を再起動してください。 (Code: 1601000A). 送信機が紐付けされていない／紐付けステータスを確認中 (Code: 16100089). 機体は飛行していません。ビジョンシステムと障害物回避が無効です (Code: 180059). GNSS信号が微弱です。ホバリングが不安定です。慎重に飛行"
300,2025-01-07 02:25:58,0,0,0,,,1052.4244470634,0.328084,0,0,0,14,2,0,1052.4244470634,0,0,0,0,0,0,285, 4.3, 0.3,0,0,1024,1024,1024,1024,0,0,0,0,292,0,0,96,4.236,4.231,4.23,4.227,0,0,0,64.04,1052.4244470634,0,41,Motors_Started,
500,2025-01-07 02:25:58,0,0,-0.328084,,,1052.0963630634,0,0,0,0,14,2,0,1052.4244470634,0,0,0,0,0,0,292, 4.4, 0,0,0,1024,1024,1024,1024,0,0,0,0,292,0,0,96,4.236,4.231,4.23,4.227,0,0,0,64.04,1052.0963630634,-0.328084,41,Motors_Started,
700,2025-01-07 02:25:58,0,0,-0.328084,,,1052.0963630634,0,0,0,0,14,2,0,1052.4244470634,0,0,0,0,0,0,292, 4.4, 0,0,0,1024,1024,1024,1024,0,0,0,0,292,0,0,96,4.236,4.231,4.23,4.227,0,0,0,64.04,1052.0963630634,-0.328084,41,Motors_Started,"Setting new Return-To-Home altitude to 100m (328 ft). Data Recorder File Index is 85. Setting new Maximum Flight Altitude to 30m (98 ft)"
900,2025-01-07 02:25:59,0,0,-0.328084,,,1052.0963630634,0,0,0,0,14,2,17.108,1052.4244470634,0,0,0,0,0,0,292, 4.4, 0,0,0,1024,1024,1024,1024,0,0,0,0,292,0,0,96,4.236,4.231,4.23,4.227,0,0,1.501,64.04,1052.0963630634,-0.328084,41,Motors_Started,"センサーエラー。機体を再起動してください。 (Code: 1601000A). 送信機が紐付けされていない／紐付けステータスを確認中 (Code: 16100089). GNSS信号が微弱です。ホバリングが不安定です。慎重に飛行してください (Code: 30002). 機体は飛行していません。ビジョンシステムと障害物回避が無効です (Code: 180059)"
1100,2025-01-07 02:25:59,0,0,-0.328084,,,1052.0963630634,0,0,0,0,14,2,17.108,1052.4244470634,0,0,0,0,0,0,292, 4.4, 0.1,0,0,1024,1024,1024,1024,0,0,0,0,292,0,0,96,4.236,4.231,4.23,4.227,0,0,1.501,64.04,1052.0963630634,-0.328084,41,Motors_Started,
1300,2025-01-07 02:25:59,0,0,-0.328084,,,1052.0963630634,0,0,0,0,14,2,17.108,1052.4244470634,0,0,0,0,0,0,292, 4.4, 0.1,0,0,1024,1024,1024,1024,0,0,0,0,292,0,0,96,4.236,4.231,4.23,4.227,0,0,1.501,64.04,1052.0963630634,-0.328084,41,Motors_Started,
1500,2025-01-07 02:25:59,0,0,-0.328084,,,1052.0963630634,0,0,0,0,13,2,17.108,1052.4244470634,0,0,0,0,0,0,292, 4.4, 0.1,0,0,1024,1024,1024,1024,0,0,0,0,292,0,0,96,4.236,4.231,4.23,4.227,0,0,1.501,64.04,1052.0963630634,-0.328084,41,Motors_Started,離陸準備中
1700,2025-01-07 02:25:59,0,0,-0.328084,,,1052.0963630634,0,0,0,0,13,2,17.108,1052.4244470634,0,0,0,0,0,0,292, 4.4, 0.1,0,0,1024,1024,1024,1024,0,0,0,0,292,0,0,96,4.236,4.231,4.23,4.227,0,0,1.501,64.04,1052.0963630634,-0.328084,11,AutoTakeoff,"センサーエラー。機体を再起動してください。 (Code: 1601000A). 送信機が紐付けされていない／紐付けステータスを確認中 (Code: 16100089). 機体は飛行していません。ビジョンシステムと障害物回避が無効です (Code: 180059)"
1900,2025-01-07 02:25:59,0,0,-0.328084,,,1052.0963630634,0,0,0,0,13,2,16.803,1052.4244470634,0,0,0,0,0,0,291.9, 4.3, 0.1,0,0,1024,1024,1024,1024,0,0,0,0,292,0,0,96,4.233,4.238,4.243,4.24,0,0,4.749,64.22,1052.0963630634,-0.328084,11,AutoTakeoff,"機体は飛行していません。ビジョンシステムと障害物回避が無効です (Code: 180059)"
2100,2025-01-07 02:26:00,0,0,-0.328084,,,1052.0963630634,0,0,0,0,13,2,16.803,1052.4244470634,0,0,0,0,0,0,292.3, 1.5, 0.1,0,0,1024,1024,1024,1024,0,0,0,0,292,0,0,96,4.233,4.238,4.243,4.24,0,0,4.749,64.22,1052.0963630634,-0.328084,11,AutoTakeoff,
2300,2025-01-07 02:26:00,0,0,0,,,1052.4244470634,0,0,0,0,13,2,16.803,1052.4244470634,0,0,0,0,0,-0.671082,293.5, -3.5, -0.1,0,0,1024,1024,1024,1024,0,0,0,0,292.1,0,0,96,4.233,4.238,4.243,4.24,0,0,4.749,64.22,1052.4244470634,0,11,AutoTakeoff,
2500,2025-01-07 02:26:00,0,0,0,,,1052.4244470634,0.328084,0,0,0,12,2,16.803,1052.4244470634,0,0,0,0,0,-0.894776,292.8, 0.6, -0.2,0,0,1024,1024,1024,1024,0,0,0,0,292.1,0,0,96,4.233,4.238,4.243,4.24,0,0,4.749,64.22,1052.4244470634,0,11,AutoTakeoff,
2700,2025-01-07 02:26:00,0,0,0,,,1052.4244470634,0.656168,0,0,0,12,2,16.803,1052.4244470634,0,0,0,0,0,-0.894776,293, 1.4, 0.5,0,0,1024,1024,1024,1024,0,0,0,0,292.2,0,0,96,4.233,4.238,4.243,4.24,0,0,4.749,64.22,1052.4244470634,0,11,AutoTakeoff,
2900,2025-01-07 02:26:01,0,0,0.328084,,,1052.7525310634,0.984252,0,0,0,12,2,16.765,1052.7525310634,0.328084,0,0,0,0,-0.894776,293.1, 0.2, 1.2,0,0,1024,1024,1024,1024,0,0,0,0,292.2,0,0,96,4.158,4.149,4.143,4.146,0,0,4.034,64.22,1052.7525310634,0.328084,11,AutoTakeoff,
3100,2025-01-07 02:26:01,0,0,0.656168,,,1053.0806150634,1.312336,0,0,0,12,2,16.765,1053.0806150634,0.656168,0,0,0,0,-0.894776,293.1, 0, 1.4,0,0,1024,1024,1024,1024,0,0,0,0,292.2,0,0,96,4.158,4.149,4.143,4.146,0,0,4.034,64.22,1053.0806150634,0.656168,11,AutoTakeoff,
3300,2025-01-07 02:26:01,0,0,0.984252,,,1053.4086990634,1.64042,0,0,0,12,2,16.765,1053.4086990634,0.984252,0,0,0,0,-0.894776,293.1, -0.4, 1.1,0,0,1024,1024,1024,1024,0,0,0,0,292.3,0,0,96,4.158,4.149,4.143,4.146,0,0,4.034,64.22,1053.4086990634,0.984252,11,AutoTakeoff,
3500,2025-01-07 02:26:01,0,0,1.312336,,,1053.7367830634,1.968504,0,0,0,12,2,16.765,1053.7367830634,1.312336,0,0,0,0,-0.894776,292.4, -0.4, 0.8,0,0,1024,1024,1024,1024,0,0,0,0,292.3,0,0,96,4.158,4.149,4.143,4.146,0,0,4.034,64.22,1053.7367830634,1.312336,11,AutoTakeoff,
3700,2025-01-07 02:26:01,0,0,1.64042,,,1054.0648670634,2.296588,0,0,0,11,2,16.765,1054.0648670634,1.64042,0,0,0,0,-1.11847,291.6, -0.4, 0.9,0,0,1024,1024,1024,1024,0,0,0,0,292.3,0,0,96,4.158,4.149,4.143,4.146,0,0,4.034,64.22,1054.0648670634,1.64042,11,AutoTakeoff,
3900,2025-01-07 02:26:02,0,0,1.968504,,,1054.3929510634,2.624672,0,0,0,13,2,16.512,1054.3929510634,1.968504,0,0,0,0,-1.11847,291.6, -0.1, 0.6,0,0,1024,1024,1024,1024,0,0,0,0,292.4,0,0,96,4.125,4.123,4.123,4.122,0,0,8.522,64.22,1054.3929510634,1.968504,11,AutoTakeoff,
4100,2025-01-07 02:26:02,0,0,2.296588,,,1054.7210350634,2.952756,0,0,0,14,2,16.512,1054.7210350634,2.296588,0,0,0,0,-1.11847,291.8, 0.4, 0.1,0,0,1024,1024,1024,1024,0,0,0,0,292.4,0,0,96,4.125,4.123,4.123,4.122,0,0,8.522,64.22,1054.7210350634,2.296588,11,AutoTakeoff,
4300,2025-01-07 02:26:02,0,0,2.624672,,,1055.0491190634,3.28084,0,0,0,13,2,16.512,1055.0491190634,2.624672,0,0,0,0,-1.11847,291.9, 0.2, 0,0,0,1024,1024,1000,1024,0,0,-4,0,292.4,0,0,96,4.125,4.123,4.123,4.122,0,0,8.522,64.22,1055.0491190634,2.624672,11,AutoTakeoff,
4500,2025-01-07 02:26:02,0,0,2.952756,,,1055.3772030634,3.608924,0,0,0,13,2,16.512,1055.3772030634,2.952756,0,0,0,0,-0.894776,291.7, 0, -0.2,0,0,1024,1024,887,1024,0,0,-21,0,292.4,0,0,96,4.125,4.123,4.123,4.122,0,0,8.522,64.22,1055.3772030634,2.952756,11,AutoTakeoff,
4700,2025-01-07 02:26:02,0,0,3.28084,,,1055.7052870634,3.937008,0,0,0,13,2,16.512,1055.7052870634,3.28084,0,0,0,0,-0.447388,291.8, 0, 0,0,0,1024,1024,818,1024,0,0,-31,0,292.4,0,0,96,4.125,4.123,4.123,4.122,0,0,8.522,64.22,1055.7052870634,3.28084,6,P-GPS,
4900,2025-01-07 02:26:03,0,0,3.28084,,,1055.7052870634,3.937008,0,0,0,13,2,16.5,1055.7052870634,3.28084,0,0,0,0,0,291.2, -0.5, 0.2,0,0,1024,1024,719,1024,0,0,-46,0,292.4,0,0,96,4.127,4.125,4.126,4.124,0,0,8.772,64.22,1055.7052870634,3.28084,6,P-GPS,
5100,2025-01-07 02:26:03,0,0,3.28084,,,1055.7052870634,3.608924,0,0,0,12,2,16.5,1055.7052870634,3.28084,0,0,0,0,0.671082,290.4, -0.5, 0.7,0,0,1024,1024,943,1024,0,0,-12,0,292.4,0,0,96,4.127,4.125,4.126,4.124,0,0,8.772,64.22,1055.7052870634,3.28084,6,P-GPS,
5300,2025-01-07 02:26:03,0,0,2.952756,,,1055.3772030634,3.608924,0,0,0,11,2,16.5,1055.7052870634,3.28084,0,0,0,0,0.894776,290.4, 0, 0.5,0,0,1024,1024,1059,1024,0,0,5,0,292.4,0,0,96,4.127,4.125,4.126,4.124,0,0,8.772,64.22,1055.3772030634,2.952756,6,P-GPS,
5500,2025-01-07 02:26:03,0,0,2.624672,,,1055.0491190634,3.28084,0,0,0,13,2,16.5,1055.7052870634,3.28084,0,0,0,0,0.447388,290.4, 0.3, 0,0,0,1024,1024,1214,1024,0,0,29,0,292.4,0,0,96,4.127,4.125,4.126,4.124,0,0,8.772,64.22,1055.0491190634,2.624672,6,P-GPS,
5700,2025-01-07 02:26:03,0,0,2.624672,,,1055.0491190634,3.28084,0,0,0,14,2,16.5,1055.7052870634,3.28084,0,0,0,0,0,290.4, 0.1, -1,0,0,1024,1024,1115,1024,0,0,14,0,292.4,0,0,96,4.127,4.125,4.126,4.124,0,0,8.772,64.22,1055.0491190634,2.624672,6,P-GPS,
5900,2025-01-07 02:26:04,0,0,2.952756,,,1055.3772030634,3.28084,0,0,0,12,2,16.599,1055.7052870634,3.28084,0,0,0,0,-0.671082,290.4, -0.2, -1.8,0,0,997,1024,1024,1024,-4,0,0,0,292.4,0,0,96,4.134,4.132,4.131,4.128,0,0,7.539,64.58,1055.3772030634,2.952756,6,P-GPS,
6100,2025-01-07 02:26:04,0,0,2.952756,,,1055.3772030634,3.608924,0,0,0,14,2,16.599,1055.7052870634,3.28084,0,0,0,0,-0.223694,290.3, 0, -1.9,0,0,747,1024,1024,1024,-42,0,0,0,292.4,0,0,96,4.134,4.132,4.131,4.128,0,0,7.539,64.58,1055.3772030634,2.952756,6,P-GPS,
6300,2025-01-07 02:26:04,0,0,2.952756,,,1055.3772030634,3.608924,0,0,0,12,2,16.599,1055.7052870634,3.28084,0,0,0,0,0,290.1, 0.2, -1.3,0,0,733,1024,1024,1024,-44,0,0,0,292.4,0,0,96,4.134,4.132,4.131,4.128,0,0,7.539,64.58,1055.3772030634,2.952756,6,P-GPS,
6500,2025-01-07 02:26:04,0,0,2.952756,,,1055.3772030634,3.608924,0,0,0,11,2,16.599,1055.7052870634,3.28084,0,0,0,0,0,289.9, 4, -0.3,0,0,722,1024,1024,1024,-46,0,0,0,292.4,0,0,96,4.134,4.132,4.131,4.128,0,0,7.539,64.58,1055.3772030634,2.952756,6,P-GPS,
6700,2025-01-07 02:26:04,0,0,2.952756,,,1055.3772030634,3.608924,0.4921268,0,0,12,2,16.599,1055.7052870634,3.28084,0.4921268,0,-0.223694,0.447388,0,289.9, 6, 0,0,0,720,1024,1024,1024,-46,0,0,0,292.4,0,0,96,4.134,4.132,4.131,4.128,0,0,7.539,64.58,1055.3772030634,2.952756,6,P-GPS,
6900,2025-01-07 02:26:05,0,0,2.952756,,,1055.3772030634,3.28084,1.006623,0,0,13,2,16.549,1055.7052870634,3.28084,1.006623,0,-0.447388,0.894776,0,290.1, 6.8, 0.3,0,0,712,1024,1024,1024,-47,0,0,0,292.4,0,0,96,4.134,4.129,4.127,4.124,0,0,9.019,64.58,1055.3772030634,2.952756,6,P-GPS,
7100,2025-01-07 02:26:05,0,0,2.952756,,,1055.3772030634,3.28084,1.4092722,0,0,13,2,16.549,1055.7052870634,3.28084,1.4092722,0,-0.447388,1.342164,0,290.2, 7.2, 0.1,0,0,711,1024,1024,1024,-47,0,0,0,292.4,0,0,96,4.134,4.129,4.127,4.124,0,0,9.019,64.58,1055.3772030634,2.952756,6,P-GPS,
7300,2025-01-07 02:26:05,0,0,2.952756,,,1055.3772030634,3.28084,1.901399,0,0,12,2,16.549,1055.7052870634,3.28084,1.901399,0,-0.671082,1.789552,0,289.8, 6.2, 0,0,0,717,1024,1024,1024,-47,0,0,0,292.4,0,0,96,4.134,4.129,4.127,4.124,0,0,9.019,64.58,1055.3772030634,2.952756,6,P-GPS,
7500,2025-01-07 02:26:05,0,0,2.952756,,,1055.3772030634,3.28084,2.3264176,0,0,13,2,16.549,1055.7052870634,3.28084,2.3264176,0,-0.671082,2.23694,0,289.1, 6.6, 0,0,0,718,1024,1024,1024,-46,0,0,0,292.4,0,0,96,4.134,4.129,4.127,4.124,0,0,9.019,64.58,1055.3772030634,2.952756,6,P-GPS,
7700,2025-01-07 02:26:05,0,0,2.952756,,,1055.3772030634,3.28084,2.8185444,0,0,13,2,16.549,1055.7052870634,3.28084,2.8185444,0,-0.894776,2.684328,0,290.2, 5.4, -0.3,0,0,755,1024,1024,1024,-41,0,0,0,292.4,0,0,96,4.134,4.129,4.127,4.124,0,0,9.019,64.58,1055.3772030634,2.952756,6,P-GPS,飛行中
7900,2025-01-07 02:26:06,0,0,2.952756,,,1055.3772030634,3.28084,3.1093466,0,0,11,2,16.454,1055.7052870634,3.28084,3.1093466,0,-1.11847,2.908022,0,290.1, 5.3, 0,0,0,776,1024,1024,1024,-38,0,0,0,292.4,0,0,96,4.115,4.113,4.114,4.114,0,0,8.641,64.76,1055.3772030634,2.952756,6,P-GPS,
8100,2025-01-07 02:26:06,0,0,2.952756,,,1055.3772030634,4.593176,3.4001488,0,0,12,2,16.454,1055.7052870634,3.28084,3.4001488,0,-1.342164,3.131716,0,293.6, 5.2, 0,0,0,1024,1024,1024,1024,0,0,0,0,292.4,0,0,96,4.115,4.113,4.114,4.114,0,0,8.641,64.76,1055.3772030634,2.952756,6,P-GPS,
8300,2025-01-07 02:26:06,0,0,2.952756,,,1055.3772030634,4.92126,3.6238428,0,0,12,2,16.454,1055.7052870634,3.28084,3.6238428,0,-1.342164,3.35541,0,294.6, -4.2, -0.4,0,0,1024,1024,1024,1024,0,0,0,0,292.4,0,0,96,4.115,4.113,4.114,4.114,0,0,8.641,64.76,1055.3772030634,2.952756,6,P-GPS,
8500,2025-01-07 02:26:06,0,0,3.28084,,,1055.7052870634,4.92126,2.5501116,0,0,14,2,16.454,1055.7052870634,3.28084,3.6238428,0,-0.671082,2.460634,0,288.9, -18.9, -1,0,0,1024,1024,1024,1024,0,0,0,0,292.4,0,0,96,4.115,4.113,4.114,4.114,0,0,8.641,64.76,1055.7052870634,3.28084,6,P-GPS,
8700,2025-01-07 02:26:07,0,0,3.28084,,,1055.7052870634,4.92126,1.1408394,0,0,13,2,16.454,1055.7052870634,3.28084,3.6238428,0,-0.223694,1.11847,0,284.7, -12.9, -1.1,0,0,1024,1024,1024,1024,0,0,0,0,292.4,0,0,96,4.115,4.113,4.114,4.114,0,0,8.641,64.76,1055.7052870634,3.28084,6,P-GPS,
9100,2025-01-07 02:26:07,0,0,3.28084,,,1055.7052870634,4.92126,0.223694,0,0,13,2,16.454,1055.7052870634,3.28084,3.6238428,0,0,0.223694,0,288.7, -2.9, -0.6,0,0,1024,1024,1024,1024,0,0,0,0,292.4,0,0,96,4.115,4.113,4.114,4.114,0,0,8.641,64.76,1055.7052870634,3.28084,6,P-GPS,
9300,2025-01-07 02:26:07,0,0,3.28084,,,1055.7052870634,4.92126,0,0,0,11,2,16.454,1055.7052870634,3.28084,3.6238428,0,0,0,0,288.1, -1.5, -1.1,0,0,1024,1024,1024,1024,0,0,0,0,292.4,0,0,96,4.115,4.113,4.114,4.114,0,0,8.641,64.76,1055.7052870634,3.28084,6,P-GPS,
9500,2025-01-07 02:26:07,0,0,3.28084,,,1055.7052870634,4.593176,0,0,0,11,2,16.454,1055.7052870634,3.28084,3.6238428,0,0,0,0,288.6, -1, -1.3,0,0,1024,1024,1024,1024,0,0,0,0,292.4,0,0,96,4.115,4.113,4.114,4.114,0,0,8.641,64.76,1055.7052870634,3.28084,6,P-GPS,
9700,2025-01-07 02:26:07,0,0,3.28084,,,1055.7052870634,4.593176,0,0,0,11,2,16.431,1055.7052870634,3.28084,3.6238428,0,0,0,0,288.4, -0.6, -1.4,0,0,1024,1024,1024,1024,0,0,0,0,292.4,0,0,95,4.11,4.108,4.109,4.109,0,0,8.996,64.94,1055.7052870634,3.28084,6,P-GPS,
9900,2025-01-07 02:26:08,0,0,3.28084,,,1055.7052870634,4.593176,0,0,0,11,2,16.431,1055.7052870634,3.28084,3.6238428,0,0,0,0,288, -0.7, -0.8,0,0,1024,1024,1024,1024,0,0,0,0,292.4,0,0,95,4.11,4.108,4.109,4.109,0,0,8.996,64.94,1055.7052870634,3.28084,6,P-GPS,
10100,2025-01-07 02:26:08,0,0,3.28084,,,1055.7052870634,4.593176,0,0,0,12,2,16.431,1055.7052870634,3.28084,3.6238428,0,0,0,0,288.1, -0.6, 0.4,0,0,1024,1024,1024,1024,0,0,0,0,292.4,0,0,95,4.11,4.108,4.109,4.109,0,0,8.996,64.94,1055.7052870634,3.28084,6,P-GPS,
10300,2025-01-07 02:26:08,0,0,3.28084,,,1055.7052870634,4.593176,0,0,0,11,2,16.431,1055.7052870634,3.28084,3.6238428,0,0,0,0,288.2, -0.4, 0.1,0,0,1024,1024,1024,1024,0,0,0,0,292.4,0,0,95,4.11,4.108,4.109,4.109,0,0,8.996,64.94,1055.7052870634,3.28084,6,P-GPS,
10500,2025-01-07 02:26:08,0,0,3.28084,,,1055.7052870634,4.593176,0,0,0,11,2,16.431,1055.7052870634,3.28084,3.6238428,0,0,0,0,288.2, -0.5, -0.5,0,0,1024,1024,1024,1024,0,0,0,0,292.4,0,0,95,4.11,4.108,4.109,4.109,0,0,8.996,64.94,1055.7052870634,3.28084,6,P-GPS,
10700,2025-01-07 02:26:08,0,0,3.28084,,,1055.7052870634,4.593176,0,0,0,11,2,16.419,1055.7052870634,3.28084,3.6238428,0,0,0,0,288, -0.5, -0.5,0,0,1024,1024,984,1024,0,0,-6,0,292.4,0,0,95,4.105,4.103,4.103,4.103,0,0,8.739,64.94,1055.7052870634,3.28084,6,P-GPS,
10900,2025-01-07 02:26:09,0,0,3.28084,,,1055.7052870634,4.593176,0,0,0,11,2,16.419,1055.7052870634,3.28084,3.6238428,0,0,0,0,288, 0, -1.1,0,0,1024,1024,932,1024,0,0,-14,0,292.4,0,0,95,4.105,4.103,4.103,4.103,0,0,8.739,64.94,1055.7052870634,3.28084,6,P-GPS,
11100,2025-01-07 02:26:09,0,0,3.28084,,,1055.7052870634,4.593176,0,0,0,11,2,16.419,1055.7052870634,3.28084,3.6238428,0,0,0,0,288.1, 0.1, -1.3,0,0,1024,1024,977,1024,0,0,-7,0,292.4,0,0,95,4.105,4.103,4.103,4.103,0,0,8.739,64.94,1055.7052870634,3.28084,6,P-GPS,
11300,2025-01-07 02:26:09,0,0,3.28084,,,1055.7052870634,4.593176,0,0,0,12,2,16.419,1055.7052870634,3.28084,3.6238428,0,0,0,0,288.1, -0.2, -1,0,0,1024,1024,1024,1024,0,0,0,0,292.4,0,0,95,4.105,4.103,4.103,4.103,0,0,8.739,64.94,1055.7052870634,3.28084,6,P-GPS,
11500,2025-01-07 02:26:09,0,0,3.28084,,,1055.7052870634,4.265092,0,0,0,12,2,16.419,1055.7052870634,3.28084,3.6238428,0,0,0,0,288, -0.3, 0.5,0,0,1030,1024,1024,1024,1,0,0,0,292.4,0,0,95,4.105,4.103,4.103,4.103,0,0,8.739,64.94,1055.7052870634,3.28084,6,P-GPS,
11700,2025-01-07 02:26:09,0,0,3.28084,,,1055.7052870634,4.265092,0,0,0,12,2,16.409,1055.7052870634,3.28084,3.6238428,0,0,0,0,288, 0, 0,0,0,1148,1024,1024,1024,19,0,0,0,292.4,0,0,95,4.105,4.103,4.103,4.102,0,0,8.852,65.12,1055.7052870634,3.28084,6,P-GPS,
11900,2025-01-07 02:26:10,0,0,3.28084,,,1055.7052870634,4.265092,0,0,0,13,2,16.409,1055.7052870634,3.28084,3.6238428,0,0,0,0,288, 0.1, -0.4,0,0,1024,1024,1024,1024,0,0,0,0,292.4,0,0,95,4.105,4.103,4.103,4.102,0,0,8.852,65.12,1055.7052870634,3.28084,6,P-GPS,
12100,2025-01-07 02:26:10,0,0,3.28084,,,1055.7052870634,4.265092,0,0,0,12,2,16.409,1055.7052870634,3.28084,3.6238428,0,0,0,0,288.1, -1.1, -0.7,0,0,1024,1024,1024,1024,0,0,0,0,292.4,0,0,95,4.105,4.103,4.103,4.102,0,0,8.852,65.12,1055.7052870634,3.28084,6,P-GPS,
12300,2025-01-07 02:26:10,0,0,3.28084,,,1055.7052870634,4.265092,0,0,0,11,2,16.409,1055.7052870634,3.28084,3.6238428,0,0,0,0,288, 0, -0.7,0,0,872,1024,1024,1024,-23,0,0,0,292.4,0,0,95,4.105,4.103,4.103,4.102,0,0,8.852,65.12,1055.7052870634,3.28084,6,P-GPS,
12500,2025-01-07 02:26:10,0,0,3.28084,,,1055.7052870634,4.265092,0,0,0,11,2,16.409,1055.7052870634,3.28084,3.6238428,0,0,0,0,288, 0.4, -0.2,0,0,879,1024,1024,1024,-22,0,0,0,292.4,0,0,95,4.105,4.103,4.103,4.102,0,0,8.852,65.12,1055.7052870634,3.28084,6,P-GPS,
12700,2025-01-07 02:26:10,0,0,3.28084,,,1055.7052870634,4.265092,0,0,0,11,2,16.404,1055.7052870634,3.28084,3.6238428,0,0,0,0,288.1, 1.1, 0.4,0,0,989,1024,1024,1024,-5,0,0,0,292.4,0,0,95,4.104,4.101,4.101,4.1,0,0,8.843,65.48,1055.7052870634,3.28084,6,P-GPS,
12900,2025-01-07 02:26:11,0,0,3.28084,,,1055.7052870634,4.265092,0,0,0,9,2,16.404,1055.7052870634,3.28084,3.6238428,0,0,0,0,288.1, 1.6, 0.1,0,0,1024,1024,1024,1024,0,0,0,0,292.4,0,0,95,4.104,4.101,4.101,4.1,0,0,8.843,65.48,1055.7052870634,3.28084,6,P-GPS,
13100,2025-01-07 02:26:11,0,0,3.28084,,,1055.7052870634,4.265092,0,0,0,8,2,16.404,1055.7052870634,3.28084,3.6238428,0,0,0,0,288.1, -0.5, -0.1,0,0,1024,1024,1024,1024,0,0,0,0,292.4,0,0,95,4.104,4.101,4.101,4.1,0,0,8.843,65.48,1055.7052870634,3.28084,6,P-GPS,
13300,2025-01-07 02:26:11,0,0,3.28084,,,1055.7052870634,4.265092,0,0,0,8,2,16.404,1055.7052870634,3.28084,3.6238428,0,0,0,0,288.2, -1, 0,0,0,1024,1024,1024,1024,0,0,0,0,292.4,0,0,95,4.104,4.101,4.101,4.1,0,0,8.843,65.48,1055.7052870634,3.28084,6,P-GPS,
13500,2025-01-07 02:26:11,0,0,3.28084,,,1055.7052870634,4.265092,0,0,0,8,2,16.404,1055.7052870634,3.28084,3.6238428,0,0,0,0,288.3, -0.8, -0.4,0,0,1024,1024,1024,1024,0,0,0,0,292.4,0,0,95,4.104,4.101,4.101,4.1,0,0,8.843,65.48,1055.7052870634,3.28084,6,P-GPS,
13700,2025-01-07 02:26:11,0,0,3.28084,,,1055.7052870634,4.265092,0,0,0,8,2,16.392,1055.7052870634,3.28084,3.6238428,0,0,0,0,288.3, -0.4, -1,0,0,949,1024,1024,1024,-11,0,0,0,292.4,0,0,95,4.101,4.099,4.099,4.099,0,0,8.746,65.48,1055.7052870634,3.28084,6,P-GPS,
13900,2025-01-07 02:26:12,0,0,3.28084,,,1055.7052870634,4.265092,0,0,0,9,2,16.392,1055.7052870634,3.28084,3.6238428,0,0,0,0,288.3, -0.4, -1.2,0,0,848,1024,1024,1024,-27,0,0,0,292.4,0,0,95,4.101,4.099,4.099,4.099,0,0,8.746,65.48,1055.7052870634,3.28084,6,P-GPS,
14100,2025-01-07 02:26:12,0,0,3.28084,,,1055.7052870634,4.265092,0,0,0,9,2,16.392,1055.7052870634,3.28084,3.6238428,0,0,0,0,288.2, 0.4, -0.6,0,0,803,1024,1024,1024,-33,0,0,0,292.4,0,0,95,4.101,4.099,4.099,4.099,0,0,8.746,65.48,1055.7052870634,3.28084,6,P-GPS,
14300,2025-01-07 02:26:12,0,0,3.28084,,,1055.7052870634,4.265092,0,0,0,9,2,16.392,1055.7052870634,3.28084,3.6238428,0,0,0,0,288.2, 1.3, -0.5,0,0,723,1024,1024,1024,-46,0,0,0,292.4,0,0,95,4.101,4.099,4.099,4.099,0,0,8.746,65.48,1055.7052870634,3.28084,6,P-GPS,
14500,2025-01-07 02:26:12,0,0,3.28084,,,1055.7052870634,4.265092,0.223694,0,0,10,2,16.392,1055.7052870634,3.28084,3.6238428,0,0,0.223694,0,288.1, 2.5, -0.6,0,0,719,1024,1024,1024,-46,0,0,0,292.4,0,0,95,4.101,4.099,4.099,4.099,0,0,8.746,65.48,1055.7052870634,3.28084,6,P-GPS,
14700,2025-01-07 02:26:12,0,0,3.28084,,,1055.7052870634,4.265092,0.447388,0,0,9,2,16.387,1055.7052870634,3.28084,3.6238428,0,0,0.447388,0,288, 4.3, -0.1,0,0,749,1024,1024,1024,-42,0,0,0,292.4,0,0,95,4.096,4.093,4.095,4.094,0,0,8.716,65.66,1055.7052870634,3.28084,6,P-GPS,
14900,2025-01-07 02:26:13,0,0,3.28084,,,1055.7052870634,4.265092,0.9171454,0,0,10,2,16.387,1055.7052870634,3.28084,3.6238428,0,-0.223694,0.894776,0,288, 5.7, -0.4,0,0,762,1024,1024,1024,-40,0,0,0,292.4,0,0,95,4.096,4.093,4.095,4.094,0,0,8.716,65.66,1055.7052870634,3.28084,6,P-GPS,
15100,2025-01-07 02:26:13,0,0,3.28084,,,1055.7052870634,4.265092,1.1408394,0,0,10,2,16.387,1055.7052870634,3.28084,3.6238428,0,-0.223694,1.11847,0,288.1, 5.3, -0.6,0,0,844,1024,1024,1024,-27,0,0,0,292.4,0,0,95,4.096,4.093,4.095,4.094,0,0,8.716,65.66,1055.7052870634,3.28084,6,P-GPS,
15300,2025-01-07 02:26:13,0,0,3.28084,,,1055.7052870634,4.265092,1.6329662,0,0,10,2,16.387,1055.7052870634,3.28084,3.6238428,0,-0.447388,1.565858,0,288.2, 4.2, -0.9,0,0,1024,1024,1024,1024,0,0,0,0,292.4,0,0,95,4.096,4.093,4.095,4.094,0,0,8.716,65.66,1055.7052870634,3.28084,6,P-GPS,
15500,2025-01-07 02:26:13,0,0,3.28084,,,1055.7052870634,4.265092,1.8342908,0,0,11,2,16.387,1055.7052870634,3.28084,3.6238428,0,-0.447388,1.789552,0,288.2, 1.2, -1,0,0,1024,1024,1024,1024,0,0,0,0,292.4,0,0,95,4.096,4.093,4.095,4.094,0,0,8.716,65.66,1055.7052870634,3.28084,6,P-GPS,
15700,2025-01-07 02:26:13,0,0,3.28084,,,1055.7052870634,4.265092,1.4092722,0,0,10,2,16.367,1055.7052870634,3.28084,3.6238428,0,-0.447388,1.342164,0,288.5, -11, -0.6,0,0,1024,1024,1024,1024,0,0,0,0,292.4,0,0,95,4.094,4.092,4.091,4.091,0,0,8.893,65.66,1055.7052870634,3.28084,6,P-GPS,
15900,2025-01-07 02:26:14,0,0,3.28084,,,1055.7052870634,4.265092,0.7158208,0,0,13,2,16.367,1055.7052870634,3.28084,3.6238428,0,-0.223694,0.671082,0,288.4, -7.8, -0.2,0,0,1024,1024,1024,1024,0,0,0,0,292.4,0,0,95,4.094,4.092,4.091,4.091,0,0,8.893,65.66,1055.7052870634,3.28084,6,P-GPS,
16100,2025-01-07 02:26:14,0,0,3.28084,,,1055.7052870634,4.593176,0.3131716,0,0,13,2,16.367,1055.7052870634,3.28084,3.6238428,0,-0.223694,0.223694,0,288.4, -4, 1.1,0,0,1024,1024,1024,1024,0,0,0,0,292.4,0,0,95,4.094,4.092,4.091,4.091,0,0,8.893,65.66,1055.7052870634,3.28084,6,P-GPS,
16300,2025-01-07 02:26:14,0,0,3.608924,,,1056.0333710634,4.593176,0,0,0,12,2,16.367,1056.0333710634,3.608924,3.6238428,0,0,0,0,288.9, -1.9, 1.6,0,0,1024,1024,1024,1024,0,0,0,0,292.4,0,0,95,4.094,4.092,4.091,4.091,0,0,8.893,65.66,1056.0333710634,3.608924,6,P-GPS,
16500,2025-01-07 02:26:14,0,0,3.608924,,,1056.0333710634,4.265092,0,0,0,11,2,16.367,1056.0333710634,3.608924,3.6238428,0,0,0,0,290, -1.3, 2,0,0,1024,1024,1024,1024,0,0,0,0,292.4,0,0,95,4.094,4.092,4.091,4.091,0,0,8.893,65.66,1056.0333710634,3.608924,6,P-GPS,
16700,2025-01-07 02:26:14,0,0,3.608924,,,1056.0333710634,4.265092,0,0,0,12,2,16.36,1056.0333710634,3.608924,3.6238428,0,0,0,0,289.9, -0.3, 0.6,0,0,1024,1024,1024,1024,0,0,0,0,292.4,0,0,95,4.093,4.09,4.092,4.091,0,0,8.912,65.84,1056.0333710634,3.608924,6,P-GPS,
16900,2025-01-07 02:26:15,0,0,3.608924,,,1056.0333710634,4.265092,0,0,0,12,2,16.36,1056.0333710634,3.608924,3.6238428,0,0,0,0,289.2, -0.7, -0.9,0,0,1024,1024,1024,1024,0,0,0,0,292.4,0,0,95,4.093,4.09,4.092,4.091,0,0,8.912,65.84,1056.0333710634,3.608924,6,P-GPS,
17100,2025-01-07 02:26:15,0,0,3.608924,,,1056.0333710634,4.265092,0,0,0,12,2,16.36,1056.0333710634,3.608924,3.6238428,0,0,0,0,288.9, -0.6, -0.6,0,0,1024,1024,1024,1024,0,0,0,0,292.4,0,0,95,4.093,4.09,4.092,4.091,0,0,8.912,65.84,1056.0333710634,3.608924,6,P-GPS,
17300,2025-01-07 02:26:15,0,0,3.608924,,,1056.0333710634,4.265092,0,0,0,12,2,16.36,1056.0333710634,3.608924,3.6238428,0,0,0,0,288.8, -0.6, -0.7,0,0,1024,1024,1024,1024,0,0,0,0,292.4,0,0,95,4.093,4.09,4.092,4.091,0,0,8.912,65.84,1056.0333710634,3.608924,6,P-GPS,
17500,2025-01-07 02:26:15,0,0,3.608924,,,1056.0333710634,4.265092,0,0,0,13,2,16.36,1056.0333710634,3.608924,3.6238428,0,0,0,0,288.8, -0.6, -0.3,0,0,1024,1024,1024,1024,0,0,0,0,292.4,0,0,95,4.093,4.09,4.092,4.091,0,0,8.912,65.84,1056.0333710634,3.608924,6,P-GPS,
17700,2025-01-07 02:26:15,0,0,3.608924,,,1056.0333710634,4.265092,0,0,0,13,2,16.367,1056.0333710634,3.608924,3.6238428,0,0,0,0,288.7, -0.7, 0,0,0,1024,1024,1024,1024,0,0,0,0,292.4,0,0,95,4.093,4.093,4.093,4.093,0,0,8.761,66.02,1056.0333710634,3.608924,6,P-GPS,
17900,2025-01-07 02:26:16,0,0,3.608924,,,1056.0333710634,4.265092,0,0,0,13,2,16.367,1056.0333710634,3.608924,3.6238428,0,0,0,0,288.7, -0.7, -0.2,0,0,1024,1024,1024,1024,0,0,0,0,292.4,0,0,95,4.093,4.093,4.093,4.093,0,0,8.761,66.02,1056.0333710634,3.608924,6,P-GPS,
18100,2025-01-07 02:26:16,0,0,3.608924,,,1056.0333710634,4.265092,0,0,0,14,2,16.367,1056.0333710634,3.608924,3.6238428,0,0,0,0,288.8, -0.8, -0.2,0,0,1024,1024,1024,1024,0,0,0,0,292.4,0,0,95,4.093,4.093,4.093,4.093,0,0,8.761,66.02,1056.0333710634,3.608924,6,P-GPS,
18300,2025-01-07 02:26:16,0,0,3.608924,,,1056.0333710634,4.265092,0,0,0,13,2,16.367,1056.0333710634,3.608924,3.6238428,0,0,0,0,288.7, -0.7, 0,0,0,1024,1024,1024,1024,0,0,0,0,292.4,0,0,95,4.093,4.093,4.093,4.093,0,0,8.761,66.02,1056.0333710634,3.608924,6,P-GPS,
18500,2025-01-07 02:26:16,0,0,3.608924,,,1056.0333710634,4.265092,0,0,0,14,2,16.367,1056.0333710634,3.608924,3.6238428,0,0,0,0,288.7, -0.3, 0,0,0,1024,1024,1024,1024,0,0,0,0,292.4,0,0,95,4.093,4.093,4.093,4.093,0,0,8.761,66.02,1056.0333710634,3.608924,6,P-GPS,
18700,2025-01-07 02:26:16,0,0,3.608924,,,1056.0333710634,4.265092,0,0,0,14,2,16.37,1056.0333710634,3.608924,3.6238428,0,0,0,0,288.6, -0.4, 0,0,0,1024,1024,1024,1024,0,0,0,0,292.4,0,0,95,4.096,4.094,4.094,4.092,0,0,8.526,66.02,1056.0333710634,3.608924,6,P-GPS,
18900,2025-01-07 02:26:17,0,0,3.608924,,,1056.0333710634,4.265092,0,0,0,13,2,16.37,1056.0333710634,3.608924,3.6238428,0,0,0,0,288.7, -0.3, 0.3,0,0,1024,1024,1024,1024,0,0,0,0,292.4,0,0,95,4.096,4.094,4.094,4.092,0,0,8.526,66.02,1056.0333710634,3.608924,6,P-GPS,
19100,2025-01-07 02:26:17,0,0,3.608924,,,1056.0333710634,4.265092,0,0,0,13,2,16.37,1056.0333710634,3.608924,3.6238428,0,0,0,0,288.8, -0.2, 0.8,0,0,1024,1024,1024,1024,0,0,0,0,292.4,0,0,95,4.096,4.094,4.094,4.092,0,0,8.526,66.02,1056.0333710634,3.608924,6,P-GPS,
19500,2025-01-07 02:26:17,0,0,3.608924,,,1056.0333710634,4.265092,0,0,0,12,2,16.37,1056.0333710634,3.608924,3.6238428,0,0,0,0,288.9, -0.3, 1.3,0,0,1024,1024,1024,1024,0,0,0,0,292.4,0,0,95,4.096,4.094,4.094,4.092,0,0,8.526,66.02,1056.0333710634,3.608924,6,P-GPS,
19700,2025-01-07 02:26:17,0,0,3.937008,,,1056.3614550634,4.265092,0,0,0,13,2,16.375,1056.3614550634,3.937008,3.6238428,0,0,0,0,288.7, -0.1, 1.9,0,0,1024,1024,1024,1024,0,0,0,0,292.4,0,0,95,4.096,4.094,4.094,4.094,0,0,8.421,66.2,1056.3614550634,3.937008,6,P-GPS,
19900,2025-01-07 02:26:18,0,0,3.937008,,,1056.3614550634,4.265092,0,0,0,13,2,16.375,1056.3614550634,3.937008,3.6238428,0,0,0,0,288.8, -0.3, 1.5,0,0,1024,1024,1024,1024,0,0,0,0,292.4,0,0,95,4.096,4.094,4.094,4.094,0,0,8.421,66.2,1056.3614550634,3.937008,6,P-GPS,
20100,2025-01-07 02:26:18,0,0,3.937008,,,1056.3614550634,4.265092,0,0,0,12,2,16.375,1056.3614550634,3.937008,3.6238428,0,0,0,0,288.9, -0.6, 1.1,0,0,1024,1024,1024,1024,0,0,0,0,292.4,0,0,95,4.096,4.094,4.094,4.094,0,0,8.421,66.2,1056.3614550634,3.937008,6,P-GPS,
20300,2025-01-07 02:26:18,0,0,3.937008,,,1056.3614550634,4.265092,0,0,0,12,2,16.375,1056.3614550634,3.937008,3.6238428,0,0,0,0,288.8, 0.1, 2,0,0,1024,1024,1024,1024,0,0,0,0,292.4,0,0,95,4.096,4.094,4.094,4.094,0,0,8.421,66.2,1056.3614550634,3.937008,6,P-GPS,
20500,2025-01-07 02:26:18,0,0,3.937008,,,1056.3614550634,4.265092,0,0,0,12,2,16.375,1056.3614550634,3.937008,3.6238428,0,0,0,0,288.8, 0, 2.7,0,0,1024,1024,1024,1024,0,0,0,0,292.4,0,0,95,4.096,4.094,4.094,4.094,0,0,8.421,66.2,1056.3614550634,3.937008,6,P-GPS,
20700,2025-01-07 02:26:18,0,0,3.937008,,,1056.3614550634,4.265092,0,0,0,11,2,16.37,1056.3614550634,3.937008,3.6238428,0,0,0,0,288.9, -0.1, 2.4,0,0,1024,1024,1024,1024,0,0,0,0,292.4,0,0,95,4.092,4.09,4.089,4.089,0,0,8.37,66.2,1056.3614550634,3.937008,6,P-GPS,
20900,2025-01-07 02:26:19,0,0,3.937008,,,1056.3614550634,4.265092,0,0,0,12,2,16.37,1056.3614550634,3.937008,3.6238428,0,0,0,0,289.1, 0, 1.4,0,0,1024,1024,1024,1024,0,0,0,0,292.4,0,0,95,4.092,4.09,4.089,4.089,0,0,8.37,66.2,1056.3614550634,3.937008,6,P-GPS,
21100,2025-01-07 02:26:19,0,0,3.937008,,,1056.3614550634,4.265092,0,0,0,11,2,16.37,1056.3614550634,3.937008,3.6238428,0,0,0,0,289, 0.4, 1,0,0,1024,1024,1024,1024,0,0,0,0,292.4,0,0,95,4.092,4.09,4.089,4.089,0,0,8.37,66.2,1056.3614550634,3.937008,6,P-GPS,
21300,2025-01-07 02:26:19,0,0,3.937008,,,1056.3614550634,4.265092,0,0,0,12,2,16.37,1056.3614550634,3.937008,3.6238428,0,0,0,0,288.8, 0.3, 0.7,0,0,1024,1024,1024,1024,0,0,0,0,292.4,0,0,95,4.092,4.09,4.089,4.089,0,0,8.37,66.2,1056.3614550634,3.937008,6,P-GPS,
21500,2025-01-07 02:26:19,0,0,3.937008,,,1056.3614550634,4.265092,0,0,0,12,2,16.37,1056.3614550634,3.937008,3.6238428,0,0,0,0,288.8, 0.6, 0.8,0,0,1024,1024,1024,1024,0,0,0,0,292.4,0,0,95,4.092,4.09,4.089,4.089,0,0,8.37,66.2,1056.3614550634,3.937008,6,P-GPS,
21700,2025-01-07 02:26:19,0,0,3.937008,,,1056.3614550634,4.265092,0,0,0,12,2,16.343,1056.3614550634,3.937008,3.6238428,0,0,0,0,288.7, 0.8, 1.5,0,0,1024,1024,1024,1024,0,0,0,0,292.4,0,0,95,4.092,4.089,4.088,4.089,0,0,8.654,66.38,1056.3614550634,3.937008,6,P-GPS,
21900,2025-01-07 02:26:20,0,0,3.937008,,,1056.3614550634,4.265092,0,0,0,12,2,16.343,1056.3614550634,3.937008,3.6238428,0,0,0,0,288.8, 0.6, 1.7,0,0,1024,1024,1024,1024,0,0,0,0,292.4,0,0,95,4.092,4.089,4.088,4.089,0,0,8.654,66.38,1056.3614550634,3.937008,6,P-GPS,
22100,2025-01-07 02:26:20,0,0,3.937008,,,1056.3614550634,4.265092,0,0,0,12,2,16.343,1056.3614550634,3.937008,3.6238428,0,0,0,0,289.2, 0.6, 1.7,0,0,1024,1024,1024,1024,0,0,0,0,292.4,0,0,95,4.092,4.089,4.088,4.089,0,0,8.654,66.38,1056.3614550634,3.937008,6,P-GPS,
22300,2025-01-07 02:26:20,0,0,3.937008,,,1056.3614550634,4.265092,0,0,0,12,2,16.343,1056.3614550634,3.937008,3.6238428,0,0,0,0,289.3, 0.5, 1.6,0,0,1024,1024,1024,1024,0,0,0,0,292.4,0,0,95,4.092,4.089,4.088,4.089,0,0,8.654,66.38,1056.3614550634,3.937008,6,P-GPS,
22500,2025-01-07 02:26:20,0,0,3.937008,,,1056.3614550634,4.265092,0,0,0,12,2,16.343,1056.3614550634,3.937008,3.6238428,0,0,0,0,289.5, 0.7, 2.1,0,0,1024,1024,1024,1024,0,0,0,0,292.4,0,0,95,4.092,4.089,4.088,4.089,0,0,8.654,66.38,1056.3614550634,3.937008,6,P-GPS,
22700,2025-01-07 02:26:20,0,0,3.937008,,,1056.3614550634,4.265092,0,0,0,12,2,16.348,1056.3614550634,3.937008,3.6238428,0,0,0,0,289.5, 0.5, 1.8,0,0,1024,1024,1024,1024,0,0,0,0,292.4,0,0,95,4.09,4.087,4.087,4.086,0,0,8.508,66.38,1056.3614550634,3.937008,6,P-GPS,
22900,2025-01-07 02:26:21,0,0,3.937008,,,1056.3614550634,4.265092,0,0,0,12,2,16.348,1056.3614550634,3.937008,3.6238428,0,0,0,0,289.1, 0.2, 2.3,0,0,1024,1024,1024,1024,0,0,0,0,292.4,0,0,95,4.09,4.087,4.087,4.086,0,0,8.508,66.38,1056.3614550634,3.937008,6,P-GPS,
23100,2025-01-07 02:26:21,0,0,3.937008,,,1056.3614550634,4.265092,0,0,0,12,2,16.348,1056.3614550634,3.937008,3.6238428,0,0,0,0,289, -0.4, 2.3,0,0,1024,1024,1024,1024,0,0,0,0,292.4,0,0,95,4.09,4.087,4.087,4.086,0,0,8.508,66.38,1056.3614550634,3.937008,6,P-GPS,
23300,2025-01-07 02:26:21,0,0,4.265092,,,1056.6895390634,4.265092,0,0,0,10,2,16.348,1056.6895390634,4.265092,3.6238428,0,0,0,0,288.9, 0.5, 2.9,0,0,1024,1024,1024,1024,0,0,0,0,292.4,0,0,95,4.09,4.087,4.087,4.086,0,0,8.508,66.38,1056.6895390634,4.265092,6,P-GPS,
23500,2025-01-07 02:26:21,0,0,4.265092,,,1056.6895390634,4.265092,0,0,0,10,2,16.348,1056.6895390634,4.265092,3.6238428,0,0,0,0,288.9, 0.9, 2.9,0,0,1024,1024,1024,1024,0,0,0,0,292.4,0,0,95,4.09,4.087,4.087,4.086,0,0,8.508,66.38,1056.6895390634,4.265092,6,P-GPS,
23700,2025-01-07 02:26:21,0,0,4.265092,,,1056.6895390634,4.265092,0,0,0,11,2,16.355,1056.6895390634,4.265092,3.6238428,0,0,0,0,289.3, 1.6, 3.3,0,0,1024,1024,1024,1024,0,0,0,0,292.4,0,0,95,4.089,4.086,4.089,4.086,0,0,8.445,66.56,1056.6895390634,4.265092,6,P-GPS,
23900,2025-01-07 02:26:22,0,0,4.265092,,,1056.6895390634,4.265092,0,0,0,11,2,16.355,1056.6895390634,4.265092,3.6238428,0,0,0,0,289.4, 1.2, 4,0,0,1024,1024,1024,1024,0,0,0,0,292.4,0,0,95,4.089,4.086,4.089,4.086,0,0,8.445,66.56,1056.6895390634,4.265092,6,P-GPS,
24100,2025-01-07 02:26:22,0,0,4.265092,,,1056.6895390634,4.265092,0,0,0,11,2,16.355,1056.6895390634,4.265092,3.6238428,0,0,0,0,289.2, 0.7, 3.4,0,0,1024,1024,1024,1024,0,0,0,0,292.4,0,0,95,4.089,4.086,4.089,4.086,0,0,8.445,66.56,1056.6895390634,4.265092,6,P-GPS,
24300,2025-01-07 02:26:22,0,0,4.265092,,,1056.6895390634,4.265092,0,0,0,11,2,16.355,1056.6895390634,4.265092,3.6238428,0,0,0,0,289, 0.4, 2.8,0,0,1024,1024,1024,1024,0,0,0,0,292.4,0,0,95,4.089,4.086,4.089,4.086,0,0,8.445,66.56,1056.6895390634,4.265092,6,P-GPS,
24500,2025-01-07 02:26:22,0,0,4.265092,,,1056.6895390634,4.265092,0,0,0,11,2,16.355,1056.6895390634,4.265092,3.6238428,0,0,0,0,289.1, 0.3, 2.3,0,0,1024,1024,1024,1024,0,0,0,0,292.4,0,0,95,4.089,4.086,4.089,4.086,0,0,8.445,66.56,1056.6895390634,4.265092,6,P-GPS,
24700,2025-01-07 02:26:22,0,0,4.265092,,,1056.6895390634,4.265092,0,0,0,11,2,16.327,1056.6895390634,4.265092,3.6238428,0,0,0,0,288.9, 0.5, 1.8,0,0,1024,1024,1024,1024,0,0,0,0,292.4,0,0,95,4.078,4.075,4.079,4.079,0,0,8.567,66.56,1056.6895390634,4.265092,6,P-GPS,
24900,2025-01-07 02:26:23,0,0,4.265092,,,1056.6895390634,4.265092,0,0,0,10,2,16.327,1056.6895390634,4.265092,3.6238428,0,0,0,0,288.7, 1.4, 2.9,0,0,1024,1024,1024,1024,0,0,0,0,292.4,0,0,95,4.078,4.075,4.079,4.079,0,0,8.567,66.56,1056.6895390634,4.265092,6,P-GPS,
25100,2025-01-07 02:26:23,0,0,4.265092,,,1056.6895390634,4.265092,0,0,0,11,2,16.327,1056.6895390634,4.265092,3.6238428,0,0,0,0,289, 1.5, 2.3,0,0,1024,1024,1024,1024,0,0,0,0,292.4,0,0,95,4.078,4.075,4.079,4.079,0,0,8.567,66.56,1056.6895390634,4.265092,6,P-GPS,
25300,2025-01-07 02:26:23,0,0,4.265092,,,1056.6895390634,4.265092,0,0,0,10,2,16.327,1056.6895390634,4.265092,3.6238428,0,0,0,0,289, 1.7, 2.4,0,0,1024,1024,1024,1024,0,0,0,0,292.4,0,0,95,4.078,4.075,4.079,4.079,0,0,8.567,66.56,1056.6895390634,4.265092,6,P-GPS,
25500,2025-01-07 02:26:23,0,0,4.593176,,,1057.0176230634,4.265092,0,0,0,10,2,16.327,1057.0176230634,4.593176,3.6238428,0,0,0,0,289.2, 1.9, 3,0,0,1024,1024,1024,1024,0,0,0,0,292.4,0,0,95,4.078,4.075,4.079,4.079,0,0,8.567,66.56,1057.0176230634,4.593176,6,P-GPS,
25700,2025-01-07 02:26:23,0,0,4.593176,,,1057.0176230634,4.265092,0,0,0,10,2,16.342,1057.0176230634,4.593176,3.6238428,0,0,0,0,289.3, 0.8, 2.7,0,0,1024,1024,1024,1024,0,0,0,0,292.4,0,0,95,4.084,4.081,4.083,4.081,0,0,8.633,66.74,1057.0176230634,4.593176,6,P-GPS,
25900,2025-01-07 02:26:24,0,0,4.593176,,,1057.0176230634,4.265092,0,0,0,10,2,16.342,1057.0176230634,4.593176,3.6238428,0,0,0,0,289.4, 1.1, 2.7,0,0,1024,1024,1024,1024,0,0,0,0,292.4,0,0,95,4.084,4.081,4.083,4.081,0,0,8.633,66.74,1057.0176230634,4.593176,6,P-GPS,
26100,2025-01-07 02:26:24,0,0,4.593176,,,1057.0176230634,4.265092,0,0,0,11,2,16.342,1057.0176230634,4.593176,3.6238428,0,0,0,0,289.3, 0.8, 3.1,0,0,1024,1024,1024,1024,0,0,0,0,292.4,0,0,95,4.084,4.081,4.083,4.081,0,0,8.633,66.74,1057.0176230634,4.593176,6,P-GPS,
26300,2025-01-07 02:26:24,0,0,4.593176,,,1057.0176230634,4.265092,0,0,0,10,2,16.342,1057.0176230634,4.593176,3.6238428,0,0,0,0,289.3, 0.1, 3.1,0,0,1024,1024,1024,1024,0,0,0,0,292.4,0,0,95,4.084,4.081,4.083,4.081,0,0,8.633,66.74,1057.0176230634,4.593176,6,P-GPS,
26500,2025-01-07 02:26:24,0,0,4.593176,,,1057.0176230634,4.265092,0,0,0,10,2,16.342,1057.0176230634,4.593176,3.6238428,0,0,0,0,289.1, 0, 2.7,0,0,1024,1024,1024,1024,0,0,0,0,292.4,0,0,95,4.084,4.081,4.083,4.081,0,0,8.633,66.74,1057.0176230634,4.593176,6,P-GPS,
26700,2025-01-07 02:26:24,0,0,4.593176,,,1057.0176230634,4.593176,0,0,0,10,2,16.331,1057.0176230634,4.593176,3.6238428,0,0,0,0,289, 0.2, 3,0,0,1024,1024,1024,1024,0,0,0,0,292.4,0,0,95,4.084,4.081,4.085,4.083,0,0,8.546,66.92,1057.0176230634,4.593176,6,P-GPS,
26900,2025-01-07 02:26:25,0,0,4.593176,,,1057.0176230634,4.593176,0,0,0,9,2,16.331,1057.0176230634,4.593176,3.6238428,0,0,0,0,288.9, 0.1, 3.1,0,0,1024,1024,1024,1024,0,0,0,0,292.4,0,0,95,4.084,4.081,4.085,4.083,0,0,8.546,66.92,1057.0176230634,4.593176,6,P-GPS,
27100,2025-01-07 02:26:25,0,0,4.593176,,,1057.0176230634,4.265092,0,0,0,9,2,16.331,1057.0176230634,4.593176,3.6238428,0,0,0,0,289.2, 0.6, 3.3,0,0,1024,1024,1024,1024,0,0,0,0,292.4,0,0,95,4.084,4.081,4.085,4.083,0,0,8.546,66.92,1057.0176230634,4.593176,6,P-GPS,
27300,2025-01-07 02:26:25,0,0,4.593176,,,1057.0176230634,4.265092,0,0,0,9,2,16.331,1057.0176230634,4.593176,3.6238428,0,0,0,0,289.1, 0.5, 3.1,0,0,1024,1024,1024,1024,0,0,0,0,292.4,0,0,95,4.084,4.081,4.085,4.083,0,0,8.546,66.92,1057.0176230634,4.593176,6,P-GPS,
27500,2025-01-07 02:26:25,0,0,4.593176,,,1057.0176230634,4.265092,0,0,0,9,2,16.331,1057.0176230634,4.593176,3.6238428,0,0,0,0,289.2, 0.6, 2.8,0,0,1024,1024,1024,1024,0,0,0,0,292.4,0,0,95,4.084,4.081,4.085,4.083,0,0,8.546,66.92,1057.0176230634,4.593176,6,P-GPS,
27700,2025-01-07 02:26:25,0,0,4.593176,,,1057.0176230634,4.265092,0,0,0,9,2,16.328,1057.0176230634,4.593176,3.6238428,0,0,0,0,289.1, 0.2, 2.2,0,0,1024,1024,1024,1024,0,0,0,0,292.4,0,0,95,4.083,4.081,4.086,4.081,0,0,8.466,66.92,1057.0176230634,4.593176,6,P-GPS,
27900,2025-01-07 02:26:26,0,0,4.593176,,,1057.0176230634,4.265092,0,0,0,9,2,16.328,1057.0176230634,4.593176,3.6238428,0,0,0,0,288.8, -0.4, 2.6,0,0,1024,1024,1024,1024,0,0,0,0,292.4,0,0,95,4.083,4.081,4.086,4.081,0,0,8.466,66.92,1057.0176230634,4.593176,6,P-GPS,
28100,2025-01-07 02:26:26,0,0,4.593176,,,1057.0176230634,4.265092,0,0,0,10,2,16.328,1057.0176230634,4.593176,3.6238428,0,0,0,0,289.1, 0.4, 3.5,0,0,1024,1024,1024,1024,0,0,0,0,292.4,0,0,95,4.083,4.081,4.086,4.081,0,0,8.466,66.92,1057.0176230634,4.593176,6,P-GPS,
28300,2025-01-07 02:26:26,0,0,4.593176,,,1057.0176230634,4.265092,0,0,0,10,2,16.328,1057.0176230634,4.593176,3.6238428,0,0,0,0,289, 0.5, 2.9,0,0,1024,1024,1024,1024,0,0,0,0,292.4,0,0,95,4.083,4.081,4.086,4.081,0,0,8.466,66.92,1057.0176230634,4.593176,6,P-GPS,
28500,2025-01-07 02:26:26,0,0,4.593176,,,1057.0176230634,4.265092,0,0,0,10,2,16.328,1057.0176230634,4.593176,3.6238428,0,0,0,0,289.1, 0.1, 3,0,0,1024,1024,1024,1024,0,0,0,0,292.4,0,0,95,4.083,4.081,4.086,4.081,0,0,8.466,66.92,1057.0176230634,4.593176,6,P-GPS,
28700,2025-01-07 02:26:26,0,0,4.593176,,,1057.0176230634,4.265092,0,0,0,10,2,16.328,1057.0176230634,4.593176,3.6238428,0,0,0,0,289.2, 0.1, 2.8,0,0,1024,1024,1024,1024,0,0,0,0,292.4,0,0,94,4.08,4.079,4.081,4.079,0,0,8.475,66.92,1057.0176230634,4.593176,6,P-GPS,
28900,2025-01-07 02:26:27,0,0,4.593176,,,1057.0176230634,4.265092,0,0,0,10,2,16.328,1057.0176230634,4.593176,3.6238428,0,0,0,0,289.1, -0.2, 2.4,0,0,1024,1024,1024,1024,0,0,0,0,292.4,0,0,94,4.08,4.079,4.081,4.079,0,0,8.475,66.92,1057.0176230634,4.593176,6,P-GPS,
29100,2025-01-07 02:26:27,0,0,4.593176,,,1057.0176230634,4.265092,0,0,0,10,2,16.328,1057.0176230634,4.593176,3.6238428,0,0,0,0,289, -0.2, 2.4,0,0,1024,1024,1024,1024,0,0,0,0,292.4,0,0,94,4.08,4.079,4.081,4.079,0,0,8.475,66.92,1057.0176230634,4.593176,6,P-GPS,
29300,2025-01-07 02:26:27,0,0,4.593176,,,1057.0176230634,4.265092,0,0,0,11,2,16.328,1057.0176230634,4.593176,3.6238428,0,0,0,0,289, 0, 2.1,0,0,1024,1024,1024,1024,0,0,0,0,292.4,0,0,94,4.08,4.079,4.081,4.079,0,0,8.475,66.92,1057.0176230634,4.593176,6,P-GPS,
29500,2025-01-07 02:26:27,0,0,4.593176,,,1057.0176230634,4.265092,0,0,0,11,2,16.328,1057.0176230634,4.593176,3.6238428,0,0,0,0,289, -0.1, 2.3,0,0,1024,1024,1024,1024,0,0,0,0,292.4,0,0,94,4.08,4.079,4.081,4.079,0,0,8.475,66.92,1057.0176230634,4.593176,6,P-GPS,
29700,2025-01-07 02:26:27,0,0,4.593176,,,1057.0176230634,4.265092,0,0,0,11,2,16.317,1057.0176230634,4.593176,3.6238428,0,0,0,0,289, -0.1, 1.6,0,0,1024,1024,1024,1024,0,0,0,0,292.4,0,0,94,4.082,4.08,4.083,4.08,0,0,8.564,67.1,1057.0176230634,4.593176,6,P-GPS,
29900,2025-01-07 02:26:28,0,0,4.593176,,,1057.0176230634,4.265092,0,0,0,12,2,16.317,1057.0176230634,4.593176,3.6238428,0,0,0,0,289, 0, 2.1,0,0,1024,1024,1024,1024,0,0,0,0,292.4,0,0,94,4.082,4.08,4.083,4.08,0,0,8.564,67.1,1057.0176230634,4.593176,6,P-GPS,
30100,2025-01-07 02:26:28,0,0,4.593176,,,1057.0176230634,4.265092,0,0,0,12,2,16.317,1057.0176230634,4.593176,3.6238428,0,0,0,0,288.9, -0.1, 2.7,0,0,1024,1024,1024,1024,0,0,0,0,292.4,0,0,94,4.082,4.08,4.083,4.08,0,0,8.564,67.1,1057.0176230634,4.593176,6,P-GPS,
30300,2025-01-07 02:26:28,0,0,4.593176,,,1057.0176230634,4.265092,0,0,0,12,2,16.317,1057.0176230634,4.593176,3.6238428,0,0,0,0,289, 0, 2.5,0,0,1024,1024,1024,1024,0,0,0,0,292.4,0,0,94,4.082,4.08,4.083,4.08,0,0,8.564,67.1,1057.0176230634,4.593176,6,P-GPS,
30500,2025-01-07 02:26:28,0,0,4.593176,,,1057.0176230634,4.265092,0,0,0,12,2,16.317,1057.0176230634,4.593176,3.6238428,0,0,0,0,289.2, 0.1, 2.7,0,0,1024,1024,1024,1024,0,0,0,0,292.4,0,0,94,4.082,4.08,4.083,4.08,0,0,8.564,67.1,1057.0176230634,4.593176,6,P-GPS,
30700,2025-01-07 02:26:28,0,0,4.92126,,,1057.3457070634,4.265092,0,0,0,12,2,16.31,1057.3457070634,4.92126,3.6238428,0,0,0,0,288.9, -0.4, 3,0,0,1024,1024,1024,1024,0,0,0,0,292.4,0,0,94,4.078,4.077,4.079,4.079,0,0,8.525,67.1,1057.3457070634,4.92126,6,P-GPS,
30900,2025-01-07 02:26:29,0,0,4.92126,,,1057.3457070634,4.265092,0,0,0,11,2,16.31,1057.3457070634,4.92126,3.6238428,0,0,0,0,288.7, -0.6, 3.1,0,0,1024,1024,1024,1024,0,0,0,0,292.4,0,0,94,4.078,4.077,4.079,4.079,0,0,8.525,67.1,1057.3457070634,4.92126,6,P-GPS,
31100,2025-01-07 02:26:29,0,0,4.92126,,,1057.3457070634,4.265092,0,0,0,11,2,16.31,1057.3457070634,4.92126,3.6238428,0,0,0,0,288.7, -0.4, 3.5,0,0,1024,1024,1024,1024,0,0,0,0,292.4,0,0,94,4.078,4.077,4.079,4.079,0,0,8.525,67.1,1057.3457070634,4.92126,6,P-GPS,
31300,2025-01-07 02:26:29,0,0,4.92126,,,1057.3457070634,4.265092,0,0,0,11,2,16.31,1057.3457070634,4.92126,3.6238428,0,0,0,0,289.1, 0.2, 2,0,0,1024,1024,1024,1024,0,0,0,0,292.4,0,0,94,4.078,4.077,4.079,4.079,0,0,8.525,67.1,1057.3457070634,4.92126,6,P-GPS,
31500,2025-01-07 02:26:29,0,0,4.92126,,,1057.3457070634,4.265092,0,0,0,10,2,16.31,1057.3457070634,4.92126,3.6238428,0,0,0,0,289.1, 0.8, 3,0,0,1024,1024,1024,1024,0,0,0,0,292.4,0,0,94,4.078,4.077,4.079,4.079,0,0,8.525,67.1,1057.3457070634,4.92126,6,P-GPS,
31700,2025-01-07 02:26:29,0,0,4.92126,,,1057.3457070634,4.265092,0,0,0,10,2,16.317,1057.3457070634,4.92126,3.6238428,0,0,0,0,289.2, 0.4, 3.5,0,0,1024,1024,1024,1024,0,0,0,0,292.4,0,0,94,4.079,4.076,4.079,4.076,0,0,8.479,67.28,1057.3457070634,4.92126,6,P-GPS,
31900,2025-01-07 02:26:30,0,0,4.92126,,,1057.3457070634,4.265092,0,0,0,10,2,16.317,1057.3457070634,4.92126,3.6238428,0,0,0,0,289.1, 0.2, 3.2,0,0,1024,1024,1024,1024,0,0,0,0,292.4,0,0,94,4.079,4.076,4.079,4.076,0,0,8.479,67.28,1057.3457070634,4.92126,6,P-GPS,
32100,2025-01-07 02:26:30,0,0,4.92126,,,1057.3457070634,4.265092,0,0,0,10,2,16.317,1057.3457070634,4.92126,3.6238428,0,0,0,0,289.1, 0, 3.3,0,0,1024,1024,1024,1024,0,0,0,0,292.4,0,0,94,4.079,4.076,4.079,4.076,0,0,8.479,67.28,1057.3457070634,4.92126,6,P-GPS,
32300,2025-01-07 02:26:30,0,0,4.92126,,,1057.3457070634,4.265092,0,0,0,10,2,16.317,1057.3457070634,4.92126,3.6238428,0,0,0,0,289.1, 0, 2.6,0,0,1024,1024,1024,1024,0,0,0,0,292.4,0,0,94,4.079,4.076,4.079,4.076,0,0,8.479,67.28,1057.3457070634,4.92126,6,P-GPS,
32500,2025-01-07 02:26:30,0,0,4.92126,,,1057.3457070634,4.265092,0,0,0,10,2,16.317,1057.3457070634,4.92126,3.6238428,0,0,0,0,289.1, -0.1, 2.6,0,0,1024,1024,1024,1024,0,0,0,0,292.4,0,0,94,4.079,4.076,4.079,4.076,0,0,8.479,67.28,1057.3457070634,4.92126,6,P-GPS,
32700,2025-01-07 02:26:30,0,0,4.92126,,,1057.3457070634,4.593176,0,0,0,10,2,16.307,1057.3457070634,4.92126,3.6238428,0,0,0,0,288.9, -0.1, 3.4,0,0,1024,1024,1024,1024,0,0,0,0,292.4,0,0,94,4.075,4.075,4.077,4.076,0,0,8.55,67.46,1057.3457070634,4.92126,6,P-GPS,
32900,2025-01-07 02:26:31,0,0,4.92126,,,1057.3457070634,4.593176,0,0,0,11,2,16.307,1057.3457070634,4.92126,3.6238428,0,0,0,0,288.8, 0.3, 4,0,0,1024,1024,1024,1024,0,0,0,0,292.4,0,0,94,4.075,4.075,4.077,4.076,0,0,8.55,67.46,1057.3457070634,4.92126,6,P-GPS,
33100,2025-01-07 02:26:31,0,0,4.92126,,,1057.3457070634,4.593176,0,0,0,11,2,16.307,1057.3457070634,4.92126,3.6238428,0,0,0,0,288.8, 0.5, 3,0,0,1024,1024,1024,1024,0,0,0,0,292.4,0,0,94,4.075,4.075,4.077,4.076,0,0,8.55,67.46,1057.3457070634,4.92126,6,P-GPS,
33300,2025-01-07 02:26:31,0,0,4.92126,,,1057.3457070634,4.593176,0,0,0,11,2,16.307,1057.3457070634,4.92126,3.6238428,0,0,0,0,289.1, 0.2, 3.5,0,0,1024,1024,1024,1024,0,0,0,0,292.4,0,0,94,4.075,4.075,4.077,4.076,0,0,8.55,67.46,1057.3457070634,4.92126,6,P-GPS,
33500,2025-01-07 02:26:31,0,0,4.92126,,,1057.3457070634,4.593176,0,0,0,11,2,16.307,1057.3457070634,4.92126,3.6238428,0,0,0,0,289.3, 0.8, 3.2,0,0,1024,1024,1024,1024,0,0,0,0,292.4,0,0,94,4.075,4.075,4.077,4.076,0,0,8.55,67.46,1057.3457070634,4.92126,6,P-GPS,
33700,2025-01-07 02:26:31,0,0,4.92126,,,1057.3457070634,4.265092,0,0,0,11,2,16.307,1057.3457070634,4.92126,3.6238428,0,0,0,0,289.1, -0.5, 2.5,0,0,1024,1024,1024,1024,0,0,0,0,292.4,0,0,94,4.075,4.075,4.077,4.076,0,0,8.55,67.46,1057.3457070634,4.92126,6,P-GPS,
33900,2025-01-07 02:26:32,0,0,4.92126,,,1057.3457070634,4.265092,0,0,0,11,2,16.29,1057.3457070634,4.92126,3.6238428,0,0,0,0,288.7, -1.2, 3.3,0,0,1024,1024,1024,1024,0,0,0,0,292.4,0,0,94,4.072,4.068,4.069,4.068,0,0,8.61,67.46,1057.3457070634,4.92126,6,P-GPS,
34100,2025-01-07 02:26:32,0,0,4.92126,,,1057.3457070634,4.593176,0,0,0,11,2,16.29,1057.3457070634,4.92126,3.6238428,0,0,0,0,288.6, -0.5, 3.2,0,0,1024,1024,1024,1024,0,0,0,0,292.4,0,0,94,4.072,4.068,4.069,4.068,0,0,8.61,67.46,1057.3457070634,4.92126,6,P-GPS,
34300,2025-01-07 02:26:32,0,0,4.92126,,,1057.3457070634,4.593176,0,0,0,11,2,16.29,1057.3457070634,4.92126,3.6238428,0,0,0,0,289, -0.7, 3.6,0,0,1024,1024,1024,1024,0,0,0,0,292.4,0,0,94,4.072,4.068,4.069,4.068,0,0,8.61,67.46,1057.3457070634,4.92126,6,P-GPS,
34500,2025-01-07 02:26:32,0,0,4.92126,,,1057.3457070634,4.593176,0,0,0,11,2,16.29,1057.3457070634,4.92126,3.6238428,0,0,0,0,289.1, 0.6, 3.3,0,0,1024,1024,1024,1024,0,0,0,0,292.4,0,0,94,4.072,4.068,4.069,4.068,0,0,8.61,67.46,1057.3457070634,4.92126,6,P-GPS,
34700,2025-01-07 02:26:32,0,0,4.92126,,,1057.3457070634,4.593176,0,0,0,11,2,16.29,1057.3457070634,4.92126,3.6238428,0,0,0,0,289.2, 0.4, 2.4,0,0,1024,1024,1024,1024,0,0,0,0,292.4,0,0,94,4.072,4.068,4.069,4.068,0,0,8.61,67.46,1057.3457070634,4.92126,6,P-GPS,
34900,2025-01-07 02:26:33,0,0,4.92126,,,1057.3457070634,4.265092,0,0,0,11,2,16.281,1057.3457070634,4.92126,3.6238428,0,0,0,0,288.9, 0, 3,0,0,1024,1024,1024,1024,0,0,0,0,292.4,0,0,94,4.072,4.069,4.072,4.072,0,0,8.808,67.64,1057.3457070634,4.92126,6,P-GPS,
35100,2025-01-07 02:26:33,0,0,4.92126,,,1057.3457070634,4.593176,0,0,0,11,2,16.281,1057.3457070634,4.92126,3.6238428,0,0,0,0,289.2, -0.4, 2.3,0,0,1024,1024,1024,1024,0,0,0,0,292.4,0,0,94,4.072,4.069,4.072,4.072,0,0,8.808,67.64,1057.3457070634,4.92126,6,P-GPS,
35300,2025-01-07 02:26:33,0,0,4.92126,,,1057.3457070634,4.593176,0,0,0,11,2,16.281,1057.3457070634,4.92126,3.6238428,0,0,0,0,289, -0.9, 2.5,0,0,1024,1024,1024,1024,0,0,0,0,292.4,0,0,94,4.072,4.069,4.072,4.072,0,0,8.808,67.64,1057.3457070634,4.92126,6,P-GPS,
35500,2025-01-07 02:26:33,0,0,4.92126,,,1057.3457070634,4.593176,0,0,0,11,2,16.281,1057.3457070634,4.92126,3.6238428,0,0,0,0,288.9, -0.2, 2.7,0,0,1024,1024,1024,1024,0,0,0,0,292.4,0,0,94,4.072,4.069,4.072,4.072,0,0,8.808,67.64,1057.3457070634,4.92126,6,P-GPS,
35700,2025-01-07 02:26:33,0,0,4.92126,,,1057.3457070634,4.593176,0,0,0,10,2,16.281,1057.3457070634,4.92126,3.6238428,0,0,0,0,289.2, -0.6, 1.1,0,0,1024,1024,1024,1024,0,0,0,0,292.4,0,0,94,4.072,4.069,4.072,4.072,0,0,8.808,67.64,1057.3457070634,4.92126,6,P-GPS,
35900,2025-01-07 02:26:34,0,0,4.92126,,,1057.3457070634,4.593176,0,0,0,10,2,16.276,1057.3457070634,4.92126,3.6238428,0,0,0,0,288.8, -0.1, 0.8,0,0,1024,1024,1024,1024,0,0,0,0,292.4,0,0,94,4.071,4.07,4.072,4.07,0,0,8.796,67.82,1057.3457070634,4.92126,6,P-GPS,
36100,2025-01-07 02:26:34,0,0,4.92126,,,1057.3457070634,4.593176,0,0,0,10,2,16.276,1057.3457070634,4.92126,3.6238428,0,0,0,0,289, 0.8, 1.7,0,0,1024,1024,1024,1024,0,0,0,0,292.4,0,0,94,4.071,4.07,4.072,4.07,0,0,8.796,67.82,1057.3457070634,4.92126,6,P-GPS,
36300,2025-01-07 02:26:34,0,0,4.92126,,,1057.3457070634,4.265092,0,0,0,11,2,16.276,1057.3457070634,4.92126,3.6238428,0,0,0,0,288.8, 0.9, 1.9,0,0,1024,1024,1024,1024,0,0,0,0,292.4,0,0,94,4.071,4.07,4.072,4.07,0,0,8.796,67.82,1057.3457070634,4.92126,6,P-GPS,
36500,2025-01-07 02:26:34,0,0,4.92126,,,1057.3457070634,4.265092,0,0,0,11,2,16.276,1057.3457070634,4.92126,3.6238428,0,0,0,0,288.7, 0.5, 2,0,0,1024,1024,1024,1024,0,0,0,0,292.4,0,0,94,4.071,4.07,4.072,4.07,0,0,8.796,67.82,1057.3457070634,4.92126,6,P-GPS,
36700,2025-01-07 02:26:34,0,0,4.92126,,,1057.3457070634,4.265092,0,0,0,11,2,16.276,1057.3457070634,4.92126,3.6238428,0,0,0,0,288.7, 0.1, 2.6,0,0,1024,1024,1024,1024,0,0,0,0,292.4,0,0,94,4.071,4.07,4.072,4.07,0,0,8.796,67.82,1057.3457070634,4.92126,6,P-GPS,
36900,2025-01-07 02:26:35,0,0,4.92126,,,1057.3457070634,4.593176,0,0,0,11,2,16.274,1057.3457070634,4.92126,3.6238428,0,0,0,0,288.8, 0, 2.5,0,0,1024,1024,1024,1024,0,0,0,0,292.4,0,0,94,4.07,4.069,4.073,4.072,0,0,8.804,67.82,1057.3457070634,4.92126,6,P-GPS,
37100,2025-01-07 02:26:35,0,0,4.92126,,,1057.3457070634,4.593176,0,0,0,11,2,16.274,1057.3457070634,4.92126,3.6238428,0,0,0,0,288.7, 0.2, 3,0,0,1024,1024,1024,1024,0,0,0,0,292.4,0,0,94,4.07,4.069,4.073,4.072,0,0,8.804,67.82,1057.3457070634,4.92126,6,P-GPS,
37300,2025-01-07 02:26:35,0,0,4.92126,,,1057.3457070634,4.593176,0,0,0,11,2,16.274,1057.3457070634,4.92126,3.6238428,0,0,0,0,289, 0.5, 2.4,0,0,1024,1024,1024,1024,0,0,0,0,292.4,0,0,94,4.07,4.069,4.073,4.072,0,0,8.804,67.82,1057.3457070634,4.92126,6,P-GPS,
37500,2025-01-07 02:26:35,0,0,4.92126,,,1057.3457070634,4.593176,0,0,0,10,2,16.274,1057.3457070634,4.92126,3.6238428,0,0,0,0,288.8, -0.6, 2.3,0,0,1024,1024,1024,1024,0,0,0,0,292.4,0,0,94,4.07,4.069,4.073,4.072,0,0,8.804,67.82,1057.3457070634,4.92126,6,P-GPS,
37700,2025-01-07 02:26:35,0,0,4.92126,,,1057.3457070634,4.593176,0,0,0,10,2,16.274,1057.3457070634,4.92126,3.6238428,0,0,0,0,289.2, -0.7, 2.6,0,0,1024,1024,1024,1024,0,0,0,0,292.4,0,0,94,4.07,4.069,4.073,4.072,0,0,8.804,67.82,1057.3457070634,4.92126,6,P-GPS,
37900,2025-01-07 02:26:36,0,0,4.92126,,,1057.3457070634,4.593176,0,0,0,10,2,16.289,1057.3457070634,4.92126,3.6238428,0,0,0,0,289.1, -0.2, 2.2,0,0,1024,1024,1024,1024,0,0,0,0,292.4,0,0,94,4.072,4.069,4.069,4.07,0,0,8.595,67.82,1057.3457070634,4.92126,6,P-GPS,
38100,2025-01-07 02:26:36,0,0,4.92126,,,1057.3457070634,4.593176,0,0,0,10,2,16.289,1057.3457070634,4.92126,3.6238428,0,0,0,0,289, 0.2, 1.3,0,0,1024,1024,1024,1024,0,0,0,0,292.4,0,0,94,4.072,4.069,4.069,4.07,0,0,8.595,67.82,1057.3457070634,4.92126,6,P-GPS,
38300,2025-01-07 02:26:36,0,0,4.92126,,,1057.3457070634,4.593176,0,0,0,10,2,16.289,1057.3457070634,4.92126,3.6238428,0,0,0,0,288.9, 0.4, 0,0,0,1024,1024,1024,1024,0,0,0,0,292.4,0,0,94,4.072,4.069,4.069,4.07,0,0,8.595,67.82,1057.3457070634,4.92126,6,P-GPS,
38500,2025-01-07 02:26:36,0,0,5.249344,,,1057.6737910634,4.593176,0,0,0,11,2,16.289,1057.6737910634,5.249344,3.6238428,0,0,0,0,288.6, 2, 0.9,0,0,1024,1024,1024,1024,0,0,0,0,292.4,0,0,94,4.072,4.069,4.069,4.07,0,0,8.595,67.82,1057.6737910634,5.249344,6,P-GPS,
38700,2025-01-07 02:26:36,0,0,5.249344,,,1057.6737910634,4.593176,0,0,0,11,2,16.289,1057.6737910634,5.249344,3.6238428,0,0,0,0,289.4, 1.4, 0,0,0,1024,1024,1024,1024,0,0,0,0,292.4,0,0,94,4.072,4.069,4.069,4.07,0,0,8.595,67.82,1057.6737910634,5.249344,6,P-GPS,
38900,2025-01-07 02:26:37,0,0,5.249344,,,1057.6737910634,4.265092,0,0,0,10,2,16.274,1057.6737910634,5.249344,3.6238428,0,0,0,0,289.1, 0.2, 0.1,0,0,1024,1024,1024,1024,0,0,0,0,292.4,0,0,94,4.078,4.076,4.077,4.077,0,0,8.666,68,1057.6737910634,5.249344,6,P-GPS,
39100,2025-01-07 02:26:37,0,0,5.249344,,,1057.6737910634,4.593176,0,0,0,9,2,16.274,1057.6737910634,5.249344,3.6238428,0,0,0,0,289.1, -0.2, 1.7,0,0,1024,1024,1024,1024,0,0,0,0,292.4,0,0,94,4.078,4.076,4.077,4.077,0,0,8.666,68,1057.6737910634,5.249344,6,P-GPS,
39300,2025-01-07 02:26:37,0,0,4.92126,,,1057.3457070634,4.593176,0,0,0,9,2,16.274,1057.6737910634,5.249344,3.6238428,0,0,0,0,289.2, 0.3, 1.5,0,0,1024,1024,1024,1024,0,0,0,0,292.4,0,0,94,4.078,4.076,4.077,4.077,0,0,8.666,68,1057.3457070634,4.92126,6,P-GPS,
39500,2025-01-07 02:26:37,0,0,4.92126,,,1057.3457070634,4.593176,0,0,0,9,2,16.274,1057.6737910634,5.249344,3.6238428,0,0,0,0,289.1, 0.7, 1.7,0,0,1024,1024,1024,1024,0,0,0,0,292.4,0,0,94,4.078,4.076,4.077,4.077,0,0,8.666,68,1057.3457070634,4.92126,6,P-GPS,
39700,2025-01-07 02:26:37,0,0,4.92126,,,1057.3457070634,4.593176,0,0,0,9,2,16.274,1057.6737910634,5.249344,3.6238428,0,0,0,0,289, 0.5, 2.3,0,0,1024,1024,1024,1024,0,0,0,0,292.4,0,0,94,4.078,4.076,4.077,4.077,0,0,8.666,68,1057.3457070634,4.92126,6,P-GPS,
39900,2025-01-07 02:26:38,0,0,4.92126,,,1057.3457070634,4.593176,0,0,0,9,2,16.289,1057.6737910634,5.249344,3.6238428,0,0,0,0,289.1, 0.4, 2.7,0,0,1024,1024,1024,1024,0,0,0,0,292.4,0,0,94,4.07,4.069,4.071,4.07,0,0,8.32,68,1057.3457070634,4.92126,6,P-GPS,
40100,2025-01-07 02:26:38,0,0,4.92126,,,1057.3457070634,4.593176,0,0,0,8,2,16.289,1057.6737910634,5.249344,3.6238428,0,0,0,0,289.1, 0.1, 2.3,0,0,1024,1024,1024,1024,0,0,0,0,292.4,0,0,94,4.07,4.069,4.071,4.07,0,0,8.32,68,1057.3457070634,4.92126,6,P-GPS,
40300,2025-01-07 02:26:38,0,0,4.92126,,,1057.3457070634,4.593176,0,0,0,8,2,16.289,1057.6737910634,5.249344,3.6238428,0,0,0,0,289, 0.1, 2.3,0,0,1024,1024,1024,1024,0,0,0,0,292.4,0,0,94,4.07,4.069,4.071,4.07,0,0,8.32,68,1057.3457070634,4.92126,6,P-GPS,
40500,2025-01-07 02:26:38,0,0,4.92126,,,1057.3457070634,4.593176,0,0,0,9,2,16.289,1057.6737910634,5.249344,3.6238428,0,0,0,0,288.7, 0.4, 2.2,0,0,1024,1024,1024,1024,0,0,0,0,292.4,0,0,94,4.07,4.069,4.071,4.07,0,0,8.32,68,1057.3457070634,4.92126,6,P-GPS,
40700,2025-01-07 02:26:38,0,0,4.92126,,,1057.3457070634,4.593176,0,0,0,8,2,16.289,1057.6737910634,5.249344,3.6238428,0,0,0,0,288.8, 0.1, 2.7,0,0,1024,1024,1024,1024,0,0,0,0,292.4,0,0,94,4.07,4.069,4.071,4.07,0,0,8.32,68,1057.3457070634,4.92126,6,P-GPS,
40900,2025-01-07 02:26:39,0,0,4.92126,,,1057.3457070634,4.593176,0,0,0,8,2,16.282,1057.6737910634,5.249344,3.6238428,0,0,0,0,289, 0.6, 2,0,0,1024,1024,1024,1024,0,0,0,0,292.4,0,0,94,4.07,4.071,4.071,4.071,0,0,8.578,68,1057.3457070634,4.92126,6,P-GPS,
41100,2025-01-07 02:26:39,0,0,4.92126,,,1057.3457070634,4.593176,0,0,0,8,2,16.282,1057.6737910634,5.249344,3.6238428,0,0,0,0,288.9, 1, 1.6,0,0,1024,1024,1024,1024,0,0,0,0,292.4,0,0,94,4.07,4.071,4.071,4.071,0,0,8.578,68,1057.3457070634,4.92126,6,P-GPS,
41300,2025-01-07 02:26:39,0,0,4.92126,,,1057.3457070634,4.593176,0,0,0,8,2,16.282,1057.6737910634,5.249344,3.6238428,0,0,0,0,289.1, 1.2, 1.1,0,0,1024,1024,1024,1024,0,0,0,0,292.4,0,0,94,4.07,4.071,4.071,4.071,0,0,8.578,68,1057.3457070634,4.92126,6,P-GPS,
41500,2025-01-07 02:26:39,0,0,4.92126,,,1057.3457070634,4.593176,0,0,0,6,2,16.282,1057.6737910634,5.249344,3.6238428,0,0,0,0,288.9, 0.7, 1.6,0,0,1024,1024,1024,1024,0,0,0,0,292.4,0,0,94,4.07,4.071,4.071,4.071,0,0,8.578,68,1057.3457070634,4.92126,6,P-GPS,
41700,2025-01-07 02:26:39,0,0,4.92126,,,1057.3457070634,4.593176,0,0,0,7,2,16.282,1057.6737910634,5.249344,3.6238428,0,0,0,0,289, 0.2, 1.9,0,0,1024,1024,1024,1024,0,0,0,0,292.4,0,0,94,4.07,4.071,4.071,4.071,0,0,8.578,68,1057.3457070634,4.92126,6,P-GPS,
41900,2025-01-07 02:26:40,0,0,4.92126,,,1057.3457070634,4.593176,0,0,0,8,2,16.281,1057.6737910634,5.249344,3.6238428,0,0,0,0,288.9, 0, 2.2,0,0,1024,1024,1024,1024,0,0,0,0,292.4,0,0,94,4.072,4.07,4.072,4.071,0,0,8.487,68.18,1057.3457070634,4.92126,6,P-GPS,
42100,2025-01-07 02:26:40,0,0,4.92126,,,1057.3457070634,4.593176,0,0,0,8,2,16.281,1057.6737910634,5.249344,3.6238428,0,0,0,0,289, -0.4, 2.7,0,0,1024,1024,1024,1024,0,0,0,0,292.4,0,0,94,4.072,4.07,4.072,4.071,0,0,8.487,68.18,1057.3457070634,4.92126,6,P-GPS,
42300,2025-01-07 02:26:40,0,0,4.92126,,,1057.3457070634,4.593176,0,0,0,8,2,16.281,1057.6737910634,5.249344,3.6238428,0,0,0,0,289.1, 0, 1.9,0,0,1024,1024,1024,1024,0,0,0,0,292.4,0,0,94,4.072,4.07,4.072,4.071,0,0,8.487,68.18,1057.3457070634,4.92126,6,P-GPS,
42500,2025-01-07 02:26:40,0,0,4.92126,,,1057.3457070634,4.593176,0,0,0,8,2,16.281,1057.6737910634,5.249344,3.6238428,0,0,0,0,289.1, 0.5, 1.5,0,0,1024,1024,1024,1024,0,0,0,0,292.4,0,0,94,4.072,4.07,4.072,4.071,0,0,8.487,68.18,1057.3457070634,4.92126,6,P-GPS,
42700,2025-01-07 02:26:40,0,0,4.92126,,,1057.3457070634,4.593176,0,0,0,8,2,16.281,1057.6737910634,5.249344,3.6238428,0,0,0,0,289.2, 1, 1.6,0,0,1024,1024,1024,1024,0,0,0,0,292.4,0,0,94,4.072,4.07,4.072,4.071,0,0,8.487,68.18,1057.3457070634,4.92126,6,P-GPS,
42900,2025-01-07 02:26:41,0,0,4.92126,,,1057.3457070634,4.593176,0,0,0,8,2,16.284,1057.6737910634,5.249344,3.6238428,0,0,0,0,289.2, 0.3, 1.9,0,0,1024,1024,1024,1024,0,0,0,0,292.4,0,0,94,4.069,4.067,4.07,4.071,0,0,8.443,68.18,1057.3457070634,4.92126,6,P-GPS,
43100,2025-01-07 02:26:41,0,0,4.92126,,,1057.3457070634,4.593176,0,0,0,8,2,16.284,1057.6737910634,5.249344,3.6238428,0,0,0,0,289.2, -0.1, 1.9,0,0,1024,1024,1024,1024,0,0,0,0,292.4,0,0,94,4.069,4.067,4.07,4.071,0,0,8.443,68.18,1057.3457070634,4.92126,6,P-GPS,
43300,2025-01-07 02:26:41,0,0,4.92126,,,1057.3457070634,4.593176,0,0,0,8,2,16.284,1057.6737910634,5.249344,3.6238428,0,0,0,0,289.2, 0.1, 2.1,0,0,1024,1024,1024,1024,0,0,0,0,292.4,0,0,94,4.069,4.067,4.07,4.071,0,0,8.443,68.18,1057.3457070634,4.92126,6,P-GPS,
43500,2025-01-07 02:26:41,0,0,4.92126,,,1057.3457070634,4.593176,0,0,0,9,2,16.284,1057.6737910634,5.249344,3.6238428,0,0,0,0,289.3, 0.2, 1.8,0,0,1024,1024,1024,1024,0,0,0,0,292.4,0,0,94,4.069,4.067,4.07,4.071,0,0,8.443,68.18,1057.3457070634,4.92126,6,P-GPS,
43700,2025-01-07 02:26:41,0,0,4.92126,,,1057.3457070634,4.593176,0,0,0,9,2,16.284,1057.6737910634,5.249344,3.6238428,0,0,0,0,289.4, 0.4, 2.2,0,0,1024,1024,1024,1024,0,0,0,0,292.4,0,0,94,4.069,4.067,4.07,4.071,0,0,8.443,68.18,1057.3457070634,4.92126,6,P-GPS,
43900,2025-01-07 02:26:42,0,0,4.92126,,,1057.3457070634,4.593176,0,0,0,8,2,16.286,1057.6737910634,5.249344,3.6238428,0,0,0,0,289.5, -0.1, 2.4,0,0,1024,1024,1024,1024,0,0,0,0,292.4,0,0,94,4.071,4.069,4.072,4.071,0,0,8.458,68.36,1057.3457070634,4.92126,6,P-GPS,
44100,2025-01-07 02:26:42,0,0,4.92126,,,1057.3457070634,4.593176,0,0,0,8,2,16.286,1057.6737910634,5.249344,3.6238428,0,0,0,0,289.2, 0.1, 2,0,0,1024,1024,1024,1024,0,0,0,0,292.4,0,0,94,4.071,4.069,4.072,4.071,0,0,8.458,68.36,1057.3457070634,4.92126,6,P-GPS,
44300,2025-01-07 02:26:42,0,0,4.92126,,,1057.3457070634,4.593176,0,0,0,8,2,16.286,1057.6737910634,5.249344,3.6238428,0,0,0,0,289.3, -0.5, 2.2,0,0,1024,1024,1024,1024,0,0,0,0,292.4,0,0,94,4.071,4.069,4.072,4.071,0,0,8.458,68.36,1057.3457070634,4.92126,6,P-GPS,
44500,2025-01-07 02:26:42,0,0,4.92126,,,1057.3457070634,4.593176,0,0,0,8,2,16.286,1057.6737910634,5.249344,3.6238428,0,0,0,0,288.9, -0.8, 2.4,0,0,1024,1024,1024,1024,0,0,0,0,292.4,0,0,94,4.071,4.069,4.072,4.071,0,0,8.458,68.36,1057.3457070634,4.92126,6,P-GPS,
44700,2025-01-07 02:26:42,0,0,4.92126,,,1057.3457070634,4.593176,0,0,0,8,2,16.286,1057.6737910634,5.249344,3.6238428,0,0,0,0,288.9, -1.6, 2,0,0,1024,1024,1024,1024,0,0,0,0,292.4,0,0,94,4.071,4.069,4.072,4.071,0,0,8.458,68.36,1057.3457070634,4.92126,6,P-GPS,
44900,2025-01-07 02:26:43,0,0,4.92126,,,1057.3457070634,4.593176,0,0,0,8,2,16.264,1057.6737910634,5.249344,3.6238428,0,0,0,0,288.9, -2, 1.4,0,0,1024,1024,1024,1024,0,0,0,0,292.4,0,0,94,4.071,4.069,4.071,4.071,0,0,8.476,68.54,1057.3457070634,4.92126,6,P-GPS,
45100,2025-01-07 02:26:43,0,0,4.92126,,,1057.3457070634,4.593176,0,0,0,8,2,16.264,1057.6737910634,5.249344,3.6238428,0,0,0,0,289, -1.3, 0.4,0,0,1024,1024,1024,1024,0,0,0,0,292.4,0,0,94,4.071,4.069,4.071,4.071,0,0,8.476,68.54,1057.3457070634,4.92126,6,P-GPS,
