time(millisecond),datetime(utc),latitude,longitude,height_above_takeoff(feet),height_above_ground_at_drone_location(feet),ground_elevation_at_drone_location(feet),altitude_above_seaLevel(feet),height_sonar(feet),speed(mph),distance(feet),mileage(feet),satellites,gpslevel,voltage(v),max_altitude(feet),max_ascent(feet),max_speed(mph),max_distance(feet), xSpeed(mph), ySpeed(mph), zSpeed(mph), compass_heading(degrees), pitch(degrees), roll(degrees),isPhoto,isVideo,rc_elevator,rc_aileron,rc_throttle,rc_rudder,rc_elevator(percent),rc_aileron(percent),rc_throttle(percent),rc_rudder(percent),gimbal_heading(degrees),gimbal_pitch(degrees),gimbal_roll(degrees),battery_percent,voltageCell1,voltageCell2,voltageCell3,voltageCell4,voltageCell5,voltageCell6,current(A),battery_temperature(f),altitude(feet),ascent(feet),flycStateRaw,flycState,message
0,2025-01-07 02:44:39,0,0,0,Available with any HD 360 subscription,Available with any HD 360 subscription,1050.8257783771,0,0,0,0,16,2,0,1050.8257783771,0,0,0,0,0,0,70.8, 1.2, 1.2,0,0,1024,1024,1024,1024,0,0,0,0,68.6,0,0,98,3.971,3.938,3.937,0,0,0,0,65.12,1050.8257783771,0,41,Motors_Started,
100,2025-01-07 02:44:39,0,0,0,,,1050.8257783771,0,0,0,0,16,2,0,1050.8257783771,0,0,0,0,0,0,70.8, 1.2, 1.2,0,0,1024,1024,1024,1024,0,0,0,0,68.6,0,0,98,3.971,3.938,3.937,0,0,0,0,65.12,1050.8257783771,0,41,Motors_Started,
200,2025-01-07 02:44:39,0,0,0,,,1050.8257783771,0,0,0,0,16,2,0,1050.8257783771,0,0,0,0,0,0,70.7, 1.2, 1.2,0,0,1024,1024,1024,1024,0,0,0,0,68.6,0,0,98,3.971,3.938,3.937,0,0,0,0,65.12,1050.8257783771,0,41,Motors_Started,
300,2025-01-07 02:44:39,0,0,0,,,1050.8257783771,0,0,0,0,16,2,0,1050.8257783771,0,0,0,0,0,0,70.7, 1.2, 1.2,0,0,1024,1024,1024,1024,0,0,0,0,68.6,0,0,98,3.971,3.938,3.937,0,0,0,0,65.12,1050.8257783771,0,41,Motors_Started,
400,2025-01-07 02:44:39,0,0,0,,,1050.8257783771,0,0,0,0,16,2,0,1050.8257783771,0,0,0,0,0,0,70.7, 1.2, 1.2,0,0,1024,1024,1024,1024,0,0,0,0,68.6,0,0,98,3.971,3.938,3.937,0,0,0,0,65.12,1050.8257783771,0,41,Motors_Started,
500,2025-01-07 02:44:40,0,0,0,,,1050.8257783771,0,0,0,0,16,2,0,1050.8257783771,0,0,0,0,0,0,70.8, 1.2, 1.2,0,0,1024,1024,1024,1024,0,0,0,0,68.6,0,0,98,3.971,3.938,3.937,0,0,0,0,65.12,1050.8257783771,0,41,Motors_Started,
600,2025-01-07 02:44:40,0,0,0,,,1050.8257783771,0,0,0,0,16,2,0,1050.8257783771,0,0,0,0,0,0,70.8, 1.2, 1.2,0,0,1024,1024,1024,1024,0,0,0,0,68.6,0,0,98,3.971,3.938,3.937,0,0,0,0,65.12,1050.8257783771,0,41,Motors_Started,
700,2025-01-07 02:44:40,0,0,0,,,1050.8257783771,0,0,0,0,16,2,0,1050.8257783771,0,0,0,0,0,0,70.8, 1.2, 1.2,0,0,1024,1024,1024,1024,0,0,0,0,68.6,0,0,98,3.971,3.938,3.937,0,0,0,0,65.12,1050.8257783771,0,41,Motors_Started,
800,2025-01-07 02:44:40,0,0,0,,,1050.8257783771,0,0,0,0,16,2,0,1050.8257783771,0,0,0,0,0,0,70.8, 1.2, 1.2,0,0,1024,1024,1024,1024,0,0,0,0,68.6,0,0,98,3.971,3.938,3.937,0,0,0,0,65.12,1050.8257783771,0,41,Motors_Started,"Setting new Return-To-Home altitude to 100m (328 ft). Data Recorder File Index is 10. Setting new Maximum Flight Altitude to 30m (98 ft)"
900,2025-01-07 02:44:40,0,0,0,,,1050.8257783771,0,0,0,0,16,2,0,1050.8257783771,0,0,0,0,0,0,70.8, 1.3, 1.2,0,0,1024,1024,1024,1024,0,0,0,0,68.6,0,0,98,3.971,3.938,3.937,0,0,0,0,65.12,1050.8257783771,0,41,Motors_Started,
1000,2025-01-07 02:44:40,0,0,0,,,1050.8257783771,0,0,0,0,16,2,11.927,1050.8257783771,0,0,0,0,0,0,70.7, 1.3, 1.2,0,0,1024,1024,1024,1024,0,0,0,0,68.6,0,0,98,3.971,3.938,3.937,0,0,0,2.33,65.12,1050.8257783771,0,41,Motors_Started,
1100,2025-01-07 02:44:40,0,0,0,,,1050.8257783771,0,0,0,0,16,2,11.927,1050.8257783771,0,0,0,0,0,0,70.6, 1, 1.2,0,0,1024,1024,1024,1024,0,0,0,0,68.6,0,0,98,3.971,3.938,3.937,0,0,0,2.33,65.12,1050.8257783771,0,41,Motors_Started,
1200,2025-01-07 02:44:40,0,0,0,,,1050.8257783771,0,0,0,0,16,2,11.927,1050.8257783771,0,0,0,0,0,0,70.5, -0.2, 1.1,0,0,1024,1024,1024,1024,0,0,0,0,68.6,0,0,98,3.971,3.938,3.937,0,0,0,2.33,65.12,1050.8257783771,0,41,Motors_Started,
1300,2025-01-07 02:44:40,0,0,0,,,1050.8257783771,0,0,0,0,16,2,11.927,1050.8257783771,0,0,0,0,0,0,70.5, 0.6, 1.2,0,0,1024,1024,1024,1024,0,0,0,0,68.6,0,0,98,3.971,3.938,3.937,0,0,0,2.33,65.12,1050.8257783771,0,41,Motors_Started,
1400,2025-01-07 02:44:40,0,0,0,,,1050.8257783771,0,0,0,0,16,2,11.927,1050.8257783771,0,0,0,0,0,0,70.5, 0.9, 1.2,0,0,1024,1024,1024,1024,0,0,0,0,68.6,0,0,98,3.971,3.938,3.937,0,0,0,2.33,65.12,1050.8257783771,0,41,Motors_Started,
1500,2025-01-07 02:44:41,0,0,0,,,1050.8257783771,0,0,0,0,16,2,11.927,1050.8257783771,0,0,0,0,0,0,70.4, 0.8, 1.2,0,0,1024,1024,1024,1024,0,0,0,0,68.6,0,0,98,3.971,3.938,3.937,0,0,0,2.33,65.12,1050.8257783771,0,11,AutoTakeoff,
1600,2025-01-07 02:44:41,0,0,0,,,1050.8257783771,0,0,0,0,16,2,11.927,1050.8257783771,0,0,0,0,0,0,70.3, 0.5, 1.2,0,0,1024,1024,1024,1024,0,0,0,0,68.6,0,0,98,3.971,3.938,3.937,0,0,0,2.33,65.12,1050.8257783771,0,11,AutoTakeoff,
1700,2025-01-07 02:44:41,0,0,0,,,1050.8257783771,0,0,0,0,16,2,11.927,1050.8257783771,0,0,0,0,0,0,70.2, 0, 1.1,0,0,1024,1024,1024,1024,0,0,0,0,68.6,0,0,98,3.971,3.938,3.937,0,0,0,2.33,65.12,1050.8257783771,0,11,AutoTakeoff,
1800,2025-01-07 02:44:41,0,0,0,,,1050.8257783771,0,0,0,0,16,2,11.927,1050.8257783771,0,0,0,0,0,0,70.1, 0, 1.1,0,0,1024,1024,1024,1024,0,0,0,0,68.6,0,0,98,3.971,3.938,3.937,0,0,0,2.33,65.12,1050.8257783771,0,11,AutoTakeoff,
1900,2025-01-07 02:44:41,0,0,0,,,1050.8257783771,0,0,0,0,16,2,11.927,1050.8257783771,0,0,0,0,0,0,70, 0, 1,0,0,1024,1024,1024,1024,0,0,0,0,68.6,0,0,98,3.971,3.938,3.937,0,0,0,2.33,65.12,1050.8257783771,0,11,AutoTakeoff,
2000,2025-01-07 02:44:41,0,0,0,,,1050.8257783771,0,0,0,0,16,2,11.848,1050.8257783771,0,0,0,0,0,0,70, -0.2, 0.9,0,0,1024,1024,1024,1024,0,0,0,0,68.6,0,0,98,4.001,3.971,3.966,0,0,0,3.9,65.12,1050.8257783771,0,11,AutoTakeoff,
2100,2025-01-07 02:44:41,0,0,0,,,1050.8257783771,0,0,0,0,16,2,11.848,1050.8257783771,0,0,0,0,0,0,69.8, -0.4, 0.9,0,0,1024,1024,1024,1024,0,0,0,0,68.6,0,0,98,4.001,3.971,3.966,0,0,0,3.9,65.12,1050.8257783771,0,11,AutoTakeoff,
2200,2025-01-07 02:44:41,0,0,0,,,1050.8257783771,0,0,0,0,16,2,11.848,1050.8257783771,0,0,0,0,0,0,69.2, -1.3, 0.8,0,0,1024,1024,1024,1024,0,0,0,0,68.6,0,0,98,4.001,3.971,3.966,0,0,0,3.9,65.12,1050.8257783771,0,11,AutoTakeoff,
2300,2025-01-07 02:44:41,0,0,0,,,1050.8257783771,0,0,0,0,16,2,11.848,1050.8257783771,0,0,0,0,0,0,67.9, -3.5, 0.1,0,0,1024,1024,1024,1024,0,0,0,0,68.5,0,0,98,4.001,3.971,3.966,0,0,0,3.9,65.12,1050.8257783771,0,11,AutoTakeoff,
2400,2025-01-07 02:44:41,0,0,0,,,1050.8257783771,0,0,0,0,16,2,11.848,1050.8257783771,0,0,0,0,0.223694,0,66.7, -5.8, -1.5,0,0,1024,1024,1024,1024,0,0,0,0,68.3,0,0,98,4.001,3.971,3.966,0,0,0,3.9,65.12,1050.8257783771,0,11,AutoTakeoff,
2500,2025-01-07 02:44:42,0,0,0,,,1050.8257783771,0,0.3131716,0,0,16,2,11.848,1050.8257783771,0,0.3131716,0,0.223694,0.223694,-0.223694,65.6, -5.8, -3.1,0,0,1024,1024,1024,1024,0,0,0,0,68,0,0,98,4.001,3.971,3.966,0,0,0,3.9,65.12,1050.8257783771,0,11,AutoTakeoff,
2600,2025-01-07 02:44:42,0,0,0,,,1050.8257783771,0,0.3131716,0,0,16,2,11.848,1050.8257783771,0,0.3131716,0,0.447388,0.447388,-0.671082,65.6, -1.2, -2.3,0,0,1024,1024,1024,1024,0,0,0,0,67.5,0,0,98,4.001,3.971,3.966,0,0,0,3.9,65.12,1050.8257783771,0,11,AutoTakeoff,飛行中
2700,2025-01-07 02:44:42,0,0,0,,,1050.8257783771,0,0.6263432,0,0,16,2,11.848,1050.8257783771,0,0.6263432,0,0.447388,0.447388,-0.671082,65.8, 3.8, 0.8,0,0,1024,1024,1024,1024,0,0,0,0,67.2,0,0,98,4.001,3.971,3.966,0,0,0,3.9,65.12,1050.8257783771,0,11,AutoTakeoff,
2800,2025-01-07 02:44:42,0,0,0.328084,,,1051.1538623771,0,0.4921268,0,0,16,2,11.848,1051.1538623771,0.328084,0.6263432,0,0.447388,0.223694,-0.894776,66, 4.5, 2.3,0,0,1024,1024,1024,1024,0,0,0,0,66.9,0,0,98,4.001,3.971,3.966,0,0,0,3.9,65.12,1051.1538623771,0.328084,11,AutoTakeoff,
2900,2025-01-07 02:44:42,0,0,0.328084,,,1051.1538623771,0,0.4921268,0,0,16,2,11.848,1051.1538623771,0.328084,0.6263432,0,0.223694,0.223694,-0.894776,65.9, 2.6, 1.3,0,0,1024,1024,1024,1024,0,0,0,0,66.7,0,0,98,4.001,3.971,3.966,0,0,0,3.9,65.12,1051.1538623771,0.328084,11,AutoTakeoff,
3000,2025-01-07 02:44:42,0,0,0.656168,,,1051.4819463771,0.656168,0.3131716,0,0,16,2,11.64,1051.4819463771,0.656168,0.6263432,0,0.223694,0.223694,-0.894776,65.6, 1.5, 0.4,0,0,1024,1024,1024,1024,0,0,0,0,66.5,0,0,98,3.822,3.762,3.763,0,0,0,5.06,65.12,1051.4819463771,0.656168,11,AutoTakeoff,
3100,2025-01-07 02:44:42,0,0,0.656168,,,1051.4819463771,0.984252,0.3131716,0,0,16,2,11.64,1051.4819463771,0.656168,0.6263432,0,0.223694,0.223694,-0.894776,65.5, 1.8, 0.6,0,0,1024,1024,1024,1024,0,0,0,0,66.3,0,0,98,3.822,3.762,3.763,0,0,0,5.06,65.12,1051.4819463771,0.656168,11,AutoTakeoff,
3200,2025-01-07 02:44:42,0,0,0.984252,,,1051.8100303771,0.984252,0.223694,0,0,16,2,11.64,1051.8100303771,0.984252,0.6263432,0,0,0.223694,-1.11847,65.5, 2.4, 0.5,0,0,1024,1024,1072,1024,0,0,7,0,66.2,0,0,98,3.822,3.762,3.763,0,0,0,5.06,65.12,1051.8100303771,0.984252,11,AutoTakeoff,
3300,2025-01-07 02:44:42,0,0,0.984252,,,1051.8100303771,1.312336,0.223694,0,0,16,2,11.64,1051.8100303771,0.984252,0.6263432,0,0,0.223694,-1.11847,65.4, 2.3, 0.4,0,0,1024,1024,1089,1024,0,0,10,0,66.1,0,0,98,3.822,3.762,3.763,0,0,0,5.06,65.12,1051.8100303771,0.984252,11,AutoTakeoff,
3400,2025-01-07 02:44:42,0,0,1.312336,,,1052.1381143771,1.312336,0,0,0,16,2,11.64,1052.1381143771,1.312336,0.6263432,0,0,0,-1.11847,65.3, 2.5, 0.7,0,0,1024,1024,1107,1024,0,0,13,0,66,0,0,98,3.822,3.762,3.763,0,0,0,5.06,65.12,1052.1381143771,1.312336,11,AutoTakeoff,
3500,2025-01-07 02:44:43,0,0,1.312336,,,1052.1381143771,1.64042,0,0,0,16,2,11.64,1052.1381143771,1.312336,0.6263432,0,0,0,-1.11847,65.2, 2.6, 0.8,0,0,1024,1024,1107,1024,0,0,13,0,65.9,0,0,98,3.822,3.762,3.763,0,0,0,5.06,65.12,1052.1381143771,1.312336,11,AutoTakeoff,
3600,2025-01-07 02:44:43,0,0,1.64042,,,1052.4661983771,1.64042,0,0,0,16,2,11.64,1052.4661983771,1.64042,0.6263432,0,0,0,-1.11847,65, 2.4, 0.6,0,0,1024,1024,1146,1024,0,0,18,0,65.8,0,0,98,3.822,3.762,3.763,0,0,0,5.06,65.12,1052.4661983771,1.64042,11,AutoTakeoff,
3700,2025-01-07 02:44:43,0,0,1.64042,,,1052.4661983771,1.968504,0,0,0,16,2,11.64,1052.4661983771,1.64042,0.6263432,0,0,0,-1.11847,65, 2.2, 0.6,0,0,1024,1024,1179,1024,0,0,23,0,65.7,0,0,98,3.822,3.762,3.763,0,0,0,5.06,65.12,1052.4661983771,1.64042,11,AutoTakeoff,
3800,2025-01-07 02:44:43,0,0,1.968504,,,1052.7942823771,1.968504,0,0,0,16,2,11.64,1052.7942823771,1.968504,0.6263432,0,0,0,-1.11847,65, 2.1, 0.5,0,0,1024,1024,1225,1024,0,0,30,0,65.6,0,0,98,3.822,3.762,3.763,0,0,0,5.06,65.12,1052.7942823771,1.968504,11,AutoTakeoff,
3900,2025-01-07 02:44:43,0,0,1.968504,,,1052.7942823771,2.296588,0,0,0,16,2,11.64,1052.7942823771,1.968504,0.6263432,0,0,0,-1.342164,65, 2, -0.2,0,0,1024,1024,1233,1024,0,0,32,0,65.5,0,0,98,3.799,3.733,3.73,0,0,0,5.06,65.12,1052.7942823771,1.968504,11,AutoTakeoff,
4000,2025-01-07 02:44:43,37.0152633491446,140.149133157406,2.296588,,,1053.1223663771,2.624672,0,0,0,16,2,11.64,1053.1223663771,2.296588,0.6263432,0,0,0,-1.565858,64.9, 2.1, -0.6,0,0,1024,1024,1255,1024,0,0,35,0,65.5,0,0,98,3.799,3.733,3.73,0,0,0,5.06,65.12,1053.1223663771,2.296588,11,AutoTakeoff,
4100,2025-01-07 02:44:43,37.0152633776537,140.149133195391,2.624672,,,1053.4504503771,2.952756,0,0.0151868771264,0.0151868771264,16,2,11.64,1053.4504503771,2.624672,0.6263432,0.0151868771264,0,0,-1.789552,64.8, 2.3, 0,0,0,1024,1024,1254,1024,0,0,35,0,65.4,0,0,98,3.799,3.733,3.73,0,0,0,5.06,65.12,1053.4504503771,2.624672,11,AutoTakeoff,"GNSSがありません。慎重に飛行してください GNSS信号が微弱です。ホバリングが不安定です。慎重に飛行してください (Code: 30002)"
4200,2025-01-07 02:44:43,37.0152631378107,140.149133114939,2.952756,,,1053.7785343771,3.28084,0,0.078091209848,0.105777890524,16,2,11.64,1053.7785343771,2.952756,0.6263432,0.078091209848,0,0,-2.23694,64.9, 2.6, 0.7,0,0,1024,1024,1159,1024,0,0,20,0,65.3,0,0,98,3.799,3.733,3.73,0,0,0,5.06,65.12,1053.7785343771,2.952756,11,AutoTakeoff,
4300,2025-01-07 02:44:43,37.0152631347662,140.149133117128,3.28084,,,1054.1066183771,3.608924,0,0.07909120988,0.10705873046,17,2,11.64,1054.1066183771,3.28084,0.6263432,0.07909120988,0,0,-2.460634,65, 2.7, 0.1,0,0,1024,1024,1024,1024,0,0,0,0,65.3,0,0,98,3.799,3.733,3.73,0,0,0,5.06,65.12,1054.1066183771,3.28084,11,AutoTakeoff,
4400,2025-01-07 02:44:43,37.0152634606282,140.149132764244,3.608924,,,1054.4347023771,3.937008,0,0.12154527948,0.264231963836,17,2,11.64,1054.4347023771,3.608924,0.6263432,0.12154527948,0,0,-2.460634,65.1, 2.4, -0.2,0,0,1024,1024,1024,1024,0,0,0,0,65.3,0,0,98,3.799,3.733,3.73,0,0,0,5.06,65.12,1054.4347023771,3.608924,6,P-GPS,
4500,2025-01-07 02:44:43,37.0152634882699,140.149132690496,3.937008,,,1054.7627863771,4.265092,0,0.145184387848,0.28796588848,17,2,11.64,1054.7627863771,3.937008,0.6263432,0.145184387848,0,0,-2.013246,65.1, 2.1, 0.1,0,0,1024,1024,910,1024,0,0,-17,0,65.3,0,0,98,3.799,3.733,3.73,0,0,0,5.06,65.12,1054.7627863771,3.937008,6,P-GPS,
4600,2025-01-07 02:44:44,37.0152634276615,140.149132926093,4.265092,,,1055.0908703771,4.593176,0,0.07322342754,0.36007547084,17,2,11.64,1055.0908703771,4.265092,0.6263432,0.145184387848,0,0,-1.565858,65.3, 2.1, 1,0,0,1024,1024,910,1024,0,0,-17,0,65.3,0,0,98,3.799,3.733,3.73,0,0,0,5.06,65.12,1055.0908703771,4.265092,6,P-GPS,
4700,2025-01-07 02:44:44,37.0152634605016,140.149132860773,4.593176,,,1055.4189543771,4.593176,0,0.09549048862,0.3825623482,17,2,11.64,1055.4189543771,4.593176,0.6263432,0.145184387848,0,0,-0.894776,65.7, 1.9, 1.7,0,0,1024,1024,708,951,0,0,-48,-11,65.3,0,0,98,3.799,3.733,3.73,0,0,0,5.06,65.12,1055.4189543771,4.593176,6,P-GPS,
4800,2025-01-07 02:44:44,37.0152635970981,140.14913267299,4.593176,,,1055.4189543771,4.593176,0,0.167628614288,0.45656497524,17,5,11.308,1055.4189543771,4.593176,0.6263432,0.167628614288,0,0,-0.223694,66.1, 2.2, 2.3,0,0,1024,1024,670,1024,0,0,-54,0,65.2,0,0,98,3.852,3.801,3.817,0,0,0,10.936,65.12,1055.4189543771,4.593176,6,P-GPS,"Setting new Maximum Flight Altitude to 145m (476 ft)"
4900,2025-01-07 02:44:44,37.0152636218227,140.149132607959,4.593176,,,1055.4189543771,4.593176,0,0.18846457296,0.47754922788,17,5,11.308,1055.4189543771,4.593176,0.6263432,0.18846457296,0,0,0.223694,66.5, 2.2, 2.6,0,0,1024,1024,857,1024,0,0,-25,0,65.1,0,0,98,3.852,3.801,3.817,0,0,0,10.936,65.12,1055.4189543771,4.593176,6,P-GPS,
5000,2025-01-07 02:44:44,37.0152638393779,140.149131941638,4.593176,,,1055.4189543771,4.593176,0,0.39678150876,0.68726380152,17,5,11.308,1055.4189543771,4.593176,0.6263432,0.39678150876,0,0,0.671082,66.5, 1.5, 1.5,0,0,1024,1024,1024,1024,0,0,0,0,65.1,0,0,98,3.852,3.801,3.817,0,0,0,10.936,65.12,1055.4189543771,4.593176,6,P-GPS,
5100,2025-01-07 02:44:44,37.0152638370788,140.149131829284,4.265092,,,1055.0908703771,4.265092,0,0.4259022446,0.72000658472,17,5,11.308,1055.4189543771,4.593176,0.6263432,0.4259022446,0,0,0.894776,66.4, 0.8, 0.4,0,0,1024,1024,1024,1024,0,0,0,0,65,0,0,98,3.852,3.801,3.817,0,0,0,10.936,65.12,1055.0908703771,4.265092,6,P-GPS,
5200,2025-01-07 02:44:44,37.0152631923983,140.149132565753,4.265092,,,1055.0908703771,4.265092,0,0.181602368016,1.03837273664,17,5,11.308,1055.4189543771,4.593176,0.6263432,0.4259022446,0,0,0.894776,66.1, 0.3, 0.3,0,0,1024,1024,1024,1024,0,0,0,0,65,0,0,98,3.852,3.801,3.817,0,0,0,10.936,65.12,1055.0908703771,4.265092,6,P-GPS,
5300,2025-01-07 02:44:44,37.0152631498164,140.149132529896,4.265092,,,1055.0908703771,4.265092,0,0.196743116532,1.05709320968,18,5,11.308,1055.4189543771,4.593176,0.6263432,0.4259022446,0,0,0.671082,66, 0.4, 0.8,0,0,1045,1024,1024,1024,3,0,0,0,65,0,0,98,3.852,3.801,3.817,0,0,0,10.936,65.12,1055.0908703771,4.265092,6,P-GPS,
5400,2025-01-07 02:44:44,37.0152633294637,140.149132026365,3.937008,,,1054.7627863771,3.937008,0,0.3295767822,1.21775922532,18,5,11.308,1055.4189543771,4.593176,0.6263432,0.4259022446,0,0,0.223694,66, 1.3, 0.9,0,0,1269,1024,1024,1024,37,0,0,0,65,0,0,98,3.852,3.801,3.817,0,0,0,10.936,65.12,1054.7627863771,3.937008,6,P-GPS,
5500,2025-01-07 02:44:44,37.0152633067839,140.149131964926,3.937008,,,1054.7627863771,3.937008,0,0.34773951244,1.23748035456,18,5,11.308,1055.4189543771,4.593176,0.6263432,0.4259022446,0,0,0.223694,65.9, 1.5, 0.8,0,0,1379,1024,1024,1024,54,0,0,0,65,0,0,98,3.852,3.801,3.817,0,0,0,10.936,65.12,1054.7627863771,3.937008,6,P-GPS,
5600,2025-01-07 02:44:45,37.0152629133782,140.149132148524,3.937008,,,1054.7627863771,3.937008,0,0.33415683484,1.39065293164,18,5,11.308,1055.4189543771,4.593176,0.6263432,0.4259022446,0,0,0,66, -1.7, 0.7,0,0,1414,1024,1024,1024,59,0,0,0,65,0,0,98,3.852,3.801,3.817,0,0,0,10.936,65.12,1054.7627863771,3.937008,6,P-GPS,
5700,2025-01-07 02:44:45,37.0152628627831,140.149132123384,3.937008,,,1054.7627863771,3.937008,0,0.34961615292,1.410515137,17,5,11.308,1055.4189543771,4.593176,0.6263432,0.4259022446,0,0,0,65.9, -8.3, 0.7,0,0,1414,1024,1024,1024,59,0,0,0,65,0,0,98,3.852,3.801,3.817,0,0,0,10.936,65.12,1054.7627863771,3.937008,6,P-GPS,
5800,2025-01-07 02:44:45,37.0152630265043,140.149132245066,3.937008,,,1054.7627863771,3.937008,0.4921268,0.290687017176,1.47997380064,17,5,11.308,1055.4189543771,4.593176,0.6263432,0.4259022446,0.223694,0.447388,0,65.9, -13.2, 0.8,0,0,1416,1024,1024,1024,59,0,0,0,65,0,0,98,3.852,3.801,3.817,0,0,0,10.936,65.12,1054.7627863771,3.937008,6,P-GPS,
5900,2025-01-07 02:44:45,37.0152631288249,140.149132605701,3.937008,,,1054.7627863771,3.937008,1.006623,0.179705058244,1.5914698672,18,5,11.116,1055.4189543771,4.593176,1.006623,0.4259022446,0.447388,0.894776,0,65.9, -14.2, 0.9,0,0,1419,1024,1024,1024,60,0,0,0,65,0,0,98,3.788,3.721,3.723,0,0,0,12.312,65.3,1054.7627863771,3.937008,6,P-GPS,"ホームポイントを更新。RTH高度が 100mに調整されました。 (Code: 3000001)"
6000,2025-01-07 02:44:45,37.0152629787056,140.149133211848,3.937008,,,1054.7627863771,3.937008,1.4987498,0.136081697268,1.77635504372,18,5,11.116,1055.4189543771,4.593176,1.4987498,0.4259022446,0.671082,1.342164,0,65.9, -13.8, 1,0,0,1418,1024,1024,1024,60,0,0,0,65,0,0,98,3.788,3.721,3.723,0,0,0,12.312,65.3,1054.7627863771,3.937008,6,P-GPS,
6100,2025-01-07 02:44:45,37.0152632288436,140.149134095988,3.937008,,,1054.7627863771,3.937008,2.1922012,0.276931111224,2.04961620732,18,5,11.116,1055.4189543771,4.593176,2.1922012,0.4259022446,0.894776,2.013246,0,66.1, -13.9, 0.8,0,0,1413,1024,1024,1024,59,0,0,0,65,0,0,98,3.788,3.721,3.723,0,0,0,12.312,65.3,1054.7627863771,3.937008,6,P-GPS,
6200,2025-01-07 02:44:45,37.0152633850759,140.149135074589,3.937008,,,1054.7627863771,3.937008,2.7066974,0.55867455856,2.34034784392,18,5,11.116,1055.4189543771,4.593176,2.7066974,0.55867455856,1.11847,2.460634,0,65.7, -14.4, 0.5,0,0,1405,1024,1024,1024,58,0,0,0,65,0,0,98,3.788,3.721,3.723,0,0,0,12.312,65.3,1054.7627863771,3.937008,6,P-GPS,
6300,2025-01-07 02:44:45,37.0152637965847,140.1491364421,3.937008,,,1054.7627863771,3.937008,3.1988242,0.97073165836,2.76608604652,18,5,11.116,1055.4189543771,4.593176,3.1988242,0.97073165836,1.342164,2.908022,0,65.8, -14.4, 0.3,0,0,1394,1024,1024,1024,56,0,0,0,65,0,0,98,3.788,3.721,3.723,0,0,0,12.312,65.3,1054.7627863771,3.937008,6,P-GPS,
6400,2025-01-07 02:44:45,37.0152643450922,140.149137225699,3.937008,,,1054.7627863771,3.937008,3.7133204,1.23963914728,3.0696687334,18,5,11.116,1055.4189543771,4.593176,3.7133204,1.23963914728,1.565858,3.35541,0,64.8, -13.4, 0.6,0,0,1393,1024,1024,1024,56,0,0,0,65,0,0,98,3.788,3.721,3.723,0,0,0,12.312,65.3,1054.7627863771,3.937008,6,P-GPS,
6500,2025-01-07 02:44:45,37.0152649580095,140.149138985908,3.937008,,,1054.7627863771,3.937008,4.2054472,1.79657814148,3.629101166,18,5,11.116,1055.4189543771,4.593176,4.2054472,1.79657814148,1.789552,3.802798,0,64.5, -12, 0.9,0,0,1392,1024,1024,1024,56,0,0,0,65,0,0,98,3.788,3.721,3.723,0,0,0,12.312,65.3,1054.7627863771,3.937008,6,P-GPS,
6600,2025-01-07 02:44:46,37.0152655749804,140.149140440832,3.937008,,,1054.7627863771,3.937008,4.697574,2.27192920656,4.1090224412,18,5,11.116,1055.4189543771,4.593176,4.697574,2.27192920656,2.013246,4.250186,0,63.9, -11.5, 1,0,0,1354,1024,1024,1024,50,0,0,0,65,0,0,98,3.788,3.721,3.723,0,0,0,12.312,65.3,1054.7627863771,3.937008,6,P-GPS,
6700,2025-01-07 02:44:46,37.0152663241205,140.149142522629,3.937008,,,1054.7627863771,4.265092,5.0107456,2.93628946404,4.7742455596,18,5,11.116,1055.4189543771,4.593176,5.0107456,2.93628946404,2.23694,4.47388,0,63.8, -11.5, 0.9,0,0,1354,1024,1024,1024,50,0,0,0,65,0,0,98,3.788,3.721,3.723,0,0,0,12.312,65.3,1054.7627863771,3.937008,6,P-GPS,
6800,2025-01-07 02:44:46,37.0152676074673,140.149144597419,3.937008,,,1054.7627863771,4.92126,5.3015478,3.6770998552,5.5388125132,18,5,11.116,1055.4189543771,4.593176,5.3015478,3.6770998552,2.460634,4.697574,0,62.8, -11.2, 0.3,0,0,1266,1024,1024,1024,37,0,0,0,65,0,0,98,3.788,3.721,3.723,0,0,0,12.312,65.3,1054.7627863771,3.937008,6,P-GPS,
6900,2025-01-07 02:44:46,37.0152685425882,140.149146978652,3.937008,,,1054.7627863771,5.249344,5.7936746,4.4500329508,6.3118768424,18,5,11.116,1055.4189543771,4.593176,5.7936746,4.4500329508,2.684328,5.144962,0,62.9, -10.1, 0.5,0,0,1024,1024,1024,1024,0,0,0,0,65,0,0,98,3.788,3.721,3.723,0,0,0,12.312,65.3,1054.7627863771,3.937008,6,P-GPS,
7000,2025-01-07 02:44:46,37.0152699972748,140.149149425568,3.937008,,,1054.7627863771,5.249344,6.1068462,5.3239174932,7.2005907816,18,5,11.227,1055.4189543771,4.593176,6.1068462,5.3239174932,2.908022,5.368656,0,62.6, -2.8, 1.7,0,0,1024,1024,1024,1024,0,0,0,0,65,0,0,98,3.785,3.719,3.722,0,0,0,11.152,65.48,1054.7627863771,3.937008,6,P-GPS,
7100,2025-01-07 02:44:46,37.0152710459781,140.149152043137,3.937008,,,1054.7627863771,5.577428,5.9949992,6.1770671268,8.0537732236,18,5,11.227,1055.4189543771,4.593176,6.1068462,6.1770671268,2.684328,5.368656,0,62.9, 13, 3.2,0,0,1024,1024,1024,1024,0,0,0,0,65,0,0,98,3.785,3.719,3.722,0,0,0,11.152,65.48,1054.7627863771,3.937008,6,P-GPS,飛行中
7200,2025-01-07 02:44:46,37.0152725010959,140.149153998053,3.608924,,,1054.4347023771,5.577428,5.4133948,6.9290028464,8.832349364,18,5,11.227,1055.4189543771,4.593176,6.1068462,6.9290028464,2.23694,4.921268,0,63, 27.8, 0.7,0,0,1024,1024,1024,1024,0,0,0,0,65,0,0,98,3.785,3.719,3.722,0,0,0,11.152,65.48,1054.4347023771,3.608924,6,P-GPS,
7300,2025-01-07 02:44:46,37.0152732238633,140.149155957424,3.608924,,,1054.4347023771,5.577428,4.1159696,7.5563650712,9.46112235,18,5,11.227,1055.4189543771,4.593176,6.1068462,7.5563650712,1.565858,3.802798,0,61.8, 26.6, -2.7,0,0,1024,1024,1024,1024,0,0,0,0,65,0,0,98,3.785,3.719,3.722,0,0,0,11.152,65.48,1054.4347023771,3.608924,6,P-GPS,
7400,2025-01-07 02:44:46,37.0152744172428,140.149157050871,3.608924,,,1054.4347023771,5.577428,2.908022,8.0472771604,10.0006236796,18,5,11.227,1055.4189543771,4.593176,6.1068462,8.0472771604,1.11847,2.684328,0,61.4, 15.8, -1.7,0,0,1024,1024,1024,1024,0,0,0,0,65,0,0,98,3.785,3.719,3.722,0,0,0,11.152,65.48,1054.4347023771,3.608924,6,P-GPS,
7500,2025-01-07 02:44:47,37.0152748908952,140.14915801746,3.608924,,,1054.4347023771,5.577428,2.4158952,8.3775593232,10.3310042676,18,5,11.227,1055.4189543771,4.593176,6.1068462,8.3775593232,0.894776,2.23694,0,61.2, 9.2, 0.1,0,0,1024,1024,1024,1050,0,0,0,4,65,0,0,98,3.785,3.719,3.722,0,0,0,11.152,65.48,1054.4347023771,3.608924,6,P-GPS,
7600,2025-01-07 02:44:47,37.015276049278,140.149159527949,3.937008,,,1054.7627863771,5.577428,2.1922012,8.9715554052,10.9411420824,18,5,11.227,1055.4189543771,4.593176,6.1068462,8.9715554052,0.894776,2.013246,0,61.3, 10.5, 0.3,0,0,1024,1024,1024,1210,0,0,0,28,65,0,0,98,3.785,3.719,3.722,0,0,0,11.152,65.48,1054.7627863771,3.937008,6,P-GPS,
7700,2025-01-07 02:44:47,37.0152764450827,140.14916026853,3.937008,,,1054.7627863771,5.577428,1.7000744,9.2309058072,11.2007549516,16,5,11.227,1055.4189543771,4.593176,6.1068462,9.2309058072,0.671082,1.565858,0,61.4, 12.7, -0.4,0,0,1024,1024,1024,1330,0,0,0,46,65.1,0,0,98,3.785,3.719,3.722,0,0,0,11.152,65.48,1054.7627863771,3.937008,6,P-GPS,
7800,2025-01-07 02:44:47,37.0152776310906,140.149161934552,3.937008,,,1054.7627863771,5.577428,1.4092722,9.8708664576,11.8509846312,16,5,11.227,1055.4189543771,4.593176,6.1068462,9.8708664576,0.447388,1.342164,0,62, 11.2, -1.3,0,0,1024,1024,1024,1330,0,0,0,46,65.4,0,0,98,3.785,3.719,3.722,0,0,0,11.152,65.48,1054.7627863771,3.937008,6,P-GPS,
7900,2025-01-07 02:44:47,37.0152779604411,140.149162410334,3.937008,,,1054.7627863771,5.577428,1.1408394,10.0520672508,12.034449204,17,5,11.227,1055.4189543771,4.593176,6.1068462,10.0520672508,0.223694,1.11847,0,62.8, 7.8, -2.6,0,0,1024,1024,1024,1463,0,0,0,67,66.2,0,0,98,3.766,3.697,3.7,0,0,0,11.152,65.48,1054.7627863771,3.937008,6,P-GPS,
8000,2025-01-07 02:44:47,37.0152782929666,140.149163060242,3.937008,,,1054.7627863771,5.577428,0.9171454,10.2769360244,12.2593179776,17,5,11.227,1055.4189543771,4.593176,6.1068462,10.2769360244,0.223694,0.894776,0,63.8, 5.7, -2.5,0,0,1024,1024,1024,1565,0,0,0,82,67.7,0,0,98,3.766,3.697,3.7,0,0,0,11.152,65.48,1054.7627863771,3.937008,6,P-GPS,
8100,2025-01-07 02:44:47,37.015278687983,140.149163337964,3.937008,,,1054.7627863771,5.577428,0.8052984,10.4222772364,12.4245738884,18,5,11.227,1055.4189543771,4.593176,6.1068462,10.4222772364,0.447388,0.671082,0,65, 7, -0.2,0,0,1024,1024,1024,1508,0,0,0,73,69.7,0,0,98,3.766,3.697,3.7,0,0,0,11.152,65.48,1054.7627863771,3.937008,6,P-GPS,
8200,2025-01-07 02:44:47,37.0152790344828,140.149164163986,3.937008,,,1054.7627863771,5.577428,0.6263432,10.6931761952,12.6964242908,18,5,11.227,1055.4189543771,4.593176,6.1068462,10.6931761952,0.447388,0.447388,0,67.2, 8.2, 0.7,0,0,1024,1024,1024,1024,0,0,0,0,72.1,0,0,98,3.766,3.697,3.7,0,0,0,11.152,65.48,1054.7627863771,3.937008,6,P-GPS,
8300,2025-01-07 02:44:47,37.0152794254462,140.149164319036,3.937008,,,1054.7627863771,5.577428,0.3131716,10.8081040204,12.8460305948,17,5,11.227,1055.4189543771,4.593176,6.1068462,10.8081040204,0.223694,0.223694,0,68.8, 6, 0.9,0,0,1024,1024,1024,1024,0,0,0,0,73.8,0,0,98,3.766,3.697,3.7,0,0,0,11.152,65.48,1054.7627863771,3.937008,6,P-GPS,
8400,2025-01-07 02:44:47,37.0152793871954,140.149164523562,3.937008,,,1054.7627863771,5.577428,0.3131716,10.8506565152,12.9072182608,17,5,11.227,1055.4189543771,4.593176,6.1068462,10.8506565152,0.223694,0.223694,0,70.2, 3.8, 2,0,0,1024,1024,1024,1024,0,0,0,0,74.7,0,0,98,3.766,3.697,3.7,0,0,0,11.152,65.48,1054.7627863771,3.937008,6,P-GPS,
8500,2025-01-07 02:44:48,37.0152797347734,140.149164595104,3.937008,,,1054.7627863771,5.577428,0.223694,10.9370410324,13.035761572,17,5,11.227,1055.4189543771,4.593176,6.1068462,10.9370410324,0.223694,0,0,71.6, 3.1, 2.4,0,0,1024,1024,1024,1024,0,0,0,0,74.9,0,0,98,3.766,3.697,3.7,0,0,0,11.152,65.48,1054.7627863771,3.937008,6,P-GPS,
8600,2025-01-07 02:44:48,37.0152794244011,140.149165100606,3.937008,,,1054.7627863771,5.577428,0.223694,10.99983631,13.2215227328,17,5,11.227,1055.4189543771,4.593176,6.1068462,10.99983631,0.223694,0,0,72.2, 3.2, 1.2,0,0,1024,1024,1024,1024,0,0,0,0,74.9,0,0,98,3.766,3.697,3.7,0,0,0,11.152,65.48,1054.7627863771,3.937008,6,P-GPS,
8700,2025-01-07 02:44:48,37.0152796949678,140.149165188997,3.937008,,,1054.7627863771,5.577428,0.223694,11.07447542,13.3235240484,17,5,11.227,1055.4189543771,4.593176,6.1068462,11.07447542,0.223694,0,0,72, 3.3, 0,0,0,1024,1024,1024,1024,0,0,0,0,74.9,0,0,98,3.766,3.697,3.7,0,0,0,11.152,65.48,1054.7627863771,3.937008,6,P-GPS,
8800,2025-01-07 02:44:48,37.0152799997964,140.14916528297,3.937008,,,1054.7627863771,5.577428,0.223694,11.1577103308,13.4380581728,17,5,11.227,1055.4189543771,4.593176,6.1068462,11.1577103308,0.223694,0,0,71.7, 2.9, 2,0,0,1024,1024,1024,1465,0,0,0,67,74.9,0,0,98,3.766,3.697,3.7,0,0,0,11.152,65.48,1054.7627863771,3.937008,6,P-GPS,
8900,2025-01-07 02:44:48,37.0152803191894,140.149165305017,3.937008,,,1054.7627863771,5.577428,0.223694,11.2269688632,13.55479046,17,5,11.227,1055.4189543771,4.593176,6.1068462,11.2269688632,0.223694,0,0,72, 2.8, 5,0,0,1024,1024,1024,1465,0,0,0,67,74.9,0,0,98,3.766,3.697,3.7,0,0,0,11.152,65.48,1054.7627863771,3.937008,6,P-GPS,
9000,2025-01-07 02:44:48,37.01527986197,140.149165737846,3.937008,,,1054.7627863771,5.577428,0,11.2420935356,13.7638783932,17,5,11.236,1055.4189543771,4.593176,6.1068462,11.2420935356,0,0,0,73.3, 2.4, 4.8,0,0,1024,1024,1024,1684,0,0,0,100,75.7,0,0,97,3.783,3.708,3.71,0,0,0,10.985,65.84,1054.7627863771,3.937008,6,P-GPS,
9100,2025-01-07 02:44:48,37.0152800159552,140.149165793303,3.937008,,,1054.7627863771,5.249344,0,11.2858927496,13.822342962,18,5,11.236,1055.4189543771,4.593176,6.1068462,11.2858927496,0,0,0,74.9, 1.2, 3.3,0,0,1024,1024,1024,1684,0,0,0,100,77.6,0,0,97,3.783,3.708,3.71,0,0,0,10.985,65.84,1054.7627863771,3.937008,6,P-GPS,
9200,2025-01-07 02:44:48,37.0152793856268,140.149165830526,3.937008,,,1054.7627863771,5.249344,0,11.17290062,14.0525923132,18,5,11.236,1055.4189543771,4.593176,6.1068462,11.2858927496,0,0,0,76.6, 0.9, 2.4,0,0,1024,1024,1024,1684,0,0,0,100,80.4,0,0,97,3.783,3.708,3.71,0,0,0,10.985,65.84,1054.7627863771,3.937008,6,P-GPS,
9300,2025-01-07 02:44:48,37.0152794343385,140.149165923243,3.937008,,,1054.7627863771,5.249344,0,11.205216894,14.0849085872,18,5,11.236,1055.4189543771,4.593176,6.1068462,11.2858927496,0,0,0,78.9, 1.5, 2.9,0,0,1024,1024,1024,1684,0,0,0,100,83.5,0,0,97,3.783,3.708,3.71,0,0,0,10.985,65.84,1054.7627863771,3.937008,6,P-GPS,
9400,2025-01-07 02:44:48,37.0152794055452,140.149165850277,3.937008,,,1054.7627863771,5.577428,0,11.181594846,14.1086290604,18,5,11.236,1055.4189543771,4.593176,6.1068462,11.2858927496,0,0,0,81.8, 1.4, 2.8,0,0,1024,1024,1024,1684,0,0,0,100,86.7,0,0,97,3.783,3.708,3.71,0,0,0,10.985,65.84,1054.7627863771,3.937008,6,P-GPS,
9500,2025-01-07 02:44:48,37.0152793955972,140.149165952688,3.937008,,,1054.7627863771,5.577428,0,11.2051184688,14.1386815548,18,5,11.236,1055.4189543771,4.593176,6.1068462,11.2858927496,0,0,0,85, 0.9, 1.6,0,0,1024,1024,1024,1684,0,0,0,100,89.9,0,0,97,3.783,3.708,3.71,0,0,0,10.985,65.84,1054.7627863771,3.937008,6,P-GPS,
9600,2025-01-07 02:44:49,37.0152791561508,140.149165592105,3.937008,,,1054.7627863771,5.577428,0,11.0699478608,14.2752957324,18,5,11.236,1055.4189543771,4.593176,6.1068462,11.2858927496,0,0,0,88.1, 1.6, -0.5,0,0,1024,1024,1024,1684,0,0,0,100,93.1,0,0,97,3.783,3.708,3.71,0,0,0,10.985,65.84,1054.7627863771,3.937008,6,P-GPS,
9700,2025-01-07 02:44:49,37.0152791420373,140.149165673281,3.937008,,,1054.7627863771,5.249344,0,11.0874675464,14.2995083316,18,5,11.236,1055.4189543771,4.593176,6.1068462,11.2858927496,0,0,0,91, 1.4, 0.3,0,0,1024,1024,1024,1684,0,0,0,100,96.2,0,0,97,3.783,3.708,3.71,0,0,0,10.985,65.84,1054.7627863771,3.937008,6,P-GPS,
9800,2025-01-07 02:44:49,37.0152790014995,140.149165115055,3.937008,,,1054.7627863771,5.577428,0,10.9219491684,14.4700135864,18,5,11.236,1055.4189543771,4.593176,6.1068462,11.2858927496,0,0,0,94.3, 1, 3,0,0,1024,1024,1024,1684,0,0,0,100,99.5,0,0,97,3.783,3.708,3.71,0,0,0,10.985,65.84,1054.7627863771,3.937008,6,P-GPS,
9900,2025-01-07 02:44:49,37.0152789817964,140.149165147566,3.937008,,,1054.7627863771,5.577428,0,10.9262798772,14.4819230356,18,5,11.236,1055.4189543771,4.593176,6.1068462,11.2858927496,0,0,0,97.9, 1.4, 3.1,0,0,1024,1024,1024,1684,0,0,0,100,102.7,0,0,97,3.783,3.708,3.71,0,0,0,10.985,65.84,1054.7627863771,3.937008,6,P-GPS,
10000,2025-01-07 02:44:49,37.0152786498963,140.149164944285,3.937008,,,1054.7627863771,5.577428,0,10.8127956216,14.6166999428,18,5,11.193,1055.4189543771,4.593176,6.1068462,11.2858927496,0,0,0,101.5, 2.7, 0.5,0,0,1024,1024,1024,1684,0,0,0,100,105.8,0,0,97,3.776,3.707,3.709,0,0,0,11.015,65.84,1054.7627863771,3.937008,6,P-GPS,
10100,2025-01-07 02:44:49,37.0152785761316,140.149164931311,3.937008,,,1054.7627863771,5.577428,0,10.7956696368,14.6438981064,18,5,11.193,1055.4189543771,4.593176,6.1068462,11.2858927496,0,0,0,104.1, 3.1, -1,0,0,1024,1024,1024,1684,0,0,0,100,109,0,0,97,3.776,3.707,3.709,0,0,0,11.015,65.84,1054.7627863771,3.937008,6,P-GPS,
10200,2025-01-07 02:44:49,37.0152784401951,140.149165014144,3.937008,,,1054.7627863771,5.577428,0,10.7909780356,14.6990490268,18,5,11.193,1055.4189543771,4.593176,6.1068462,11.2858927496,0,0,0,106.9, 0.6, 1.1,0,0,1024,1024,1024,1684,0,0,0,100,112.2,0,0,97,3.776,3.707,3.709,0,0,0,11.015,65.84,1054.7627863771,3.937008,6,P-GPS,
10300,2025-01-07 02:44:49,37.0152784411374,140.149164974974,3.937008,,,1054.7627863771,5.249344,0,10.781332366,14.71046635,18,5,11.193,1055.4189543771,4.593176,6.1068462,11.2858927496,0,0,0,110, -2.5, 2.9,0,0,1024,1024,1024,1684,0,0,0,100,115.4,0,0,97,3.776,3.707,3.709,0,0,0,11.015,65.84,1054.7627863771,3.937008,6,P-GPS,
10400,2025-01-07 02:44:49,37.0152786975564,140.149164765191,3.937008,,,1054.7627863771,5.249344,0,10.7771656992,14.8222117604,18,5,11.193,1055.4189543771,4.593176,6.1068462,11.2858927496,0,0,0,113.4, -2.1, 1.5,0,0,1024,1024,1024,1684,0,0,0,100,118.6,0,0,97,3.776,3.707,3.709,0,0,0,11.015,65.84,1054.7627863771,3.937008,6,P-GPS,
10500,2025-01-07 02:44:49,37.0152786585731,140.149164802983,3.937008,,,1054.7627863771,5.249344,0,10.77919982,14.8401907636,17,5,11.193,1055.4189543771,4.593176,6.1068462,11.2858927496,0,0,0,116.9, 1.7, 0.9,0,0,1024,1024,1024,1684,0,0,0,100,121.8,0,0,97,3.776,3.707,3.709,0,0,0,11.015,65.84,1054.7627863771,3.937008,6,P-GPS,
10600,2025-01-07 02:44:50,37.0152785008753,140.149164955818,3.937008,,,1054.7627863771,5.249344,0,10.7876971956,14.9129269864,17,5,11.193,1055.4189543771,4.593176,6.1068462,11.2858927496,0,0,0,120.3, 3.1, 3,0,0,1024,1024,1024,1684,0,0,0,100,125,0,0,97,3.776,3.707,3.709,0,0,0,11.015,65.84,1054.7627863771,3.937008,6,P-GPS,
10700,2025-01-07 02:44:50,37.0152784932821,140.149164938558,3.937008,,,1054.7627863771,5.249344,0,10.7819557256,14.9186684564,17,5,11.193,1055.4189543771,4.593176,6.1068462,11.2858927496,0,0,0,123.8, 0, 3.9,0,0,1024,1024,1024,1684,0,0,0,100,128.2,0,0,97,3.776,3.707,3.709,0,0,0,11.015,65.84,1054.7627863771,3.937008,6,P-GPS,
10800,2025-01-07 02:44:50,37.0152782377755,140.149164993585,3.937008,,,1054.7627863771,5.249344,0,10.7483271156,15.013287882,17,5,11.193,1055.4189543771,4.593176,6.1068462,11.2858927496,0,0,0,127, -3.3, 1.8,0,0,1024,1024,1024,1684,0,0,0,100,131.4,0,0,97,3.776,3.707,3.709,0,0,0,11.015,65.84,1054.7627863771,3.937008,6,P-GPS,
10900,2025-01-07 02:44:50,37.0152781501534,140.149164986325,3.937008,,,1054.7627863771,5.249344,0,10.7303809208,15.0453088804,18,5,11.193,1055.4189543771,4.593176,6.1068462,11.2858927496,0,0,0,129.9, -2.2, -0.1,0,0,1024,1024,1024,1684,0,0,0,100,134.6,0,0,97,3.776,3.707,3.709,0,0,0,11.015,65.84,1054.7627863771,3.937008,6,P-GPS,
11000,2025-01-07 02:44:50,37.0152781436557,140.149165270626,3.937008,,,1054.7627863771,5.249344,0,10.8008205556,15.1281828988,18,5,11.182,1055.4189543771,4.593176,6.1068462,11.2858927496,0,0,0,132.8, 1.6, 1.3,0,0,1024,1024,1024,1684,0,0,0,100,137.8,0,0,97,3.774,3.705,3.71,0,0,0,10.858,66.02,1054.7627863771,3.937008,6,P-GPS,
11100,2025-01-07 02:44:50,37.0152780885576,140.149165364424,3.937008,,,1054.7627863771,5.249344,0,10.8145016584,15.1621067844,18,5,11.182,1055.4189543771,4.593176,6.1068462,11.2858927496,0,0,0,136, 2.5, 3.2,0,0,1024,1024,1024,1684,0,0,0,100,141,0,0,97,3.774,3.705,3.71,0,0,0,10.858,66.02,1054.7627863771,3.937008,6,P-GPS,
11200,2025-01-07 02:44:50,37.0152785534569,140.149165447362,3.937008,,,1054.7627863771,5.249344,0,10.9206368324,15.3334322492,18,5,11.182,1055.4189543771,4.593176,6.1068462,11.2858927496,0,0,0,139.4, 0, 2.8,0,0,1024,1024,1024,1684,0,0,0,100,144.2,0,0,97,3.774,3.705,3.71,0,0,0,10.858,66.02,1054.7627863771,3.937008,6,P-GPS,
11300,2025-01-07 02:44:50,37.0152785609977,140.149165464772,3.937008,,,1054.7627863771,5.249344,0,10.9264111108,15.3392065276,18,5,11.182,1055.4189543771,4.593176,6.1068462,11.2858927496,0,0,0,142.7, -2.5, 1.9,0,0,1024,1024,1024,1684,0,0,0,100,147.4,0,0,97,3.774,3.705,3.71,0,0,0,10.858,66.02,1054.7627863771,3.937008,6,P-GPS,
11400,2025-01-07 02:44:50,37.0152790390275,140.149165115415,3.937008,,,1054.7627863771,5.249344,0,10.9291998248,15.5411422296,18,5,11.182,1055.4189543771,4.593176,6.1068462,11.2858927496,0,0,0,145.7, -2.6, 2.7,0,0,1024,1024,1024,1684,0,0,0,100,150.6,0,0,97,3.774,3.705,3.71,0,0,0,10.858,66.02,1054.7627863771,3.937008,6,P-GPS,
11500,2025-01-07 02:44:50,37.0152790329013,140.149165158305,3.937008,,,1054.7627863771,5.249344,0,10.9386814524,15.553806272,17,5,11.182,1055.4189543771,4.593176,6.1068462,11.2858927496,0,0,0,148.8, -0.1, 2.8,0,0,1024,1024,1024,1684,0,0,0,100,153.8,0,0,97,3.774,3.705,3.71,0,0,0,10.858,66.02,1054.7627863771,3.937008,6,P-GPS,
11600,2025-01-07 02:44:51,37.0152792856656,140.149164970631,3.937008,,,1054.7627863771,5.249344,0,10.9408468068,15.6610241232,17,5,11.182,1055.4189543771,4.593176,6.1068462,11.2858927496,0,0,0,152, 1.3, 2.6,0,0,1024,1024,1024,1684,0,0,0,100,157,0,0,97,3.774,3.705,3.71,0,0,0,10.858,66.02,1054.7627863771,3.937008,6,P-GPS,
11700,2025-01-07 02:44:51,37.0152793127595,140.149164953562,3.937008,,,1054.7627863771,5.249344,0,10.9418966756,15.672080554,18,5,11.182,1055.4189543771,4.593176,6.1068462,11.2858927496,0,0,0,155.2, 0, 2.7,0,0,1024,1024,1024,1684,0,0,0,100,160.2,0,0,97,3.774,3.705,3.71,0,0,0,10.858,66.02,1054.7627863771,3.937008,6,P-GPS,
11800,2025-01-07 02:44:51,37.0152796828333,140.149164707967,3.937008,,,1054.7627863771,5.249344,0,10.9542654424,15.8249020812,18,5,11.182,1055.4189543771,4.593176,6.1068462,11.2858927496,0,0,0,158.5, -1.4, 1.6,0,0,1024,1024,1024,1684,0,0,0,100,163.5,0,0,97,3.774,3.705,3.71,0,0,0,10.858,66.02,1054.7627863771,3.937008,6,P-GPS,
11900,2025-01-07 02:44:51,37.0152797258654,140.149164645963,3.937008,,,1054.7627863771,5.249344,0,10.947670954,15.8488194048,18,5,11.182,1055.4189543771,4.593176,6.1068462,11.2858927496,0,0,0,161.6, -1.8, 0,0,0,1024,1024,1024,1684,0,0,0,100,166.6,0,0,97,3.774,3.705,3.71,0,0,0,10.858,66.02,1054.7627863771,3.937008,6,P-GPS,
12000,2025-01-07 02:44:51,37.0152799607994,140.149164700899,3.937008,,,1054.7627863771,5.249344,0,11.00803841,15.936024132,18,5,11.198,1055.4189543771,4.593176,6.1068462,11.2858927496,0,0,0,164.7, -1.2, -0.1,0,0,1024,1024,1024,1684,0,0,0,100,169.8,0,0,97,3.772,3.703,3.706,0,0,0,10.684,66.2,1054.7627863771,3.937008,6,P-GPS,
12100,2025-01-07 02:44:51,37.0152799961526,140.1491647322,3.937008,,,1054.7627863771,5.249344,0,11.0227365732,15.9518377808,18,5,11.198,1055.4189543771,4.593176,6.1068462,11.2858927496,0,0,0,167.8, 0.4, 1.8,0,0,1024,1024,1024,1684,0,0,0,100,173,0,0,97,3.772,3.703,3.706,0,0,0,10.684,66.2,1054.7627863771,3.937008,6,P-GPS,
12200,2025-01-07 02:44:51,37.0152803275558,140.149164495177,3.937008,,,1054.7627863771,5.249344,0,11.03264471,16.0910766304,18,5,11.198,1055.4189543771,4.593176,6.1068462,11.2858927496,0,0,0,171.5, 1.9, 4.4,0,0,1024,1024,1024,1684,0,0,0,100,176.2,0,0,97,3.772,3.703,3.706,0,0,0,10.684,66.2,1054.7627863771,3.937008,6,P-GPS,
12300,2025-01-07 02:44:51,37.0152804323518,140.149164460904,3.937008,,,1054.7627863771,5.249344,0,11.0458993036,16.130577944,18,5,11.198,1055.4189543771,4.593176,6.1068462,11.2858927496,0,0,0,175.1, 2, 4.2,0,0,1024,1024,1024,1684,0,0,0,100,179.4,0,0,97,3.772,3.703,3.706,0,0,0,10.684,66.2,1054.7627863771,3.937008,6,P-GPS,
12400,2025-01-07 02:44:51,37.015280680732,140.149164149781,3.937008,,,1054.7627863771,5.249344,0,11.0229334236,16.2587603628,18,5,11.198,1055.4189543771,4.593176,6.1068462,11.2858927496,0,0,0,178.6, 0.4, 1.6,0,0,1024,1024,1024,1684,0,0,0,100,182.7,0,0,97,3.772,3.703,3.706,0,0,0,10.684,66.2,1054.7627863771,3.937008,6,P-GPS,
12500,2025-01-07 02:44:51,37.0152808765361,140.149164013144,3.937008,,,1054.7627863771,5.577428,0,11.0315948412,16.3405188956,18,5,11.198,1055.4189543771,4.593176,6.1068462,11.2858927496,0,0,0,181.5, -0.7, 0.3,0,0,1024,1024,1024,1684,0,0,0,100,185.9,0,0,97,3.772,3.703,3.706,0,0,0,10.684,66.2,1054.7627863771,3.937008,6,P-GPS,
12600,2025-01-07 02:44:52,37.0152810203549,140.149163876133,3.937008,,,1054.7627863771,5.577428,0,11.029691954,16.4064637796,18,5,11.198,1055.4189543771,4.593176,6.1068462,11.2858927496,0,0,0,184.2, -1.2, 1,0,0,1024,1024,1024,1684,0,0,0,100,189.1,0,0,97,3.772,3.703,3.706,0,0,0,10.684,66.2,1054.7627863771,3.937008,6,P-GPS,
12700,2025-01-07 02:44:52,37.0152812337964,140.149163785315,3.937008,,,1054.7627863771,5.577428,0,11.0540357868,16.4887144384,18,5,11.198,1055.4189543771,4.593176,6.1068462,11.2858927496,0,0,0,187.4, -1.5, 2,0,0,1024,1024,1024,1684,0,0,0,100,192.3,0,0,97,3.772,3.703,3.706,0,0,0,10.684,66.2,1054.7627863771,3.937008,6,P-GPS,
12800,2025-01-07 02:44:52,37.0152810555935,140.149164040298,3.937008,,,1054.7627863771,5.577428,0,11.0760174148,16.587434914,18,5,11.198,1055.4189543771,4.593176,6.1068462,11.2858927496,0,0,0,190.6, -2.1, 1.6,0,0,1024,1024,1024,1684,0,0,0,100,195.5,0,0,97,3.772,3.703,3.706,0,0,0,10.684,66.2,1054.7627863771,3.937008,6,P-GPS,
12900,2025-01-07 02:44:52,37.0152812373312,140.149163950781,3.937008,,,1054.7627863771,5.577428,0,11.0937339508,16.6586619504,18,5,11.198,1055.4189543771,4.593176,6.1068462,11.2858927496,0,0,0,193.8, -2.1, 1,0,0,1024,1024,1024,1684,0,0,0,100,198.7,0,0,97,3.772,3.703,3.706,0,0,0,10.684,66.2,1054.7627863771,3.937008,6,P-GPS,
13000,2025-01-07 02:44:52,37.0152809001584,140.14916392582,3.937008,,,1054.7627863771,5.577428,0,11.0158796176,16.7819231092,18,5,11.182,1055.4189543771,4.593176,6.1068462,11.2858927496,0,0,0,196.9, -2, 1.4,0,0,1024,1024,1024,1684,0,0,0,100,201.9,0,0,97,3.773,3.707,3.709,0,0,0,10.788,66.2,1054.7627863771,3.937008,6,P-GPS,
13100,2025-01-07 02:44:52,37.0152810159892,140.149163831993,3.937008,,,1054.7627863771,5.577428,0,11.0183402476,16.8322511948,18,5,11.182,1055.4189543771,4.593176,6.1068462,11.2858927496,0,0,0,200.1, -1.6, 0.9,0,0,1024,1024,1024,1684,0,0,0,100,205.1,0,0,97,3.773,3.707,3.709,0,0,0,10.788,66.2,1054.7627863771,3.937008,6,P-GPS,
13200,2025-01-07 02:44:52,37.0152808084051,140.149164029371,3.937008,,,1054.7627863771,5.577428,0,11.0210633448,16.927329938,18,5,11.182,1055.4189543771,4.593176,6.1068462,11.2858927496,0,0,0,203.2, -1.7, 0.3,0,0,1024,1024,1024,1684,0,0,0,100,208.3,0,0,97,3.773,3.707,3.709,0,0,0,10.788,66.2,1054.7627863771,3.937008,6,P-GPS,
13300,2025-01-07 02:44:52,37.0152808826023,140.149163953412,3.937008,,,1054.7627863771,5.577428,0,11.01870114,16.9623036924,18,5,11.182,1055.4189543771,4.593176,6.1068462,11.2858927496,0,0,0,206.4, -1.5, 0,0,0,1024,1024,1024,1684,0,0,0,100,211.5,0,0,97,3.773,3.707,3.709,0,0,0,10.788,66.2,1054.7627863771,3.937008,6,P-GPS,
13400,2025-01-07 02:44:52,37.0152805799849,140.149164010638,3.937008,,,1054.7627863771,5.577428,0,10.9686355216,17.0739506776,18,5,11.182,1055.4189543771,4.593176,6.1068462,11.2858927496,0,0,0,209.5, -1.4, 0.5,0,0,1024,1024,1024,1684,0,0,0,100,214.7,0,0,97,3.773,3.707,3.709,0,0,0,10.788,66.2,1054.7627863771,3.937008,6,P-GPS,
13500,2025-01-07 02:44:52,37.0152806031757,140.149163973185,3.937008,,,1054.7627863771,5.577428,0,10.96456728,17.087763014,18,5,11.182,1055.4189543771,4.593176,6.1068462,11.2858927496,0,0,0,212.6, -1.7, 1,0,0,1024,1024,1024,1684,0,0,0,100,218,0,0,97,3.773,3.707,3.709,0,0,0,10.788,66.2,1054.7627863771,3.937008,6,P-GPS,
13600,2025-01-07 02:44:53,37.0152802503421,140.149164214974,3.937008,,,1054.7627863771,5.577428,0,10.9492785656,17.2345149872,18,5,11.182,1055.4189543771,4.593176,6.1068462,11.2858927496,0,0,0,215.9, -1.4, 1.2,0,0,1024,1024,1024,1684,0,0,0,100,221.2,0,0,97,3.773,3.707,3.709,0,0,0,10.788,66.2,1054.7627863771,3.937008,6,P-GPS,
13700,2025-01-07 02:44:53,37.0152802371056,140.149164184437,3.937008,,,1054.7627863771,5.577428,0,10.9392063868,17.2446199744,18,5,11.182,1055.4189543771,4.593176,6.1068462,11.2858927496,0,0,0,219.2, -1.2, 0.7,0,0,1024,1024,1024,1684,0,0,0,100,224.3,0,0,97,3.773,3.707,3.709,0,0,0,10.788,66.2,1054.7627863771,3.937008,6,P-GPS,
13800,2025-01-07 02:44:53,37.0152798469239,140.149164344413,3.937008,,,1054.7627863771,5.577428,0,10.8984911624,17.3944231288,18,5,11.182,1055.4189543771,4.593176,6.1068462,11.2858927496,0,0,0,222.4, -1, 0.2,0,0,1024,1024,1024,1684,0,0,0,100,227.6,0,0,97,3.773,3.707,3.709,0,0,0,10.788,66.2,1054.7627863771,3.937008,6,P-GPS,
13900,2025-01-07 02:44:53,37.0152798019216,140.149164322207,3.937008,,,1054.7627863771,5.577428,0,10.884022658,17.412074048,19,5,11.182,1055.4189543771,4.593176,6.1068462,11.2858927496,0,0,0,225.5, -1.1, 0,0,0,1024,1024,1024,1684,0,0,0,100,230.7,0,0,97,3.772,3.706,3.708,0,0,0,10.788,66.2,1054.7627863771,3.937008,6,P-GPS,
14000,2025-01-07 02:44:53,37.0152795250724,140.149164543322,3.937008,,,1054.7627863771,5.577428,0,10.882710322,17.5318575164,19,5,11.182,1055.4189543771,4.593176,6.1068462,11.2858927496,0,0,0,228.7, -1, -0.4,0,0,1024,1024,1024,1684,0,0,0,100,233.9,0,0,97,3.772,3.706,3.708,0,0,0,10.788,66.2,1054.7627863771,3.937008,6,P-GPS,
14100,2025-01-07 02:44:53,37.0152794457984,140.149164550923,3.937008,,,1054.7627863771,5.577428,0,10.868930794,17.560860142,19,5,11.182,1055.4189543771,4.593176,6.1068462,11.2858927496,0,0,0,231.9, -0.9, -0.1,0,0,1024,1024,1024,1684,0,0,0,100,237.2,0,0,97,3.772,3.706,3.708,0,0,0,10.788,66.2,1054.7627863771,3.937008,6,P-GPS,
14200,2025-01-07 02:44:53,37.0152793575359,140.149164469206,3.937008,,,1054.7627863771,5.577428,0,10.8314964096,17.6009191984,19,5,11.182,1055.4189543771,4.593176,6.1068462,11.2858927496,0,0,0,235.1, -0.7, 0.2,0,0,1024,1024,1024,1684,0,0,0,100,240.3,0,0,97,3.772,3.706,3.708,0,0,0,10.788,66.2,1054.7627863771,3.937008,6,P-GPS,
14300,2025-01-07 02:44:53,37.0152792815964,140.149164486417,3.937008,,,1054.7627863771,5.577428,0,10.8208008712,17.6290688056,19,5,11.182,1055.4189543771,4.593176,6.1068462,11.2858927496,0,0,0,238.3, -1.1, 0.1,0,0,1024,1024,1024,1684,0,0,0,100,243.6,0,0,97,3.772,3.706,3.708,0,0,0,10.788,66.2,1054.7627863771,3.937008,6,P-GPS,
14400,2025-01-07 02:44:53,37.0152793861643,140.149164434866,3.937008,,,1054.7627863771,5.577428,0,10.8287076956,17.6700793056,19,5,11.182,1055.4189543771,4.593176,6.1068462,11.2858927496,0,0,0,241.5, -1.2, -0.6,0,0,1024,1024,1024,1684,0,0,0,100,246.8,0,0,97,3.772,3.706,3.708,0,0,0,10.788,66.2,1054.7627863771,3.937008,6,P-GPS,
14500,2025-01-07 02:44:54,37.0152793487958,140.149164454406,3.937008,,,1054.7627863771,5.577428,0,10.8261486404,17.6848430856,19,5,11.182,1055.4189543771,4.593176,6.1068462,11.2858927496,0,0,0,244.6, -1.3, -1.5,0,0,1024,1024,1024,1684,0,0,0,100,249.9,0,0,97,3.772,3.706,3.708,0,0,0,10.788,66.2,1054.7627863771,3.937008,6,P-GPS,
14600,2025-01-07 02:44:54,37.0152791623262,140.149164550508,3.937008,,,1054.7627863771,5.577428,0,10.8132877476,17.7584323268,19,5,11.182,1055.4189543771,4.593176,6.1068462,11.2858927496,0,0,0,247.8, -1.3, -1,0,0,1024,1024,1024,1684,0,0,0,100,253.2,0,0,97,3.772,3.706,3.708,0,0,0,10.788,66.2,1054.7627863771,3.937008,6,P-GPS,
14700,2025-01-07 02:44:54,37.0152791065053,140.14916459946,3.937008,,,1054.7627863771,5.577428,0,10.8145016584,17.783301094,19,5,11.182,1055.4189543771,4.593176,6.1068462,11.2858927496,0,0,0,251, -1.8, -0.9,0,0,1024,1024,1024,1684,0,0,0,100,256.4,0,0,97,3.772,3.706,3.708,0,0,0,10.788,66.2,1054.7627863771,3.937008,6,P-GPS,
14800,2025-01-07 02:44:54,37.015278892403,140.149164645035,3.937008,,,1054.7627863771,5.577428,0,10.7844819724,17.86253338,19,5,11.189,1055.4189543771,4.593176,6.1068462,11.2858927496,0,0,0,254.2, -2.1, -1.5,0,0,1024,1024,1024,1684,0,0,0,100,259.6,0,0,97,3.771,3.704,3.707,0,0,0,10.546,66.38,1054.7627863771,3.937008,6,P-GPS,
14900,2025-01-07 02:44:54,37.0152788287416,140.14916468836,3.937008,,,1054.7627863771,5.577428,0,10.7830384028,17.888944142,19,5,11.189,1055.4189543771,4.593176,6.1068462,11.2858927496,0,0,0,257.4, -2, -1.8,0,0,1024,1024,1024,1684,0,0,0,100,262.8,0,0,97,3.771,3.704,3.707,0,0,0,10.546,66.38,1054.7627863771,3.937008,6,P-GPS,
15000,2025-01-07 02:44:54,37.0152785970811,140.149164666573,3.937008,,,1054.7627863771,5.577428,0,10.7335633356,17.9737210476,19,5,11.189,1055.4189543771,4.593176,6.1068462,11.2858927496,0,0,0,260.6, -1.6, -2.3,0,0,1024,1024,1024,1684,0,0,0,100,266,0,0,97,3.771,3.704,3.707,0,0,0,10.546,66.38,1054.7627863771,3.937008,6,P-GPS,
15100,2025-01-07 02:44:54,37.0152785083229,140.149164703273,3.937008,,,1054.7627863771,5.249344,0,10.7259845952,18.0078089752,19,5,11.189,1055.4189543771,4.593176,6.1068462,11.2858927496,0,0,0,263.8, -1.5, -2.3,0,0,1024,1024,1024,1684,0,0,0,100,269.1,0,0,97,3.771,3.704,3.707,0,0,0,10.546,66.38,1054.7627863771,3.937008,6,P-GPS,
15200,2025-01-07 02:44:54,37.0152782869369,140.149164955788,3.937008,,,1054.7627863771,5.249344,0,10.7479006064,18.1170609472,19,5,11.189,1055.4189543771,4.593176,6.1068462,11.2858927496,0,0,0,266.8, -1.5, -2.3,0,0,1024,1024,1024,1684,0,0,0,100,272.4,0,0,97,3.771,3.704,3.707,0,0,0,10.546,66.38,1054.7627863771,3.937008,6,P-GPS,
15300,2025-01-07 02:44:54,37.0152781858867,140.149165011642,3.937008,,,1054.7627863771,5.249344,0,10.7433074304,18.1573824708,19,5,11.189,1055.4189543771,4.593176,6.1068462,11.2858927496,0,0,0,269.9, -0.9, -3.4,0,0,1024,1024,1024,1684,0,0,0,100,275.6,0,0,97,3.771,3.704,3.707,0,0,0,10.546,66.38,1054.7627863771,3.937008,6,P-GPS,
15400,2025-01-07 02:44:54,37.015278135648,140.149164920507,3.937008,,,1054.7627863771,5.249344,0,10.71112239,18.189633128,19,5,11.189,1055.4189543771,4.593176,6.1068462,11.2858927496,0,0,0,272.8, -0.5, -4.8,0,0,1024,1024,1024,1684,0,0,0,100,278.8,0,0,97,3.771,3.704,3.707,0,0,0,10.546,66.38,1054.7627863771,3.937008,6,P-GPS,
15500,2025-01-07 02:44:55,37.0152779906952,140.149164974432,3.937008,,,1054.7627863771,5.249344,0,10.6981958804,18.2447840484,19,5,11.189,1055.4189543771,4.593176,6.1068462,11.2858927496,0,0,0,275.8, -0.5, -4.3,0,0,1024,1024,1024,1684,0,0,0,100,282,0,0,97,3.771,3.704,3.707,0,0,0,10.546,66.38,1054.7627863771,3.937008,6,P-GPS,
15600,2025-01-07 02:44:55,37.0152782104985,140.149164747097,3.937008,,,1054.7627863771,5.249344,0,10.6813651712,18.3488194848,19,5,11.189,1055.4189543771,4.593176,6.1068462,11.2858927496,0,0,0,279, -1, -2.7,0,0,1024,1024,1024,1684,0,0,0,100,285.2,0,0,97,3.771,3.704,3.707,0,0,0,10.546,66.38,1054.7627863771,3.937008,6,P-GPS,
15700,2025-01-07 02:44:55,37.0152780595672,140.149164785149,3.937008,,,1054.7627863771,5.249344,0,10.6630908924,18.4049874656,18,5,11.189,1055.4189543771,4.593176,6.1068462,11.2858927496,0,0,0,282.5, -0.6, -2,0,0,1024,1024,1024,1684,0,0,0,100,288.4,0,0,97,3.771,3.704,3.707,0,0,0,10.546,66.38,1054.7627863771,3.937008,6,P-GPS,
15800,2025-01-07 02:44:55,37.0152780863699,140.149164593951,3.937008,,,1054.7627863771,5.249344,0,10.6199478464,18.4615163388,18,5,11.189,1055.4189543771,4.593176,6.1068462,11.2858927496,0,0,0,285.8, 0, -2.6,0,0,1024,1024,1024,1684,0,0,0,100,291.6,0,0,97,3.771,3.704,3.707,0,0,0,10.546,66.38,1054.7627863771,3.937008,6,P-GPS,
15900,2025-01-07 02:44:55,37.0152779677592,140.149164624484,3.937008,,,1054.7627863771,5.249344,0,10.6057746176,18.5057092536,18,5,11.186,1055.4189543771,4.593176,6.1068462,11.2858927496,0,0,0,289, 0, -3.4,0,0,1024,1024,1024,1684,0,0,0,100,294.8,0,0,97,3.76,3.69,3.695,0,0,0,10.519,66.56,1054.7627863771,3.937008,6,P-GPS,
16000,2025-01-07 02:44:55,37.0152779679702,140.14916476591,3.937008,,,1054.7627863771,5.249344,0,10.6414701568,18.546916604,18,5,11.186,1055.4189543771,4.593176,6.1068462,11.2858927496,0,0,0,292.1, -0.3, -3.7,0,0,1024,1024,1024,1024,0,0,0,0,298,0,0,97,3.76,3.69,3.695,0,0,0,10.519,66.56,1054.7627863771,3.937008,6,P-GPS,
16100,2025-01-07 02:44:55,37.0152778296019,140.149164806571,3.937008,,,1054.7627863771,5.577428,0,10.6265095264,18.598753876,18,5,11.186,1055.4189543771,4.593176,6.1068462,11.2858927496,0,0,0,294.9, 0, -3.1,0,0,1024,1024,1024,1024,0,0,0,0,301,0,0,97,3.76,3.69,3.695,0,0,0,10.519,66.56,1054.7627863771,3.937008,6,P-GPS,
16200,2025-01-07 02:44:55,37.0152778271947,140.149164739603,3.937008,,,1054.7627863771,5.249344,0,10.6091538828,18.6183076824,18,5,11.186,1055.4189543771,4.593176,6.1068462,11.2858927496,0,0,0,296.8, 0.1, -2.6,0,0,1024,1024,1024,1024,0,0,0,0,302.8,0,0,97,3.76,3.69,3.695,0,0,0,10.519,66.56,1054.7627863771,3.937008,6,P-GPS,
16300,2025-01-07 02:44:55,37.0152776837013,140.14916478211,3.937008,,,1054.7627863771,5.577428,0,10.5939635936,18.67208065,18,5,11.186,1055.4189543771,4.593176,6.1068462,11.2858927496,0,0,0,298.4, -0.1, -2.8,0,0,1024,1024,1024,1024,0,0,0,0,303.6,0,0,97,3.76,3.69,3.695,0,0,0,10.519,66.56,1054.7627863771,3.937008,6,P-GPS,
16400,2025-01-07 02:44:55,37.0152777981765,140.149164700376,3.937008,,,1054.7627863771,5.249344,0,10.5939635936,18.7201777644,18,5,11.186,1055.4189543771,4.593176,6.1068462,11.2858927496,0,0,0,299.5, -0.2, -3.4,0,0,1024,1024,1024,1024,0,0,0,0,303.8,0,0,97,3.76,3.69,3.695,0,0,0,10.519,66.56,1054.7627863771,3.937008,6,P-GPS,
16500,2025-01-07 02:44:55,37.0152776629917,140.149164730116,3.937008,,,1054.7627863771,5.249344,0,10.5770672676,18.7702433828,17,5,11.186,1055.4189543771,4.593176,6.1068462,11.2858927496,0,0,0,299.3, 0, -2.9,0,0,1024,1024,1024,1024,0,0,0,0,303.8,0,0,97,3.76,3.69,3.695,0,0,0,10.519,66.56,1054.7627863771,3.937008,6,P-GPS,
16600,2025-01-07 02:44:56,37.0152776538918,140.149164654506,3.937008,,,1054.7627863771,5.249344,0,10.556266742,18.7925202864,17,5,11.186,1055.4189543771,4.593176,6.1068462,11.2858927496,0,0,0,299.3, 0, -2.4,0,0,1024,1024,1024,1024,0,0,0,0,303.8,0,0,97,3.76,3.69,3.695,0,0,0,10.519,66.56,1054.7627863771,3.937008,6,P-GPS,
16700,2025-01-07 02:44:56,37.0152775073724,140.1491646722,3.937008,,,1054.7627863771,5.249344,0,10.5344163476,18.8462276372,17,5,11.186,1055.4189543771,4.593176,6.1068462,11.2858927496,0,0,0,299.4, -0.3, -2,0,0,1024,1024,924,1024,0,0,-15,0,303.8,0,0,97,3.76,3.69,3.695,0,0,0,10.519,66.56,1054.7627863771,3.937008,6,P-GPS,
16800,2025-01-07 02:44:56,37.0152775228104,140.149164586014,3.937008,,,1054.7627863771,5.249344,0,10.5153218588,18.8719494228,17,5,11.14,1055.4189543771,4.593176,6.1068462,11.2858927496,0,0,0,299.5, -0.7, -1.1,0,0,1024,1024,818,1024,0,0,-31,0,303.8,0,0,97,3.761,3.692,3.696,0,0,0,10.92,66.74,1054.7627863771,3.937008,6,P-GPS,
16900,2025-01-07 02:44:56,37.0152773995695,140.149164580768,3.937008,,,1054.7627863771,5.249344,0,10.491962278,18.9169625476,17,5,11.14,1055.4189543771,4.593176,6.1068462,11.2858927496,0,0,0,299.7, -0.1, -0.6,0,0,1024,1024,785,1024,0,0,-36,0,303.8,0,0,97,3.761,3.692,3.696,0,0,0,10.92,66.74,1054.7627863771,3.937008,6,P-GPS,
17000,2025-01-07 02:44:56,37.0152771887376,140.149164699869,3.937008,,,1054.7627863771,5.249344,0,10.4849740888,19.0013457524,17,5,11.14,1055.4189543771,4.593176,6.1068462,11.2858927496,0,0,0.447388,299.8, 0.1, -1,0,0,1024,1024,786,1024,0,0,-36,0,303.8,0,0,97,3.761,3.692,3.696,0,0,0,10.92,66.74,1054.7627863771,3.937008,6,P-GPS,
17100,2025-01-07 02:44:56,37.0152770909266,140.1491647248,3.608924,,,1054.4347023771,5.249344,0,10.4742129336,19.0377630764,17,5,11.14,1055.4189543771,4.593176,6.1068462,11.2858927496,0,0,0.894776,299.7, 0, -1.6,0,0,1024,1024,801,1024,0,0,-34,0,303.8,0,0,97,3.761,3.692,3.696,0,0,0,10.92,66.74,1054.4347023771,3.608924,6,P-GPS,
17200,2025-01-07 02:44:56,37.015277125724,140.149164704048,3.608924,,,1054.4347023771,4.92126,0,10.4750003352,19.0518050716,17,5,11.14,1055.4189543771,4.593176,6.1068462,11.2858927496,0,0,1.11847,299.7, -0.2, -1.7,0,0,1024,1024,1024,1024,0,0,0,0,303.8,0,0,97,3.761,3.692,3.696,0,0,0,10.92,66.74,1054.4347023771,3.608924,6,P-GPS,
17300,2025-01-07 02:44:56,37.0152770509903,140.149164727697,3.28084,,,1054.1066183771,4.92126,0,10.4679793376,19.0799546788,17,5,11.14,1055.4189543771,4.593176,6.1068462,11.2858927496,0,0,1.342164,299.7, -0.2, -1.9,0,0,1024,1024,1070,1024,0,0,7,0,303.8,0,0,97,3.761,3.692,3.696,0,0,0,10.92,66.74,1054.1066183771,3.28084,6,P-GPS,
17400,2025-01-07 02:44:56,37.0152768610404,140.14916488448,3.28084,,,1054.1066183771,4.593176,0,10.4753612276,19.1629271224,17,5,11.14,1055.4189543771,4.593176,6.1068462,11.2858927496,0,0,1.11847,299.7, -0.4, -1.9,0,0,1024,1024,1070,1024,0,0,7,0,303.8,0,0,97,3.761,3.692,3.696,0,0,0,10.92,66.74,1054.1066183771,3.28084,6,P-GPS,
17500,2025-01-07 02:44:56,37.0152767828287,140.149164901273,2.952756,,,1053.7785343771,4.593176,0,10.4662733008,19.1918969396,17,5,11.14,1055.4189543771,4.593176,6.1068462,11.2858927496,0,0,0.671082,299.6, -0.1, -1.7,0,0,1024,1024,1108,1024,0,0,13,0,303.8,0,0,97,3.761,3.692,3.696,0,0,0,10.92,66.74,1053.7785343771,2.952756,6,P-GPS,
17600,2025-01-07 02:44:57,37.0152766921451,140.149165128287,2.952756,,,1053.7785343771,4.265092,0,10.5093835384,19.2658470732,17,5,11.14,1055.4189543771,4.593176,6.1068462,11.2858927496,0,0,0.223694,299.7, 0.2, -1.4,0,0,1024,1024,1120,1024,0,0,15,0,303.8,0,0,97,3.761,3.692,3.696,0,0,0,10.92,66.74,1053.7785343771,2.952756,6,P-GPS,
17700,2025-01-07 02:44:57,37.0152766220726,140.14916516316,2.952756,,,1053.7785343771,4.265092,0,10.5065948244,19.2933405124,17,5,11.14,1055.4189543771,4.593176,6.1068462,11.2858927496,0,0,0,299.6, 0.4, -1.6,0,0,1024,1024,1024,1024,0,0,0,0,303.8,0,0,97,3.761,3.692,3.696,0,0,0,10.92,66.74,1053.7785343771,2.952756,6,P-GPS,
17800,2025-01-07 02:44:57,37.0152765010623,140.14916552764,2.952756,,,1053.7785343771,4.593176,0,10.5808402336,19.4083339544,17,5,11.154,1055.4189543771,4.593176,6.1068462,11.2858927496,0,0,0,299.6, 0.3, -1.7,0,0,953,1024,1024,1024,-11,0,0,0,303.8,0,0,97,3.719,3.638,3.644,0,0,0,10.844,66.92,1053.7785343771,2.952756,6,P-GPS,
17900,2025-01-07 02:44:57,37.0152764227574,140.149165606101,2.952756,,,1053.7785343771,4.593176,0,10.5883205488,19.4449481288,18,5,11.154,1055.4189543771,4.593176,6.1068462,11.2858927496,0,0,0,299.7, 0.3, -1.5,0,0,772,1024,1024,1024,-38,0,0,0,303.8,0,0,97,3.719,3.638,3.644,0,0,0,10.844,66.92,1053.7785343771,2.952756,6,P-GPS,
18000,2025-01-07 02:44:57,37.015276285674,140.149165665506,2.952756,,,1053.7785343771,4.593176,0,10.581365168,19.497868078,18,5,11.154,1055.4189543771,4.593176,6.1068462,11.2858927496,0,0,0,299.7, 1.1, -1.6,0,0,731,1024,1024,1024,-44,0,0,0,303.8,0,0,97,3.719,3.638,3.644,0,0,0,10.844,66.92,1053.7785343771,2.952756,6,P-GPS,
18100,2025-01-07 02:44:57,37.0152761997524,140.149165759269,2.952756,,,1053.7785343771,4.593176,0,10.5918966644,19.5394363208,18,5,11.154,1055.4189543771,4.593176,6.1068462,11.2858927496,0,0,0,299.5, 3.9, -1.6,0,0,642,1024,1024,1024,-58,0,0,0,303.8,0,0,97,3.719,3.638,3.644,0,0,0,10.844,66.92,1053.7785343771,2.952756,6,P-GPS,
18200,2025-01-07 02:44:57,37.0152763394625,140.149166019922,2.952756,,,1053.7785343771,4.593176,0,10.6825462736,19.63090614,18,5,11.154,1055.4189543771,4.593176,6.1068462,11.2858927496,0,0,0,299.3, 7, -1.6,0,0,681,1024,1024,1024,-52,0,0,0,303.8,0,0,97,3.719,3.638,3.644,0,0,0,10.844,66.92,1053.7785343771,2.952756,6,P-GPS,
18300,2025-01-07 02:44:57,37.0152762107123,140.149166275052,2.952756,,,1053.7785343771,4.593176,0.3131716,10.7285764588,19.718832652,18,5,11.154,1055.4189543771,4.593176,6.1068462,11.2858927496,-0.223694,0.223694,0,299, 10.2, -1.8,0,0,647,1024,1024,1024,-57,0,0,0,303.8,0,0,97,3.719,3.638,3.644,0,0,0,10.844,66.92,1053.7785343771,2.952756,6,P-GPS,
18400,2025-01-07 02:44:57,37.0152762231093,140.149166235358,2.952756,,,1053.7785343771,4.593176,0.7158208,10.7201775084,19.7312342272,18,5,11.154,1055.4189543771,4.593176,6.1068462,11.2858927496,-0.223694,0.671082,0,298.8, 11.5, -2.2,0,0,647,1024,1024,1024,-57,0,0,0,303.8,0,0,97,3.719,3.638,3.644,0,0,0,10.844,66.92,1053.7785343771,2.952756,6,P-GPS,
18500,2025-01-07 02:44:57,37.0152759587074,140.149166785463,2.952756,,,1053.7785343771,4.593176,1.2079476,10.8230974592,19.9182749156,18,5,11.154,1055.4189543771,4.593176,6.1068462,11.2858927496,-0.447388,1.11847,0,298.9, 12.1, -2.1,0,0,617,1024,1024,1024,-62,0,0,0,303.8,0,0,97,3.719,3.638,3.644,0,0,0,10.844,66.92,1053.7785343771,2.952756,6,P-GPS,
18600,2025-01-07 02:44:58,37.0152759649225,140.149166891024,2.952756,,,1053.7785343771,4.593176,1.4987498,10.8519032344,19.9491148116,18,5,11.154,1055.4189543771,4.593176,6.1068462,11.2858927496,-0.671082,1.342164,0,299, 11.9, -1.7,0,0,695,1024,1024,1024,-50,0,0,0,303.8,0,0,97,3.719,3.638,3.644,0,0,0,10.844,66.92,1053.7785343771,2.952756,6,P-GPS,
18700,2025-01-07 02:44:58,37.0152755625239,140.149167754494,2.952756,,,1053.7785343771,4.593176,1.9908766,11.0200462844,20.2403877868,18,5,11.154,1055.4189543771,4.593176,6.1068462,11.2858927496,-0.894776,1.789552,0,299, 11.8, -2,0,0,647,1024,1024,1024,-57,0,0,0,303.8,0,0,97,3.719,3.638,3.644,0,0,0,10.844,66.92,1053.7785343771,2.952756,6,P-GPS,
18800,2025-01-07 02:44:58,37.0152751376015,140.149168186503,2.952756,,,1053.7785343771,4.593176,2.3040482,11.074147336,20.4400597092,18,5,11.154,1055.4189543771,4.593176,6.1068462,11.2858927496,-1.11847,2.013246,0,299, 11.4, -1.8,0,0,660,1024,1024,1024,-55,0,0,0,303.8,0,0,97,3.719,3.638,3.644,0,0,0,10.844,66.92,1053.7785343771,2.952756,6,P-GPS,
