time(millisecond),datetime(utc),latitude,longitude,height_above_takeoff(feet),height_above_ground_at_drone_location(feet),ground_elevation_at_drone_location(feet),altitude_above_seaLevel(feet),height_sonar(feet),speed(mph),distance(feet),mileage(feet),satellites,gpslevel,voltage(v),max_altitude(feet),max_ascent(feet),max_speed(mph),max_distance(feet), xSpeed(mph), ySpeed(mph), zSpeed(mph), compass_heading(degrees), pitch(degrees), roll(degrees),isPhoto,isVideo,rc_elevator,rc_aileron,rc_throttle,rc_rudder,rc_elevator(percent),rc_aileron(percent),rc_throttle(percent),rc_rudder(percent),gimbal_heading(degrees),gimbal_pitch(degrees),gimbal_roll(degrees),battery_percent,voltageCell1,voltageCell2,voltageCell3,voltageCell4,voltageCell5,voltageCell6,current(A),battery_temperature(f),altitude(feet),ascent(feet),flycStateRaw,flycState,message
0,2025-01-07 02:23:29,0,0,0,Available with any HD 360 subscription,Available with any HD 360 subscription,1047.6393547187,0.328084,0,0,0,0,0,0,1047.6393547187,0,0,0,0,0,0,51.8, 0.7, 0.8,0,0,1024,1024,1024,1024,0,0,0,0,53.5,0,0,97,3.973,3.964,3.969,0,0,0,0,65.3,1047.6393547187,0,41,Motors_Started,
100,2025-01-07 02:23:29,0,0,0,,,1047.6393547187,0.328084,0,0,0,0,0,0,1047.6393547187,0,0,0,0,0,0,51.8, 0.7, 0.8,0,0,1024,1024,1024,1024,0,0,0,0,53.5,0,0,97,3.973,3.964,3.969,0,0,0,0,65.3,1047.6393547187,0,41,Motors_Started,飛行中
200,2025-01-07 02:23:29,0,0,0,,,1047.6393547187,0.328084,0,0,0,0,0,0,1047.6393547187,0,0,0,0,0,0,51.8, 0.7, 0.8,0,0,1024,1024,1024,1024,0,0,0,0,53.5,0,0,97,3.973,3.964,3.969,0,0,0,0,65.3,1047.6393547187,0,41,Motors_Started,
300,2025-01-07 02:23:30,0,0,0,,,1047.6393547187,0.328084,0,0,0,4,0,0,1047.6393547187,0,0,0,0,0,0,51.8, 0.7, 0.8,0,0,1024,1024,1024,1024,0,0,0,0,53.5,0,0,97,3.973,3.964,3.969,0,0,0,0,65.3,1047.6393547187,0,41,Motors_Started,"Setting new Return-To-Home altitude to 100m (328 ft). Data Recorder File Index is 9. Setting new Maximum Flight Altitude to 30m (98 ft)"
400,2025-01-07 02:23:30,0,0,0,,,1047.6393547187,0.328084,0,0,0,4,0,0,1047.6393547187,0,0,0,0,0,0,51.8, 0.7, 0.8,0,0,1024,1024,1024,1024,0,0,0,0,53.5,0,0,97,3.973,3.964,3.969,0,0,0,0,65.3,1047.6393547187,0,41,Motors_Started,
500,2025-01-07 02:23:30,0,0,0,,,1047.6393547187,0.328084,0,0,0,4,0,0,1047.6393547187,0,0,0,0,0,0,51.8, 0.7, 0.8,0,0,1024,1024,1024,1024,0,0,0,0,53.5,0,0,97,3.973,3.964,3.969,0,0,0,0,65.3,1047.6393547187,0,41,Motors_Started,
600,2025-01-07 02:23:30,0,0,0,,,1047.6393547187,0.328084,0,0,0,4,0,0,1047.6393547187,0,0,0,0,0,0,51.8, 0.7, 0.8,0,0,1024,1024,1024,1024,0,0,0,0,53.5,0,0,97,3.973,3.964,3.969,0,0,0,0,65.3,1047.6393547187,0,41,Motors_Started,
700,2025-01-07 02:23:30,0,0,0,,,1047.6393547187,0.328084,0,0,0,4,0,0,1047.6393547187,0,0,0,0,0,0,51.8, 0.7, 0.8,0,0,1024,1024,1024,1024,0,0,0,0,53.5,0,0,97,3.973,3.964,3.969,0,0,0,0,65.3,1047.6393547187,0,41,Motors_Started,
800,2025-01-07 02:23:30,0,0,0,,,1047.6393547187,0.328084,0,0,0,4,0,0,1047.6393547187,0,0,0,0,0,0,51.8, 0.7, 0.8,0,0,1024,1024,1024,1024,0,0,0,0,53.5,0,0,97,3.973,3.964,3.969,0,0,0,0,65.3,1047.6393547187,0,41,Motors_Started,
900,2025-01-07 02:23:30,0,0,0,,,1047.6393547187,0.328084,0,0,0,4,0,0,1047.6393547187,0,0,0,0,0,0,51.8, 0.7, 0.8,0,0,1024,1024,1024,1024,0,0,0,0,53.5,0,0,97,3.973,3.964,3.969,0,0,0,0,65.3,1047.6393547187,0,41,Motors_Started,
1000,2025-01-07 02:23:30,0,0,0,,,1047.6393547187,0.328084,0,0,0,4,0,0,1047.6393547187,0,0,0,0,0,0,51.8, 0.7, 0.8,0,0,1024,1024,1024,1024,0,0,0,0,53.5,0,0,97,3.973,3.964,3.969,0,0,0,0,65.3,1047.6393547187,0,41,Motors_Started,
1100,2025-01-07 02:23:30,0,0,0,,,1047.6393547187,0.328084,0,0,0,4,0,0,1047.6393547187,0,0,0,0,0,0,51.8, 0.7, 0.8,0,0,1024,1024,1024,1024,0,0,0,0,53.5,0,0,97,3.973,3.964,3.969,0,0,0,0,65.3,1047.6393547187,0,41,Motors_Started,
1200,2025-01-07 02:23:30,0,0,0,,,1047.6393547187,0.328084,0,0,0,4,0,12.074,1047.6393547187,0,0,0,0,0,0,51.8, 0.6, 0.8,0,0,1024,1024,1024,1024,0,0,0,0,53.5,0,0,97,3.973,3.964,3.969,0,0,0,1.449,65.3,1047.6393547187,0,41,Motors_Started,
1300,2025-01-07 02:23:31,0,0,0,,,1047.6393547187,0.328084,0,0,0,4,0,12.074,1047.6393547187,0,0,0,0,0,0,51.8, 0.6, 0.8,0,0,1024,1024,1024,1024,0,0,0,0,53.5,0,0,97,3.973,3.964,3.969,0,0,0,1.449,65.3,1047.6393547187,0,41,Motors_Started,
1400,2025-01-07 02:23:31,0,0,0,,,1047.6393547187,0.328084,0,0,0,4,0,12.074,1047.6393547187,0,0,0,0,0,0,51.8, 0.7, 0.8,0,0,1024,1024,1024,1024,0,0,0,0,53.5,0,0,97,3.973,3.964,3.969,0,0,0,1.449,65.3,1047.6393547187,0,41,Motors_Started,
1500,2025-01-07 02:23:31,0,0,0,,,1047.6393547187,0.328084,0,0,0,4,0,12.074,1047.6393547187,0,0,0,0,0,0,51.7, 0.7, 0.8,0,0,1024,1024,1024,1024,0,0,0,0,53.5,0,0,97,3.973,3.964,3.969,0,0,0,1.449,65.3,1047.6393547187,0,11,AutoTakeoff,
1600,2025-01-07 02:23:31,0,0,0,,,1047.6393547187,0.328084,0,0,0,4,0,12.074,1047.6393547187,0,0,0,0,0,0,51.7, 0.7, 0.8,0,0,1024,1024,1024,1024,0,0,0,0,53.5,0,0,97,3.973,3.964,3.969,0,0,0,1.449,65.3,1047.6393547187,0,11,AutoTakeoff,
1700,2025-01-07 02:23:31,0,0,0,,,1047.6393547187,0.328084,0,0,0,4,0,12.074,1047.6393547187,0,0,0,0,0,0,51.7, 0.6, 0.7,0,0,1024,1024,1024,1024,0,0,0,0,53.5,0,0,97,3.973,3.964,3.969,0,0,0,1.449,65.3,1047.6393547187,0,11,AutoTakeoff,
1800,2025-01-07 02:23:31,0,0,0,,,1047.6393547187,0.328084,0,0,0,4,0,12.074,1047.6393547187,0,0,0,0,0,0,51.8, 0.5, 0.7,0,0,1024,1024,1024,1024,0,0,0,0,53.5,0,0,97,3.973,3.964,3.969,0,0,0,1.449,65.3,1047.6393547187,0,11,AutoTakeoff,
1900,2025-01-07 02:23:31,0,0,0,,,1047.6393547187,0.328084,0,0,0,4,0,12.074,1047.6393547187,0,0,0,0,0,0,51.8, 0.3, 0.7,0,0,1024,1024,1024,1024,0,0,0,0,53.5,0,0,97,3.973,3.964,3.969,0,0,0,1.449,65.3,1047.6393547187,0,11,AutoTakeoff,
2000,2025-01-07 02:23:31,0,0,0,,,1047.6393547187,0.328084,0,0,0,4,0,12.074,1047.6393547187,0,0,0,0,0,0,51.8, 0.1, 0.7,0,0,1024,1024,1024,1024,0,0,0,0,53.5,0,0,97,3.973,3.964,3.969,0,0,0,1.449,65.3,1047.6393547187,0,11,AutoTakeoff,
2100,2025-01-07 02:23:31,0,0,0,,,1047.6393547187,0.328084,0,0,0,4,0,12.074,1047.6393547187,0,0,0,0,0,0,51.8, -0.4, 0.3,0,0,1024,1024,1024,1024,0,0,0,0,53.5,0,0,97,3.973,3.964,3.969,0,0,0,1.449,65.3,1047.6393547187,0,11,AutoTakeoff,
2200,2025-01-07 02:23:31,0,0,0,,,1047.6393547187,0.328084,0,0,0,4,0,11.828,1047.6393547187,0,0,0,0,0,0,51.7, -1.6, 0.2,0,0,1024,1024,1024,1024,0,0,0,0,53.5,0,0,97,3.945,3.937,3.95,0,0,0,3.758,65.3,1047.6393547187,0,11,AutoTakeoff,
2300,2025-01-07 02:23:31,0,0,0,,,1047.6393547187,0.328084,0,0,0,4,0,11.828,1047.6393547187,0,0,0,0,0,0,51.1, -3.6, -0.2,0,0,1024,1024,1024,1024,0,0,0,0,53.5,0,0,97,3.945,3.937,3.95,0,0,0,3.758,65.3,1047.6393547187,0,11,AutoTakeoff,
2400,2025-01-07 02:23:32,0,0,0,,,1047.6393547187,0.328084,0,0,0,4,0,11.828,1047.6393547187,0,0,0,0,0,0,49.8, -5.2, -1.5,0,0,1024,1024,1024,1024,0,0,0,0,53.5,0,0,97,3.945,3.937,3.95,0,0,0,3.758,65.3,1047.6393547187,0,11,AutoTakeoff,
2500,2025-01-07 02:23:32,0,0,0,,,1047.6393547187,0.328084,0.3131716,0,0,4,0,11.828,1047.6393547187,0,0,0,0.223694,0.223694,-0.223694,47.9, -5.8, -2.6,0,0,1024,1024,1024,1024,0,0,0,0,53.3,0,0,97,3.945,3.937,3.95,0,0,0,3.758,65.3,1047.6393547187,0,11,AutoTakeoff,
2600,2025-01-07 02:23:32,0,0,0,,,1047.6393547187,0.328084,0.4921268,0,0,4,0,11.828,1047.6393547187,0,0,0,0.447388,0.223694,-0.447388,47.8, -2.2, -2.4,0,0,1024,1024,1024,1024,0,0,0,0,52.9,0,0,97,3.945,3.937,3.95,0,0,0,3.758,65.3,1047.6393547187,0,11,AutoTakeoff,
2700,2025-01-07 02:23:32,0,0,0,,,1047.6393547187,0.328084,0.7158208,0,0,4,0,11.828,1047.6393547187,0,0,0,0.671082,0.223694,-0.671082,48, 2.8, -0.2,0,0,1024,1024,1024,1024,0,0,0,0,52.5,0,0,97,3.945,3.937,3.95,0,0,0,3.758,65.3,1047.6393547187,0,11,AutoTakeoff,
2800,2025-01-07 02:23:32,0,0,0.328084,,,1047.9674387187,0.328084,0.4921268,0,0,4,0,11.828,1047.9674387187,0.328084,0,0,0.447388,0.223694,-0.894776,48.3, 4.2, 1.5,0,0,1024,1024,1024,1024,0,0,0,0,52.3,0,0,97,3.945,3.937,3.95,0,0,0,3.758,65.3,1047.9674387187,0.328084,11,AutoTakeoff,
2900,2025-01-07 02:23:32,0,0,0.328084,,,1047.9674387187,0.328084,0.447388,0,0,4,0,11.828,1047.9674387187,0.328084,0,0,0.447388,0,-0.894776,48.3, 2.9, 2,0,0,1024,1024,1024,1024,0,0,0,0,52.1,0,0,97,3.945,3.937,3.95,0,0,0,3.758,65.3,1047.9674387187,0.328084,11,AutoTakeoff,
3000,2025-01-07 02:23:32,0,0,0.328084,,,1047.9674387187,0.656168,0.447388,0,0,4,0,11.828,1047.9674387187,0.328084,0,0,0.223694,0,-0.894776,48.4, 1.5, 1.6,0,0,1024,1024,1024,1024,0,0,0,0,52,0,0,97,3.945,3.937,3.95,0,0,0,3.758,65.3,1047.9674387187,0.328084,11,AutoTakeoff,
3100,2025-01-07 02:23:32,0,0,0.656168,,,1048.2955227187,0.984252,0.223694,0,0,4,0,11.828,1048.2955227187,0.656168,0,0,0.223694,0,-0.894776,48.2, 1.6, 1.1,0,0,1024,1024,1024,1024,0,0,0,0,51.9,0,0,97,3.945,3.937,3.95,0,0,0,3.758,65.3,1048.2955227187,0.656168,11,AutoTakeoff,
3200,2025-01-07 02:23:32,0,0,0.656168,,,1048.2955227187,0.984252,0.223694,0,0,4,0,11.921,1048.2955227187,0.656168,0,0,0.223694,0,-0.894776,48.2, 2.3, 0.4,0,0,1024,1024,1024,1024,0,0,0,0,51.8,0,0,97,3.896,3.87,3.869,0,0,0,3.257,65.48,1048.2955227187,0.656168,11,AutoTakeoff,
3300,2025-01-07 02:23:32,0,0,0.984252,,,1048.6236067187,1.312336,0.223694,0,0,4,0,11.921,1048.6236067187,0.984252,0,0,0.223694,0,-0.894776,48.1, 2.4, 0.2,0,0,1024,1024,1024,1024,0,0,0,0,51.6,0,0,97,3.896,3.87,3.869,0,0,0,3.257,65.48,1048.6236067187,0.984252,11,AutoTakeoff,
3400,2025-01-07 02:23:33,0,0,0.984252,,,1048.6236067187,1.312336,0.223694,0,0,4,0,11.921,1048.6236067187,0.984252,0,0,0.223694,0,-0.894776,48.3, 2.4, 1,0,0,1024,1024,1024,1024,0,0,0,0,51.5,0,0,97,3.896,3.87,3.869,0,0,0,3.257,65.48,1048.6236067187,0.984252,11,AutoTakeoff,
3500,2025-01-07 02:23:33,0,0,1.312336,,,1048.9516907187,1.64042,0.223694,0,0,4,0,11.921,1048.9516907187,1.312336,0,0,0.223694,0,-0.894776,48.3, 2.9, 2.2,0,0,1024,1024,1024,1024,0,0,0,0,51.5,0,0,97,3.896,3.87,3.869,0,0,0,3.257,65.48,1048.9516907187,1.312336,11,AutoTakeoff,
3600,2025-01-07 02:23:33,0,0,1.312336,,,1048.9516907187,1.64042,0,0,0,4,0,11.921,1048.9516907187,1.312336,0,0,0,0,-0.894776,48.2, 2.9, 2.5,0,0,1024,1024,1024,1024,0,0,0,0,51.4,0,0,97,3.896,3.87,3.869,0,0,0,3.257,65.48,1048.9516907187,1.312336,11,AutoTakeoff,
3700,2025-01-07 02:23:33,0,0,1.64042,,,1049.2797747187,1.64042,0,0,0,4,0,11.921,1049.2797747187,1.64042,0,0,0,0,-0.894776,48.3, 1.9, 1.9,0,0,1024,1024,1027,1024,0,0,0,0,51.3,0,0,97,3.896,3.87,3.869,0,0,0,3.257,65.48,1049.2797747187,1.64042,11,AutoTakeoff,
3800,2025-01-07 02:23:33,0,0,1.64042,,,1049.2797747187,1.968504,0,0,0,4,0,11.921,1049.2797747187,1.64042,0,0,0,0,-0.894776,48.3, 1.4, 1.6,0,0,1024,1024,1027,1024,0,0,0,0,51.2,0,0,97,3.896,3.87,3.869,0,0,0,3.257,65.48,1049.2797747187,1.64042,11,AutoTakeoff,
3900,2025-01-07 02:23:33,0,0,1.968504,,,1049.6078587187,1.968504,0,0,0,4,0,11.921,1049.6078587187,1.968504,0,0,0,0,-0.894776,48.3, 1.9, 1.6,0,0,1024,1024,1024,1024,0,0,0,0,51.2,0,0,97,3.896,3.87,3.869,0,0,0,3.257,65.48,1049.6078587187,1.968504,11,AutoTakeoff,
4000,2025-01-07 02:23:33,0,0,1.968504,,,1049.6078587187,2.296588,0,0,0,4,0,11.921,1049.6078587187,1.968504,0,0,0,0,-0.894776,48.3, 2.2, 1.4,0,0,1024,1024,1024,1024,0,0,0,0,51.1,0,0,97,3.896,3.87,3.869,0,0,0,3.257,65.48,1049.6078587187,1.968504,11,AutoTakeoff,
4100,2025-01-07 02:23:33,0,0,2.296588,,,1049.9359427187,2.624672,0,0,0,4,0,11.921,1049.9359427187,2.296588,0,0,0,0,-0.894776,48.2, 1.9, 0.7,0,0,1024,1024,1024,1024,0,0,0,0,51.1,0,0,97,3.896,3.87,3.869,0,0,0,3.257,65.48,1049.9359427187,2.296588,11,AutoTakeoff,
4200,2025-01-07 02:23:33,0,0,2.296588,,,1049.9359427187,2.624672,0,0,0,4,0,11.342,1049.9359427187,2.296588,0,0,0,0,-0.894776,48.3, 1.6, 0.2,0,0,1024,1057,1024,1024,0,5,0,0,51,0,0,97,3.771,3.757,3.767,0,0,0,9.013,65.48,1049.9359427187,2.296588,11,AutoTakeoff,
4300,2025-01-07 02:23:34,0,0,2.624672,,,1050.2640267187,2.624672,0,0,0,4,0,11.342,1050.2640267187,2.624672,0,0,0,0,-0.894776,48.3, 1.5, 0.3,0,0,1024,1145,1024,1024,0,18,0,0,51,0,0,97,3.771,3.757,3.767,0,0,0,9.013,65.48,1050.2640267187,2.624672,11,AutoTakeoff,
4400,2025-01-07 02:23:34,0,0,2.624672,,,1050.2640267187,2.952756,0,0,0,4,0,11.342,1050.2640267187,2.624672,0,0,0,0,-1.11847,48.3, 0.8, 1,0,0,1024,1246,1024,1024,0,34,0,0,51,0,0,97,3.771,3.757,3.767,0,0,0,9.013,65.48,1050.2640267187,2.624672,11,AutoTakeoff,
4500,2025-01-07 02:23:34,0,0,2.952756,,,1050.5921107187,2.952756,0,0,0,4,0,11.342,1050.5921107187,2.952756,0,0,0,0,-1.11847,48.3, 0.8, 2,0,0,1024,1295,1024,1024,0,41,0,0,50.9,0,0,97,3.771,3.757,3.767,0,0,0,9.013,65.48,1050.5921107187,2.952756,11,AutoTakeoff,
4600,2025-01-07 02:23:34,0,0,2.952756,,,1050.5921107187,3.28084,0,0,0,4,0,11.342,1050.5921107187,2.952756,0,0,0,0,-1.11847,48.3, 1.2, 4.5,0,0,1024,1294,1024,1024,0,41,0,0,50.9,0,0,97,3.771,3.757,3.767,0,0,0,9.013,65.48,1050.5921107187,2.952756,11,AutoTakeoff,
4700,2025-01-07 02:23:34,0,0,3.28084,,,1050.9201947187,3.28084,0,0,0,4,0,11.342,1050.9201947187,3.28084,0,0,0,0,-1.11847,48.3, 1.4, 7.3,0,0,1024,1252,1024,1024,0,35,0,0,50.9,0,0,97,3.771,3.757,3.767,0,0,0,9.013,65.48,1050.9201947187,3.28084,11,AutoTakeoff,
4800,2025-01-07 02:23:34,0,0,3.28084,,,1050.9201947187,3.608924,0.3131716,0,0,4,0,11.342,1050.9201947187,3.28084,0,0,-0.223694,0.223694,-0.894776,48.3, 1.3, 8,0,0,1024,1253,1024,1024,0,35,0,0,50.8,0,0,97,3.771,3.757,3.767,0,0,0,9.013,65.48,1050.9201947187,3.28084,6,P-GPS,
4900,2025-01-07 02:23:34,0,0,3.608924,,,1051.2482787187,3.608924,0.6263432,0,0,4,0,11.342,1051.2482787187,3.608924,0,0,-0.447388,0.447388,-0.894776,48.7, 1.5, 6.4,0,0,1024,1239,1024,1024,0,33,0,0,50.8,0,0,97,3.771,3.757,3.767,0,0,0,9.013,65.48,1051.2482787187,3.608924,6,P-GPS,
5000,2025-01-07 02:23:34,0,0,3.608924,,,1051.2482787187,3.937008,0.8052984,0,0,4,0,11.342,1051.2482787187,3.608924,0,0,-0.671082,0.447388,-0.447388,49.4, 1.7, 5.1,0,0,1024,1204,1024,1024,0,27,0,0,50.8,0,0,97,3.771,3.757,3.767,0,0,0,9.013,65.48,1051.2482787187,3.608924,6,P-GPS,
5100,2025-01-07 02:23:34,0,0,3.608924,,,1051.2482787187,3.937008,0.9395148,0,0,4,0,11.342,1051.2482787187,3.608924,0,0,-0.671082,0.671082,-0.223694,49.6, 1.2, 5.3,0,0,1024,1204,1024,1024,0,27,0,0,50.8,0,0,97,3.771,3.757,3.767,0,0,0,9.013,65.48,1051.2482787187,3.608924,6,P-GPS,
5200,2025-01-07 02:23:34,0,0,3.608924,,,1051.2482787187,3.937008,0.9395148,0,0,4,0,11.274,1051.2482787187,3.608924,0,0,-0.671082,0.671082,0,49.7, 0.8, 5.6,0,0,1024,1202,1024,1024,0,27,0,0,50.8,0,0,97,3.758,3.744,3.755,0,0,0,10.853,65.48,1051.2482787187,3.608924,6,P-GPS,
5300,2025-01-07 02:23:35,0,0,3.937008,,,1051.5763627187,3.937008,1.2750558,0,0,4,0,11.274,1051.5763627187,3.937008,0,0,-0.894776,0.894776,0,49.9, 1, 4.2,0,0,1024,1184,1024,1024,0,24,0,0,50.8,0,0,97,3.758,3.744,3.755,0,0,0,10.853,65.48,1051.5763627187,3.937008,6,P-GPS,
5400,2025-01-07 02:23:35,0,0,3.937008,,,1051.5763627187,3.937008,1.2750558,0,0,4,0,11.274,1051.5763627187,3.937008,0,0,-0.894776,0.894776,0,49.9, 1.4, 2.1,0,0,1024,1182,1024,1024,0,24,0,0,50.8,0,0,97,3.758,3.744,3.755,0,0,0,10.853,65.48,1051.5763627187,3.937008,6,P-GPS,
5500,2025-01-07 02:23:35,0,0,3.608924,,,1051.2482787187,3.937008,1.2750558,0,0,4,0,11.274,1051.5763627187,3.937008,0,0,-0.894776,0.894776,0,49.7, 1.5, 1.2,0,0,1024,1100,1024,1024,0,12,0,0,50.8,0,0,97,3.758,3.744,3.755,0,0,0,10.853,65.48,1051.2482787187,3.608924,6,P-GPS,
5600,2025-01-07 02:23:35,0,0,3.608924,,,1051.2482787187,3.937008,1.2750558,0,0,4,0,11.274,1051.5763627187,3.937008,0,0,-0.894776,0.894776,0,49.6, 1.6, 1.3,0,0,1024,1024,1024,1024,0,0,0,0,50.8,0,0,97,3.758,3.744,3.755,0,0,0,10.853,65.48,1051.2482787187,3.608924,6,P-GPS,
5700,2025-01-07 02:23:35,0,0,3.608924,,,1051.2482787187,3.608924,1.2750558,0,0,4,0,11.274,1051.5763627187,3.937008,0,0,-0.894776,0.894776,0,49.6, 1.7, 0.6,0,0,1024,1024,1024,1024,0,0,0,0,50.8,0,0,97,3.758,3.744,3.755,0,0,0,10.853,65.48,1051.2482787187,3.608924,6,P-GPS,
5800,2025-01-07 02:23:35,0,0,3.608924,,,1051.2482787187,3.608924,1.2750558,0,0,4,0,11.274,1051.5763627187,3.937008,0,0,-0.894776,0.894776,0,49.5, 1.7, -2.7,0,0,1024,1024,1115,1024,0,0,14,0,50.8,0,0,97,3.758,3.744,3.755,0,0,0,10.853,65.48,1051.2482787187,3.608924,6,P-GPS,
5900,2025-01-07 02:23:35,0,0,3.608924,,,1051.2482787187,3.937008,0.9395148,0,0,4,0,11.274,1051.5763627187,3.937008,0,0,-0.671082,0.671082,0,49, 1.6, -5.5,0,0,1024,1024,1172,1024,0,0,22,0,50.8,0,0,97,3.758,3.744,3.755,0,0,0,10.853,65.48,1051.2482787187,3.608924,6,P-GPS,
6000,2025-01-07 02:23:35,0,0,3.608924,,,1051.2482787187,3.608924,0.6263432,0,0,4,0,11.274,1051.5763627187,3.937008,0,0,-0.447388,0.447388,0,48.3, 1.5, -4.7,0,0,1024,1024,1182,1024,0,0,24,0,50.8,0,0,97,3.758,3.744,3.755,0,0,0,10.853,65.48,1051.2482787187,3.608924,6,P-GPS,
6100,2025-01-07 02:23:35,0,0,3.608924,,,1051.2482787187,3.937008,0.4921268,0,0,4,0,11.274,1051.5763627187,3.937008,0,0,-0.223694,0.447388,-0.223694,48, 1.4, -2.6,0,0,1024,1024,1181,1024,0,0,24,0,50.8,0,0,97,3.758,3.744,3.755,0,0,0,10.853,65.48,1051.2482787187,3.608924,6,P-GPS,
6200,2025-01-07 02:23:35,0,0,3.608924,,,1051.2482787187,3.937008,0.3131716,0,0,4,0,11.245,1051.5763627187,3.937008,0,0,-0.223694,0.223694,-0.447388,48.2, 1.2, -1.8,0,0,1024,1024,1181,1024,0,0,24,0,50.8,0,0,97,3.779,3.763,3.771,0,0,0,10.639,65.66,1051.2482787187,3.608924,6,P-GPS,
6300,2025-01-07 02:23:36,0,0,3.937008,,,1051.5763627187,3.937008,0.3131716,0,0,4,0,11.245,1051.5763627187,3.937008,0,0,-0.223694,0.223694,-0.447388,48.5, 1.3, -1.8,0,0,1024,1024,1181,1024,0,0,24,0,50.8,0,0,97,3.779,3.763,3.771,0,0,0,10.639,65.66,1051.5763627187,3.937008,6,P-GPS,
6400,2025-01-07 02:23:36,0,0,3.937008,,,1051.5763627187,3.937008,0,0,0,4,0,11.245,1051.5763627187,3.937008,0,0,0,0,-0.671082,48.5, 1.6, -1.3,0,0,1024,1024,1180,1024,0,0,24,0,50.8,0,0,97,3.779,3.763,3.771,0,0,0,10.639,65.66,1051.5763627187,3.937008,6,P-GPS,
6500,2025-01-07 02:23:36,0,0,3.937008,,,1051.5763627187,4.265092,0,0,0,4,0,11.245,1051.5763627187,3.937008,0,0,0,0,-0.671082,48.6, 1.5, -0.4,0,0,1024,1024,1182,1024,0,0,24,0,50.8,0,0,97,3.779,3.763,3.771,0,0,0,10.639,65.66,1051.5763627187,3.937008,6,P-GPS,
6600,2025-01-07 02:23:36,0,0,4.265092,,,1051.9044467187,4.265092,0,0,0,4,0,11.245,1051.9044467187,4.265092,0,0,0,0,-0.671082,48.8, 1.5, 0.1,0,0,1024,1024,1183,1024,0,0,24,0,50.8,0,0,97,3.779,3.763,3.771,0,0,0,10.639,65.66,1051.9044467187,4.265092,6,P-GPS,
6700,2025-01-07 02:23:36,0,0,4.265092,,,1051.9044467187,4.265092,0,0,0,4,0,11.245,1051.9044467187,4.265092,0,0,0,0,-0.671082,49, 1.7, 0,0,0,1024,1024,1230,1024,0,0,31,0,50.8,0,0,97,3.779,3.763,3.771,0,0,0,10.639,65.66,1051.9044467187,4.265092,6,P-GPS,
6800,2025-01-07 02:23:36,0,0,4.265092,,,1051.9044467187,4.593176,0,0,0,4,0,11.245,1051.9044467187,4.265092,0,0,0,0,-0.894776,49.1, 1.7, 0,0,0,1024,1024,1221,1024,0,0,30,0,50.8,0,0,97,3.779,3.763,3.771,0,0,0,10.639,65.66,1051.9044467187,4.265092,6,P-GPS,
6900,2025-01-07 02:23:36,0,0,4.593176,,,1052.2325307187,4.593176,0,0,0,4,0,11.245,1052.2325307187,4.593176,0,0,0,0,-0.894776,49.1, 1.6, 0.3,0,0,1024,1024,1162,1024,0,0,21,0,50.8,0,0,97,3.779,3.763,3.771,0,0,0,10.639,65.66,1052.2325307187,4.593176,6,P-GPS,
7000,2025-01-07 02:23:36,0,0,4.593176,,,1052.2325307187,4.92126,0,0,0,4,0,11.245,1052.2325307187,4.593176,0,0,0,0,-1.11847,49.2, 1.7, 1,0,0,1024,1024,1024,1024,0,0,0,0,50.8,0,0,97,3.779,3.763,3.771,0,0,0,10.639,65.66,1052.2325307187,4.593176,6,P-GPS,
7100,2025-01-07 02:23:36,0,0,4.92126,,,1052.5606147187,4.92126,0,0,0,4,0,11.245,1052.5606147187,4.92126,0,0,0,0,-0.894776,49.4, 1.8, 1.6,0,0,1024,1024,1024,1024,0,0,0,0,50.8,0,0,97,3.779,3.763,3.771,0,0,0,10.639,65.66,1052.5606147187,4.92126,6,P-GPS,
7200,2025-01-07 02:23:36,0,0,4.92126,,,1052.5606147187,4.92126,0,0,0,4,0,11.237,1052.5606147187,4.92126,0,0,0,0,-0.671082,49.6, 1.9, 2,0,0,1024,1125,1024,1024,0,15,0,0,50.8,0,0,97,3.723,3.711,3.726,0,0,0,10.25,65.66,1052.5606147187,4.92126,6,P-GPS,
7300,2025-01-07 02:23:37,0,0,4.92126,,,1052.5606147187,5.249344,0,0,0,4,0,11.237,1052.5606147187,4.92126,0,0,0,0,-0.223694,49.7, 1.8, 1.6,0,0,1024,1222,1024,1024,0,30,0,0,50.8,0,0,97,3.723,3.711,3.726,0,0,0,10.25,65.66,1052.5606147187,4.92126,6,P-GPS,
7400,2025-01-07 02:23:37,0,0,4.92126,,,1052.5606147187,5.249344,0,0,0,4,0,11.237,1052.5606147187,4.92126,0,0,0,0,0,49.7, 1.4, 1.3,0,0,1024,1222,1024,1024,0,30,0,0,50.8,0,0,97,3.723,3.711,3.726,0,0,0,10.25,65.66,1052.5606147187,4.92126,6,P-GPS,
7500,2025-01-07 02:23:37,0,0,4.92126,,,1052.5606147187,5.249344,0,0,0,4,0,11.237,1052.5606147187,4.92126,0,0,0,0,0,49.7, 1.5, 2.4,0,0,1024,1247,1024,1024,0,34,0,0,50.8,0,0,97,3.723,3.711,3.726,0,0,0,10.25,65.66,1052.5606147187,4.92126,6,P-GPS,
7600,2025-01-07 02:23:37,0,0,4.92126,,,1052.5606147187,5.249344,0,0,0,4,0,11.237,1052.5606147187,4.92126,0,0,0,0,0,49.6, 1.7, 4.3,0,0,1024,1247,1024,1024,0,34,0,0,50.8,0,0,97,3.723,3.711,3.726,0,0,0,10.25,65.66,1052.5606147187,4.92126,6,P-GPS,
7700,2025-01-07 02:23:37,0,0,4.92126,,,1052.5606147187,5.249344,0,0,0,4,0,11.237,1052.5606147187,4.92126,0,0,0,0,0,49.9, 1.9, 5.3,0,0,1024,1246,1024,1024,0,34,0,0,50.8,0,0,97,3.723,3.711,3.726,0,0,0,10.25,65.66,1052.5606147187,4.92126,6,P-GPS,
7800,2025-01-07 02:23:37,0,0,4.92126,,,1052.5606147187,5.249344,0.223694,0,0,4,0,11.237,1052.5606147187,4.92126,0,0,0,0.223694,0,50.3, 1.6, 5.1,0,0,1024,1278,1024,1024,0,38,0,0,50.8,0,0,97,3.723,3.711,3.726,0,0,0,10.25,65.66,1052.5606147187,4.92126,6,P-GPS,
7900,2025-01-07 02:23:37,0,0,4.92126,,,1052.5606147187,5.249344,0.3131716,0,0,4,0,11.237,1052.5606147187,4.92126,0,0,-0.223694,0.223694,0,50.4, 1.4, 5.3,0,0,1024,1328,1024,1024,0,46,0,0,50.8,0,0,97,3.723,3.711,3.726,0,0,0,10.25,65.66,1052.5606147187,4.92126,6,P-GPS,
8000,2025-01-07 02:23:37,0,0,4.92126,,,1052.5606147187,5.249344,0.4921268,0,0,4,0,11.237,1052.5606147187,4.92126,0,0,-0.223694,0.447388,0,50.6, 1.9, 6.5,0,0,1024,1378,1024,1024,0,54,0,0,50.8,0,0,97,3.723,3.711,3.726,0,0,0,10.25,65.66,1052.5606147187,4.92126,6,P-GPS,
8100,2025-01-07 02:23:37,0,0,4.92126,,,1052.5606147187,5.249344,0.6263432,0,0,4,0,11.237,1052.5606147187,4.92126,0,0,-0.447388,0.447388,0,50.9, 2.2, 7.8,0,0,1024,1341,1024,1024,0,48,0,0,50.8,0,0,97,3.723,3.711,3.726,0,0,0,10.25,65.66,1052.5606147187,4.92126,6,P-GPS,
8200,2025-01-07 02:23:37,0,0,4.92126,,,1052.5606147187,4.92126,0.9395148,0,0,4,0,11.194,1052.5606147187,4.92126,0,0,-0.671082,0.671082,0,51.3, 1.7, 9.6,0,0,1024,1339,1024,1024,0,48,0,0,50.8,0,0,97,3.772,3.758,3.769,0,0,0,11.746,65.84,1052.5606147187,4.92126,6,P-GPS,
8300,2025-01-07 02:23:38,0,0,4.92126,,,1052.5606147187,4.92126,1.2750558,0,0,5,0,11.194,1052.5606147187,4.92126,1.2750558,0,-0.894776,0.894776,0,51.7, 1.6, 11.1,0,0,1024,1338,1024,1024,0,48,0,0,50.8,0,0,97,3.772,3.758,3.769,0,0,0,11.746,65.84,1052.5606147187,4.92126,6,P-GPS,
8400,2025-01-07 02:23:38,0,0,4.92126,,,1052.5606147187,4.92126,1.5882274,0,0,5,0,11.194,1052.5606147187,4.92126,1.5882274,0,-1.11847,1.11847,0,52.1, 1.8, 10.2,0,0,1024,1339,1024,1024,0,48,0,0,50.8,0,0,97,3.772,3.758,3.769,0,0,0,11.746,65.84,1052.5606147187,4.92126,6,P-GPS,
8500,2025-01-07 02:23:38,0,0,4.92126,,,1052.5606147187,4.92126,1.901399,0,0,5,0,11.194,1052.5606147187,4.92126,1.901399,0,-1.342164,1.342164,0,52.2, 1.7, 9.3,0,0,1024,1336,1024,1024,0,47,0,0,50.8,0,0,97,3.772,3.758,3.769,0,0,0,11.746,65.84,1052.5606147187,4.92126,6,P-GPS,
8600,2025-01-07 02:23:38,0,0,4.92126,,,1052.5606147187,4.92126,2.2145706,0,0,5,0,11.194,1052.5606147187,4.92126,2.2145706,0,-1.565858,1.565858,0,52.1, 1.7, 9.5,0,0,1024,1336,1024,1024,0,47,0,0,50.8,0,0,97,3.772,3.758,3.769,0,0,0,11.746,65.84,1052.5606147187,4.92126,6,P-GPS,
8700,2025-01-07 02:23:38,0,0,4.92126,,,1052.5606147187,4.92126,2.3711564,0,0,5,0,11.194,1052.5606147187,4.92126,2.3711564,0,-1.789552,1.565858,0,52.2, 1.9, 9.3,0,0,1024,1318,1024,1024,0,45,0,0,50.8,0,0,97,3.772,3.758,3.769,0,0,0,11.746,65.84,1052.5606147187,4.92126,6,P-GPS,
8800,2025-01-07 02:23:38,0,0,4.92126,,,1052.5606147187,4.92126,2.684328,0,0,5,0,11.194,1052.5606147187,4.92126,2.684328,0,-2.013246,1.789552,0,52.2, 2, 8.2,0,0,1024,1317,1024,1024,0,44,0,0,50.8,0,0,97,3.772,3.758,3.769,0,0,0,11.746,65.84,1052.5606147187,4.92126,6,P-GPS,
8900,2025-01-07 02:23:38,0,0,4.92126,,,1052.5606147187,4.92126,3.019869,0,0,5,0,11.194,1052.5606147187,4.92126,3.019869,0,-2.23694,2.013246,0,52.2, 1.6, 7.9,0,0,1024,1317,1024,1024,0,44,0,0,50.8,0,0,97,3.772,3.758,3.769,0,0,0,11.746,65.84,1052.5606147187,4.92126,6,P-GPS,
9000,2025-01-07 02:23:38,0,0,4.92126,,,1052.5606147187,4.92126,3.019869,0,0,5,0,11.194,1052.5606147187,4.92126,3.019869,0,-2.460634,2.013246,0,52, 1.4, 7.5,0,0,1024,1308,1024,1024,0,43,0,0,50.8,0,0,97,3.772,3.758,3.769,0,0,0,11.746,65.84,1052.5606147187,4.92126,6,P-GPS,
9100,2025-01-07 02:23:38,0,0,4.92126,,,1052.5606147187,5.249344,3.3330406,0,0,5,0,11.194,1052.5606147187,4.92126,3.3330406,0,-2.460634,2.23694,0,51.8, 1.5, 6.9,0,0,1024,1295,1024,1024,0,41,0,0,50.8,0,0,97,3.772,3.758,3.769,0,0,0,11.746,65.84,1052.5606147187,4.92126,6,P-GPS,
9200,2025-01-07 02:23:38,0,0,4.92126,,,1052.5606147187,5.577428,3.4896264,0,0,5,0,11.218,1052.5606147187,4.92126,3.4896264,0,-2.684328,2.23694,0,51.3, 1.4, 6.9,0,0,1024,1291,1024,1024,0,40,0,0,50.8,0,0,97,3.731,3.717,3.729,0,0,0,10.007,66.02,1052.5606147187,4.92126,6,P-GPS,
9300,2025-01-07 02:23:39,0,0,4.92126,,,1052.5606147187,5.905512,3.4896264,0,0,5,0,11.218,1052.5606147187,4.92126,3.4896264,0,-2.684328,2.23694,0,50.9, 1.2, 6.6,0,0,1024,1291,1024,1024,0,40,0,0,50.8,0,0,97,3.731,3.717,3.729,0,0,0,10.007,66.02,1052.5606147187,4.92126,6,P-GPS,
9400,2025-01-07 02:23:39,0,0,4.92126,,,1052.5606147187,6.233596,3.4896264,0,0,5,0,11.218,1052.5606147187,4.92126,3.4896264,0,-2.684328,2.460634,0,51, 1.5, 5.3,0,0,1024,1278,1024,1024,0,38,0,0,50.8,0,0,97,3.731,3.717,3.729,0,0,0,10.007,66.02,1052.5606147187,4.92126,6,P-GPS,
9500,2025-01-07 02:23:39,0,0,4.92126,,,1052.5606147187,6.56168,3.6462122,0,0,5,0,11.218,1052.5606147187,4.92126,3.6462122,0,-2.684328,2.460634,0,51.1, 1.9, 4.4,0,0,1024,1255,1024,1024,0,35,0,0,50.8,0,0,97,3.731,3.717,3.729,0,0,0,10.007,66.02,1052.5606147187,4.92126,6,P-GPS,
9600,2025-01-07 02:23:39,0,0,4.92126,,,1052.5606147187,6.56168,3.6462122,0,0,5,0,11.218,1052.5606147187,4.92126,3.6462122,0,-2.684328,2.460634,0,50.8, 1.8, 5,0,0,1024,1250,1024,1024,0,34,0,0,50.8,0,0,97,3.731,3.717,3.729,0,0,0,10.007,66.02,1052.5606147187,4.92126,6,P-GPS,
9700,2025-01-07 02:23:39,0,0,4.92126,,,1052.5606147187,6.56168,3.802798,0,0,5,0,11.218,1052.5606147187,4.92126,3.802798,0,-2.908022,2.460634,0,50.5, 1.8, 4.9,0,0,1024,1250,1024,1024,0,34,0,0,50.8,0,0,97,3.731,3.717,3.729,0,0,0,10.007,66.02,1052.5606147187,4.92126,6,P-GPS,
9800,2025-01-07 02:23:39,0,0,4.92126,,,1052.5606147187,6.233596,3.802798,0,0,5,0,11.218,1052.5606147187,4.92126,3.802798,0,-2.908022,2.460634,0,50.6, 1.3, 3.8,0,0,1024,1250,1024,1024,0,34,0,0,50.8,0,0,97,3.731,3.717,3.729,0,0,0,10.007,66.02,1052.5606147187,4.92126,6,P-GPS,
9900,2025-01-07 02:23:39,0,0,4.92126,,,1052.5606147187,6.56168,3.802798,0,0,5,0,11.218,1052.5606147187,4.92126,3.802798,0,-2.908022,2.460634,0,50.4, 1.1, 3,0,0,1024,1213,1024,1024,0,29,0,0,50.8,0,0,97,3.731,3.717,3.729,0,0,0,10.007,66.02,1052.5606147187,4.92126,6,P-GPS,
10000,2025-01-07 02:23:39,0,0,4.92126,,,1052.5606147187,6.56168,3.802798,0,0,5,0,11.218,1052.5606147187,4.92126,3.802798,0,-2.908022,2.460634,0,50, 1.3, 3.1,0,0,1024,1202,1024,1024,0,27,0,0,50.8,0,0,97,3.731,3.717,3.729,0,0,0,10.007,66.02,1052.5606147187,4.92126,6,P-GPS,
10100,2025-01-07 02:23:39,0,0,4.92126,,,1052.5606147187,6.56168,3.802798,0,0,5,0,11.218,1052.5606147187,4.92126,3.802798,0,-2.908022,2.460634,0,49.8, 1.3, 2.9,0,0,1024,1038,1024,1024,0,2,0,0,50.8,0,0,97,3.731,3.717,3.729,0,0,0,10.007,66.02,1052.5606147187,4.92126,6,P-GPS,
10200,2025-01-07 02:23:39,0,0,4.92126,,,1052.5606147187,6.56168,3.4896264,0,0,5,0,11.16,1052.5606147187,4.92126,3.802798,0,-2.684328,2.23694,0,49.8, 1, 1.7,0,0,1024,1024,1024,1024,0,0,0,0,50.8,0,0,97,3.724,3.711,3.723,0,0,0,11.257,66.2,1052.5606147187,4.92126,6,P-GPS,
10300,2025-01-07 02:23:39,0,0,4.92126,,,1052.5606147187,6.56168,3.4896264,0,0,5,0,11.16,1052.5606147187,4.92126,3.802798,0,-2.684328,2.23694,0,49.6, 0.8, -4.5,0,0,1024,1024,1024,1024,0,0,0,0,50.8,0,0,97,3.724,3.711,3.723,0,0,0,11.257,66.2,1052.5606147187,4.92126,6,P-GPS,
10400,2025-01-07 02:23:40,0,0,4.92126,,,1052.5606147187,6.56168,3.1764548,0,0,5,0,11.16,1052.5606147187,4.92126,3.802798,0,-2.460634,2.013246,0,48.7, 1.1, -12.8,0,0,1024,1024,1024,1024,0,0,0,0,50.8,0,0,97,3.724,3.711,3.723,0,0,0,11.257,66.2,1052.5606147187,4.92126,6,P-GPS,
10500,2025-01-07 02:23:40,0,0,4.92126,,,1052.5606147187,6.56168,2.5501116,0,0,5,0,11.16,1052.5606147187,4.92126,3.802798,0,-2.013246,1.565858,0,47.4, 1.1, -14.5,0,0,1024,1024,1024,1024,0,0,0,0,50.8,0,0,97,3.724,3.711,3.723,0,0,0,11.257,66.2,1052.5606147187,4.92126,6,P-GPS,
10600,2025-01-07 02:23:40,0,0,4.92126,,,1052.5606147187,6.56168,1.7448132,0,0,5,0,11.16,1052.5606147187,4.92126,3.802798,0,-1.342164,1.11847,0,46.9, 0.5, -9.3,0,0,1024,1024,1054,1024,0,0,5,0,50.8,0,0,97,3.724,3.711,3.723,0,0,0,11.257,66.2,1052.5606147187,4.92126,6,P-GPS,
10700,2025-01-07 02:23:40,0,0,4.92126,,,1052.5606147187,6.56168,1.4316416,0,0,5,0,11.16,1052.5606147187,4.92126,3.802798,0,-1.11847,0.894776,0,46.7, 0.1, -5.9,0,0,1024,1024,1131,1024,0,0,16,0,50.8,0,0,97,3.724,3.711,3.723,0,0,0,11.257,66.2,1052.5606147187,4.92126,6,P-GPS,
10800,2025-01-07 02:23:40,0,0,4.92126,,,1052.5606147187,6.889764,1.11847,0,0,5,0,11.16,1052.5606147187,4.92126,3.802798,0,-0.894776,0.671082,0,47.1, 0.6, -5.5,0,0,1024,1024,1131,1024,0,0,16,0,50.8,0,0,97,3.724,3.711,3.723,0,0,0,11.257,66.2,1052.5606147187,4.92126,6,P-GPS,
10900,2025-01-07 02:23:40,0,0,4.92126,,,1052.5606147187,6.889764,0.8052984,0,0,5,0,11.16,1052.5606147187,4.92126,3.802798,0,-0.671082,0.447388,0,47.5, 0.6, -5.8,0,0,1024,1024,1176,1024,0,0,23,0,50.8,0,0,97,3.724,3.711,3.723,0,0,0,11.257,66.2,1052.5606147187,4.92126,6,P-GPS,
11000,2025-01-07 02:23:40,0,0,4.92126,,,1052.5606147187,6.889764,0.4921268,0,0,5,0,11.16,1052.5606147187,4.92126,3.802798,0,-0.447388,0.223694,-0.223694,47.7, 0.1, -4.1,0,0,1024,1024,1182,1024,0,0,24,0,50.8,0,0,97,3.724,3.711,3.723,0,0,0,11.257,66.2,1052.5606147187,4.92126,6,P-GPS,
11100,2025-01-07 02:23:40,0,0,4.92126,,,1052.5606147187,6.889764,0.223694,0,0,5,0,11.16,1052.5606147187,4.92126,3.802798,0,-0.223694,0,-0.447388,48.1, 0, -1.8,0,0,1024,1024,1204,1024,0,0,27,0,50.8,0,0,97,3.724,3.711,3.723,0,0,0,11.257,66.2,1052.5606147187,4.92126,6,P-GPS,
11200,2025-01-07 02:23:40,0,0,5.249344,,,1052.8886987187,6.889764,0.223694,0,0,5,0,11.147,1052.8886987187,5.249344,3.802798,0,-0.223694,0,-0.671082,48.6, 0.2, -0.8,0,0,1024,1024,1225,1024,0,0,30,0,50.8,0,0,97,3.723,3.709,3.722,0,0,0,11.296,66.2,1052.8886987187,5.249344,6,P-GPS,
11300,2025-01-07 02:23:41,0,0,5.249344,,,1052.8886987187,6.889764,0.223694,0,0,5,0,11.147,1052.8886987187,5.249344,3.802798,0,-0.223694,0,-0.894776,48.9, 0.1, -0.7,0,0,1024,1024,1229,1024,0,0,31,0,50.8,0,0,97,3.723,3.709,3.722,0,0,0,11.296,66.2,1052.8886987187,5.249344,6,P-GPS,
11400,2025-01-07 02:23:41,0,0,5.249344,,,1052.8886987187,7.217848,0,0,0,5,0,11.147,1052.8886987187,5.249344,3.802798,0,0,0,-1.11847,49.1, -0.1, -0.5,0,0,1024,1024,1233,1024,0,0,32,0,50.8,0,0,97,3.723,3.709,3.722,0,0,0,11.296,66.2,1052.8886987187,5.249344,6,P-GPS,
11500,2025-01-07 02:23:41,0,0,5.577428,,,1053.2167827187,7.217848,0,0,0,5,0,11.147,1053.2167827187,5.577428,3.802798,0,0,0,-1.11847,49.2, 0, 0,0,0,1024,1024,1257,1024,0,0,35,0,50.8,0,0,97,3.723,3.709,3.722,0,0,0,11.296,66.2,1053.2167827187,5.577428,6,P-GPS,
11600,2025-01-07 02:23:41,0,0,5.905512,,,1053.5448667187,7.545932,0,0,0,5,0,11.147,1053.5448667187,5.905512,3.802798,0,0,0,-1.342164,49.2, 0.3, 0.6,0,0,1024,1024,1277,1024,0,0,38,0,50.8,0,0,97,3.723,3.709,3.722,0,0,0,11.296,66.2,1053.5448667187,5.905512,6,P-GPS,
11700,2025-01-07 02:23:41,0,0,5.905512,,,1053.5448667187,7.874016,0,0,0,5,0,11.147,1053.5448667187,5.905512,3.802798,0,0,0,-1.565858,49.3, 0.5, 0.6,0,0,1024,1024,1294,1024,0,0,41,0,50.8,0,0,97,3.723,3.709,3.722,0,0,0,11.296,66.2,1053.5448667187,5.905512,6,P-GPS,
11800,2025-01-07 02:23:41,0,0,6.233596,,,1053.8729507187,7.874016,0,0,0,5,0,11.147,1053.8729507187,6.233596,3.802798,0,0,0,-1.565858,49.3, 0.4, 0.2,0,0,1024,1024,1296,1024,0,0,41,0,50.8,0,0,97,3.723,3.709,3.722,0,0,0,11.296,66.2,1053.8729507187,6.233596,6,P-GPS,
11900,2025-01-07 02:23:41,0,0,6.56168,,,1054.2010347187,8.2021,0,0,0,5,0,11.147,1054.2010347187,6.56168,3.802798,0,0,0,-2.013246,49.2, 0.1, -0.1,0,0,1024,1024,1295,1024,0,0,41,0,50.8,0,0,97,3.723,3.709,3.722,0,0,0,11.296,66.2,1054.2010347187,6.56168,6,P-GPS,
12000,2025-01-07 02:23:41,0,0,6.889764,,,1054.5291187187,8.530184,0,0,0,5,0,11.147,1054.5291187187,6.889764,3.802798,0,0,0,-2.23694,49.3, 0.6, -0.1,0,0,1024,1024,1295,1024,0,0,41,0,50.8,0,0,97,3.723,3.709,3.722,0,0,0,11.296,66.2,1054.5291187187,6.889764,6,P-GPS,
12100,2025-01-07 02:23:41,0,0,7.217848,,,1054.8572027187,8.858268,0,0,0,5,0,11.147,1054.8572027187,7.217848,3.802798,0,0,0,-2.23694,49.3, 1.4, -0.1,0,0,1024,1024,1294,1024,0,0,41,0,50.8,0,0,97,3.723,3.709,3.722,0,0,0,11.296,66.2,1054.8572027187,7.217848,6,P-GPS,
12200,2025-01-07 02:23:41,0,0,7.545932,,,1055.1852867187,9.186352,0,0,0,5,0,11.137,1055.1852867187,7.545932,3.802798,0,0,0,-2.460634,49.3, 1.9, 0.1,0,0,1024,1024,1295,1024,0,0,41,0,50.8,0,0,97,3.693,3.678,3.688,0,0,0,11.444,66.38,1055.1852867187,7.545932,6,P-GPS,
12300,2025-01-07 02:23:42,0,0,7.874016,,,1055.5133707187,9.514436,0,0,0,5,0,11.137,1055.5133707187,7.874016,3.802798,0,0,0,-2.460634,49.4, 1.7, 0.2,0,0,1024,1024,1155,1024,0,0,20,0,50.8,0,0,97,3.693,3.678,3.688,0,0,0,11.444,66.38,1055.5133707187,7.874016,6,P-GPS,
12400,2025-01-07 02:23:42,0,0,8.2021,,,1055.8414547187,9.84252,0,0,0,5,0,11.137,1055.8414547187,8.2021,3.802798,0,0,0,-2.460634,49.4, 1.9, 0.1,0,0,1024,1075,1024,1024,0,8,0,0,50.8,0,0,97,3.693,3.678,3.688,0,0,0,11.444,66.38,1055.8414547187,8.2021,6,P-GPS,
12500,2025-01-07 02:23:42,0,0,8.530184,,,1056.1695387187,10.170604,0,0,0,5,0,11.137,1056.1695387187,8.530184,3.802798,0,0,0,-1.789552,49.5, 2.7, 0.4,0,0,1024,1200,1024,1024,0,27,0,0,50.8,0,0,97,3.693,3.678,3.688,0,0,0,11.444,66.38,1056.1695387187,8.530184,6,P-GPS,
12600,2025-01-07 02:23:42,0,0,8.858268,,,1056.4976227187,10.498688,0,0,0,5,0,11.137,1056.4976227187,8.858268,3.802798,0,0,0,-1.11847,49.5, 2.8, 0.7,0,0,1024,1273,1024,1024,0,38,0,0,50.8,0,0,97,3.693,3.678,3.688,0,0,0,11.444,66.38,1056.4976227187,8.858268,6,P-GPS,
12700,2025-01-07 02:23:42,0,0,8.858268,,,1056.4976227187,10.498688,0,0,0,5,0,11.137,1056.4976227187,8.858268,3.802798,0,0,0,-0.447388,49.6, 2.2, 1.6,0,0,1024,1355,1024,1024,0,50,0,0,50.8,0,0,97,3.693,3.678,3.688,0,0,0,11.444,66.38,1056.4976227187,8.858268,6,P-GPS,
12800,2025-01-07 02:23:42,0,0,9.186352,,,1056.8257067187,10.498688,0,0,0,5,0,11.137,1056.8257067187,9.186352,3.802798,0,0,0,-0.223694,49.6, 1.8, 4.1,0,0,1024,1326,1024,1024,0,46,0,0,50.8,0,0,97,3.693,3.678,3.688,0,0,0,11.444,66.38,1056.8257067187,9.186352,6,P-GPS,
12900,2025-01-07 02:23:42,0,0,9.186352,,,1056.8257067187,10.498688,0.223694,0,0,5,0,11.137,1056.8257067187,9.186352,3.802798,0,0,0.223694,0,50, 1.6, 8.4,0,0,1024,1350,1024,1024,0,49,0,0,50.8,0,0,97,3.693,3.678,3.688,0,0,0,11.444,66.38,1056.8257067187,9.186352,6,P-GPS,
13000,2025-01-07 02:23:42,0,0,9.186352,,,1056.8257067187,10.498688,0.4921268,0,0,5,0,11.137,1056.8257067187,9.186352,3.802798,0,-0.223694,0.447388,0,50.9, 1.5, 10.3,0,0,1024,1336,1024,1024,0,47,0,0,50.8,0,0,97,3.693,3.678,3.688,0,0,0,11.444,66.38,1056.8257067187,9.186352,6,P-GPS,
13100,2025-01-07 02:23:42,0,0,8.858268,,,1056.4976227187,10.498688,0.9395148,0,0,5,0,11.137,1056.8257067187,9.186352,3.802798,0,-0.671082,0.671082,0,51.7, 1.7, 8.7,0,0,1024,1336,1024,1024,0,47,0,0,50.8,0,0,97,3.693,3.678,3.688,0,0,0,11.444,66.38,1056.4976227187,8.858268,6,P-GPS,
13200,2025-01-07 02:23:42,0,0,8.858268,,,1056.4976227187,10.498688,1.2750558,0,0,5,0,11.04,1056.8257067187,9.186352,3.802798,0,-0.894776,0.894776,0,51.8, 2, 6.8,0,0,1024,1325,1024,1024,0,46,0,0,50.8,0,0,97,3.695,3.683,3.695,0,0,0,12.647,66.56,1056.4976227187,8.858268,6,P-GPS,
13300,2025-01-07 02:23:43,0,0,8.858268,,,1056.4976227187,10.498688,1.4316416,0,0,5,0,11.04,1056.8257067187,9.186352,3.802798,0,-1.11847,0.894776,0,51.7, 1.8, 6.9,0,0,1024,1331,1024,1024,0,47,0,0,50.8,0,0,97,3.695,3.683,3.695,0,0,0,12.647,66.56,1056.4976227187,8.858268,6,P-GPS,
13400,2025-01-07 02:23:43,0,0,8.858268,,,1056.4976227187,10.498688,1.5882274,0,0,5,0,11.04,1056.8257067187,9.186352,3.802798,0,-1.11847,1.11847,0,51.6, 1.5, 7.9,0,0,1024,1213,1026,1024,0,29,0,0,50.8,0,0,97,3.695,3.683,3.695,0,0,0,12.647,66.56,1056.4976227187,8.858268,6,P-GPS,
13500,2025-01-07 02:23:43,0,0,8.858268,,,1056.4976227187,10.498688,1.901399,0,0,5,0,11.04,1056.8257067187,9.186352,3.802798,0,-1.342164,1.342164,0,51.6, 1.8, 6.7,0,0,1024,1024,1081,1024,0,0,9,0,50.8,0,0,97,3.695,3.683,3.695,0,0,0,12.647,66.56,1056.4976227187,8.858268,6,P-GPS,
13600,2025-01-07 02:23:43,0,0,8.858268,,,1056.4976227187,10.498688,2.0579848,0,0,5,0,11.04,1056.8257067187,9.186352,3.802798,0,-1.565858,1.342164,0,51.5, 1.9, 2,0,0,1024,1024,1092,1261,0,0,10,36,50.8,0,0,97,3.695,3.683,3.695,0,0,0,12.647,66.56,1056.4976227187,8.858268,6,P-GPS,
13700,2025-01-07 02:23:43,0,0,8.858268,,,1056.4976227187,10.498688,2.0579848,0,0,5,0,11.04,1056.8257067187,9.186352,3.802798,0,-1.565858,1.342164,0,50.9, 1.7, -5.6,0,0,1024,1024,1104,1287,0,0,12,40,51,0,0,97,3.695,3.683,3.695,0,0,0,12.647,66.56,1056.4976227187,8.858268,6,P-GPS,
13800,2025-01-07 02:23:43,0,0,8.858268,,,1056.4976227187,10.498688,1.7448132,0,0,5,0,11.04,1056.8257067187,9.186352,3.802798,0,-1.342164,1.11847,0,49.8, 1.5, -9.7,0,0,1024,1024,1104,1269,0,0,12,37,51.6,0,0,97,3.695,3.683,3.695,0,0,0,12.647,66.56,1056.4976227187,8.858268,6,P-GPS,
13900,2025-01-07 02:23:43,0,0,8.858268,,,1056.4976227187,10.498688,1.2750558,0,0,5,0,11.04,1056.8257067187,9.186352,3.802798,0,-0.894776,0.894776,0,49, 2, -6.8,0,0,1024,1024,1107,1271,0,0,13,37,52.7,0,0,97,3.695,3.683,3.695,0,0,0,12.647,66.56,1056.4976227187,8.858268,6,P-GPS,
14000,2025-01-07 02:23:43,0,0,8.858268,,,1056.4976227187,10.498688,0.9395148,0,0,5,0,11.04,1056.8257067187,9.186352,3.802798,0,-0.671082,0.671082,0,49.6, 2.1, -4,0,0,1024,1024,1091,1376,0,0,10,53,53.7,0,0,97,3.695,3.683,3.695,0,0,0,12.647,66.56,1056.4976227187,8.858268,6,P-GPS,
14100,2025-01-07 02:23:43,0,0,8.858268,,,1056.4976227187,10.498688,0.8052984,0,0,5,0,11.04,1056.8257067187,9.186352,3.802798,0,-0.671082,0.447388,-0.223694,51, 1.7, -3.6,0,0,1024,1024,1030,1550,0,0,1,80,54.8,0,0,97,3.695,3.683,3.695,0,0,0,12.647,66.56,1056.4976227187,8.858268,6,P-GPS,
14200,2025-01-07 02:23:43,0,0,9.186352,,,1056.8257067187,10.498688,0.8052984,0,0,5,0,11.293,1056.8257067187,9.186352,3.802798,0,-0.671082,0.447388,-0.223694,52.6, 1.3, -4.1,0,0,1024,1024,1024,1608,0,0,0,88,56.2,0,0,96,3.722,3.707,3.718,0,0,0,9.706,66.56,1056.8257067187,9.186352,6,P-GPS,
14300,2025-01-07 02:23:44,0,0,9.186352,,,1056.8257067187,10.498688,0.4921268,0,0,5,0,11.293,1056.8257067187,9.186352,3.802798,0,-0.447388,0.223694,0,54.4, 1.1, -3.4,0,0,1024,1024,1024,1608,0,0,0,88,58.1,0,0,96,3.722,3.707,3.718,0,0,0,9.706,66.56,1056.8257067187,9.186352,6,P-GPS,
14400,2025-01-07 02:23:44,0,0,9.186352,,,1056.8257067187,10.498688,0.4921268,0,0,5,0,11.293,1056.8257067187,9.186352,3.802798,0,-0.447388,0.223694,0,56.7, 1, -2.2,0,0,1024,1024,1024,1668,0,0,0,98,60.6,0,0,96,3.722,3.707,3.718,0,0,0,9.706,66.56,1056.8257067187,9.186352,6,P-GPS,
14500,2025-01-07 02:23:44,0,0,9.186352,,,1056.8257067187,10.498688,0.3131716,0,0,5,0,11.293,1056.8257067187,9.186352,3.802798,0,-0.223694,0.223694,0,59.6, 1.4, -1.9,0,0,1024,1024,1024,1684,0,0,0,100,63.3,0,0,96,3.722,3.707,3.718,0,0,0,9.706,66.56,1056.8257067187,9.186352,6,P-GPS,
14600,2025-01-07 02:23:44,0,0,9.186352,,,1056.8257067187,10.826772,0.3131716,0,0,5,0,11.293,1056.8257067187,9.186352,3.802798,0,-0.223694,0.223694,0,62.5, 1.7, -2.5,0,0,1024,1024,1024,1684,0,0,0,100,66.3,0,0,96,3.722,3.707,3.718,0,0,0,9.706,66.56,1056.8257067187,9.186352,6,P-GPS,
14700,2025-01-07 02:23:44,0,0,8.858268,,,1056.4976227187,10.498688,0.3131716,0,0,5,0,11.293,1056.8257067187,9.186352,3.802798,0,-0.223694,0.223694,0,65.6, 1.7, -2.5,0,0,1024,1024,1024,1684,0,0,0,100,69.5,0,0,96,3.722,3.707,3.718,0,0,0,9.706,66.56,1056.4976227187,8.858268,6,P-GPS,
14800,2025-01-07 02:23:44,0,0,8.858268,,,1056.4976227187,10.498688,0.223694,0,0,5,0,11.293,1056.8257067187,9.186352,3.802798,0,-0.223694,0,0,68.8, 1.5, -1.7,0,0,1024,1024,1024,1684,0,0,0,100,72.7,0,0,96,3.722,3.707,3.718,0,0,0,9.706,66.56,1056.4976227187,8.858268,6,P-GPS,
14900,2025-01-07 02:23:44,0,0,8.858268,,,1056.4976227187,10.498688,0,0,0,5,0,11.293,1056.8257067187,9.186352,3.802798,0,0,0,0,71.9, 1.8, -1.4,0,0,1024,1024,1024,1684,0,0,0,100,75.9,0,0,96,3.722,3.707,3.718,0,0,0,9.706,66.56,1056.4976227187,8.858268,6,P-GPS,
15000,2025-01-07 02:23:44,0,0,8.858268,,,1056.4976227187,10.498688,0,0,0,5,0,11.293,1056.8257067187,9.186352,3.802798,0,0,0,0,75.1, 2.6, -2.2,0,0,1024,1024,1024,1684,0,0,0,100,79.1,0,0,96,3.722,3.707,3.718,0,0,0,9.706,66.56,1056.4976227187,8.858268,6,P-GPS,
15100,2025-01-07 02:23:44,0,0,8.858268,,,1056.4976227187,10.498688,0,0,0,5,0,11.293,1056.8257067187,9.186352,3.802798,0,0,0,0,78.2, 2.8, -2.5,0,0,1024,1024,1024,1684,0,0,0,100,82.2,0,0,96,3.722,3.707,3.718,0,0,0,9.706,66.56,1056.4976227187,8.858268,6,P-GPS,
15200,2025-01-07 02:23:44,0,0,8.858268,,,1056.4976227187,10.498688,0,0,0,5,0,11.107,1056.8257067187,9.186352,3.802798,0,0,0,0,81.3, 2.1, -1.6,0,0,1024,1024,1024,1684,0,0,0,100,85.5,0,0,96,3.726,3.711,3.721,0,0,0,11.308,66.74,1056.4976227187,8.858268,6,P-GPS,
15300,2025-01-07 02:23:45,0,0,8.858268,,,1056.4976227187,10.498688,0,0,0,5,0,11.107,1056.8257067187,9.186352,3.802798,0,0,0,0,84.6, 1.8, -0.4,0,0,1024,1024,1024,1684,0,0,0,100,88.6,0,0,96,3.726,3.711,3.721,0,0,0,11.308,66.74,1056.4976227187,8.858268,6,P-GPS,
15400,2025-01-07 02:23:45,0,0,8.858268,,,1056.4976227187,10.498688,0,0,0,5,0,11.107,1056.8257067187,9.186352,3.802798,0,0,0,0,88.1, 2.3, 0,0,0,1024,1024,1024,1684,0,0,0,100,91.9,0,0,96,3.726,3.711,3.721,0,0,0,11.308,66.74,1056.4976227187,8.858268,6,P-GPS,
15500,2025-01-07 02:23:45,0,0,8.858268,,,1056.4976227187,10.498688,0,0,0,5,0,11.107,1056.8257067187,9.186352,3.802798,0,0,0,0,91.5, 2.4, -0.1,0,0,1024,1024,1024,1684,0,0,0,100,95,0,0,96,3.726,3.711,3.721,0,0,0,11.308,66.74,1056.4976227187,8.858268,6,P-GPS,
15600,2025-01-07 02:23:45,0,0,8.858268,,,1056.4976227187,10.498688,0,0,0,5,0,11.107,1056.8257067187,9.186352,3.802798,0,0,0,0,94.8, 2.1, -0.1,0,0,1024,1024,1024,1684,0,0,0,100,98.3,0,0,96,3.726,3.711,3.721,0,0,0,11.308,66.74,1056.4976227187,8.858268,6,P-GPS,
15700,2025-01-07 02:23:45,0,0,8.858268,,,1056.4976227187,10.826772,0,0,0,5,0,11.107,1056.8257067187,9.186352,3.802798,0,0,0,0,98.1, 1.7, 0.4,0,0,1024,1024,1024,1684,0,0,0,100,101.4,0,0,96,3.726,3.711,3.721,0,0,0,11.308,66.74,1056.4976227187,8.858268,6,P-GPS,
15800,2025-01-07 02:23:45,0,0,8.858268,,,1056.4976227187,10.826772,0,0,0,5,0,11.107,1056.8257067187,9.186352,3.802798,0,0,0,0,101.4, 1.6, 1.4,0,0,1024,1024,1024,1684,0,0,0,100,104.7,0,0,96,3.726,3.711,3.721,0,0,0,11.308,66.74,1056.4976227187,8.858268,6,P-GPS,
15900,2025-01-07 02:23:45,0,0,8.858268,,,1056.4976227187,10.826772,0,0,0,5,0,11.107,1056.8257067187,9.186352,3.802798,0,0,0,0,104.7, 1.6, 1.2,0,0,1024,1024,1024,1684,0,0,0,100,107.8,0,0,96,3.726,3.711,3.721,0,0,0,11.308,66.74,1056.4976227187,8.858268,6,P-GPS,
16000,2025-01-07 02:23:45,0,0,8.858268,,,1056.4976227187,10.826772,0,0,0,5,0,11.107,1056.8257067187,9.186352,3.802798,0,0,0,0,107.9, 2, 0.3,0,0,1024,1024,1024,1684,0,0,0,100,111.1,0,0,96,3.726,3.711,3.721,0,0,0,11.308,66.74,1056.4976227187,8.858268,6,P-GPS,
16100,2025-01-07 02:23:45,0,0,8.858268,,,1056.4976227187,10.826772,0,0,0,5,0,11.107,1056.8257067187,9.186352,3.802798,0,0,0,0,111, 1.9, 0.4,0,0,1024,1024,1024,1684,0,0,0,100,114.2,0,0,96,3.726,3.711,3.721,0,0,0,11.308,66.74,1056.4976227187,8.858268,6,P-GPS,
16200,2025-01-07 02:23:45,0,0,8.858268,,,1056.4976227187,10.826772,0,0,0,5,0,11.131,1056.8257067187,9.186352,3.802798,0,0,0,0,114, 1.1, 1.2,0,0,1024,1024,1024,1684,0,0,0,100,117.5,0,0,96,3.709,3.695,3.707,0,0,0,10.768,66.92,1056.4976227187,8.858268,6,P-GPS,
16300,2025-01-07 02:23:46,0,0,8.858268,,,1056.4976227187,10.826772,0,0,0,5,0,11.131,1056.8257067187,9.186352,3.802798,0,0,0,0,117.1, 1.1, 1.5,0,0,1024,1024,1024,1684,0,0,0,100,120.6,0,0,96,3.709,3.695,3.707,0,0,0,10.768,66.92,1056.4976227187,8.858268,6,P-GPS,
16400,2025-01-07 02:23:46,0,0,8.858268,,,1056.4976227187,10.826772,0,0,0,5,0,11.131,1056.8257067187,9.186352,3.802798,0,0,0,0,120.3, 1.2, 2.1,0,0,1024,1024,1024,1684,0,0,0,100,123.9,0,0,96,3.709,3.695,3.707,0,0,0,10.768,66.92,1056.4976227187,8.858268,6,P-GPS,
16500,2025-01-07 02:23:46,0,0,8.858268,,,1056.4976227187,10.826772,0,0,0,5,0,11.131,1056.8257067187,9.186352,3.802798,0,0,0,0,123.5, 0.8, 2.8,0,0,1024,1024,1024,1684,0,0,0,100,127.1,0,0,96,3.709,3.695,3.707,0,0,0,10.768,66.92,1056.4976227187,8.858268,6,P-GPS,
16600,2025-01-07 02:23:46,0,0,8.858268,,,1056.4976227187,10.826772,0,0,0,5,0,11.131,1056.8257067187,9.186352,3.802798,0,0,0,0,126.9, 0.9, 2.3,0,0,1024,1024,1024,1684,0,0,0,100,130.3,0,0,96,3.709,3.695,3.707,0,0,0,10.768,66.92,1056.4976227187,8.858268,6,P-GPS,
16700,2025-01-07 02:23:46,0,0,8.858268,,,1056.4976227187,10.826772,0,0,0,5,0,11.131,1056.8257067187,9.186352,3.802798,0,0,0,0,130.3, 1.7, 1.2,0,0,1024,1024,1024,1684,0,0,0,100,133.5,0,0,96,3.709,3.695,3.707,0,0,0,10.768,66.92,1056.4976227187,8.858268,6,P-GPS,
16800,2025-01-07 02:23:46,0,0,8.858268,,,1056.4976227187,10.826772,0,0,0,5,0,11.131,1056.8257067187,9.186352,3.802798,0,0,0,0,133.4, 2.2, 0.4,0,0,1024,1024,1024,1684,0,0,0,100,136.7,0,0,96,3.709,3.695,3.707,0,0,0,10.768,66.92,1056.4976227187,8.858268,6,P-GPS,
16900,2025-01-07 02:23:46,0,0,8.858268,,,1056.4976227187,10.826772,0,0,0,5,0,11.131,1056.8257067187,9.186352,3.802798,0,0,0,0,136.4, 1.5, 1.1,0,0,1024,1024,1024,1684,0,0,0,100,139.9,0,0,96,3.709,3.695,3.707,0,0,0,10.768,66.92,1056.4976227187,8.858268,6,P-GPS,
17000,2025-01-07 02:23:46,0,0,8.858268,,,1056.4976227187,10.826772,0,0,0,5,0,11.131,1056.8257067187,9.186352,3.802798,0,0,0,0,139.5, 0.9, 2.3,0,0,1024,1024,1024,1684,0,0,0,100,143.1,0,0,96,3.709,3.695,3.707,0,0,0,10.768,66.92,1056.4976227187,8.858268,6,P-GPS,
17100,2025-01-07 02:23:46,0,0,8.858268,,,1056.4976227187,10.826772,0,0,0,5,0,11.131,1056.8257067187,9.186352,3.802798,0,0,0,0,143.1, 1.3, 2.2,0,0,1024,1024,1024,1684,0,0,0,100,146.3,0,0,96,3.709,3.695,3.707,0,0,0,10.768,66.92,1056.4976227187,8.858268,6,P-GPS,
17200,2025-01-07 02:23:46,0,0,8.858268,,,1056.4976227187,10.826772,0,0,0,5,0,11.133,1056.8257067187,9.186352,3.802798,0,0,0,0,146.5, 1.9, 0.9,0,0,1024,1024,1024,1684,0,0,0,100,149.5,0,0,96,3.717,3.704,3.715,0,0,0,10.971,66.92,1056.4976227187,8.858268,6,P-GPS,
17300,2025-01-07 02:23:46,0,0,8.858268,,,1056.4976227187,10.826772,0,0,0,5,0,11.133,1056.8257067187,9.186352,3.802798,0,0,0,0,149.6, 2, 0.5,0,0,1024,1024,1024,1684,0,0,0,100,152.7,0,0,96,3.717,3.704,3.715,0,0,0,10.971,66.92,1056.4976227187,8.858268,6,P-GPS,
17400,2025-01-07 02:23:47,0,0,9.186352,,,1056.8257067187,10.826772,0,0,0,5,0,11.133,1056.8257067187,9.186352,3.802798,0,0,0,0,152.5, 1.1, 1.9,0,0,1024,1024,1024,1684,0,0,0,100,155.9,0,0,96,3.717,3.704,3.715,0,0,0,10.971,66.92,1056.8257067187,9.186352,6,P-GPS,
17500,2025-01-07 02:23:47,0,0,9.186352,,,1056.8257067187,10.826772,0,0,0,5,0,11.133,1056.8257067187,9.186352,3.802798,0,0,0,0,155.8, -0.3, 3.3,0,0,1024,1024,1024,1684,0,0,0,100,159.1,0,0,96,3.717,3.704,3.715,0,0,0,10.971,66.92,1056.8257067187,9.186352,6,P-GPS,
17600,2025-01-07 02:23:47,0,0,9.186352,,,1056.8257067187,10.826772,0,0,0,5,0,11.133,1056.8257067187,9.186352,3.802798,0,0,0,0,159.2, -0.4, 2.6,0,0,1024,1024,1024,1684,0,0,0,100,162.3,0,0,96,3.717,3.704,3.715,0,0,0,10.971,66.92,1056.8257067187,9.186352,6,P-GPS,
17700,2025-01-07 02:23:47,0,0,9.186352,,,1056.8257067187,10.826772,0,0,0,5,0,11.133,1056.8257067187,9.186352,3.802798,0,0,0,0,162.5, 0.4, 0.8,0,0,1024,1024,1024,1684,0,0,0,100,165.5,0,0,96,3.717,3.704,3.715,0,0,0,10.971,66.92,1056.8257067187,9.186352,6,P-GPS,
17800,2025-01-07 02:23:47,0,0,9.186352,,,1056.8257067187,10.826772,0,0,0,5,0,11.133,1056.8257067187,9.186352,3.802798,0,0,0,0,165.6, 0.9, 0.5,0,0,1024,1024,1024,1684,0,0,0,100,168.7,0,0,96,3.717,3.704,3.715,0,0,0,10.971,66.92,1056.8257067187,9.186352,6,P-GPS,
17900,2025-01-07 02:23:47,0,0,9.186352,,,1056.8257067187,10.826772,0,0,0,5,0,11.133,1056.8257067187,9.186352,3.802798,0,0,0,0,168.7, 0.6, 2.5,0,0,1024,1024,1024,1684,0,0,0,100,171.9,0,0,96,3.717,3.704,3.715,0,0,0,10.971,66.92,1056.8257067187,9.186352,6,P-GPS,
18000,2025-01-07 02:23:47,0,0,9.186352,,,1056.8257067187,10.826772,0,0,0,5,0,11.133,1056.8257067187,9.186352,3.802798,0,0,0,0,172.1, 0.1, 4.5,0,0,1024,1024,1024,1684,0,0,0,100,175.1,0,0,96,3.717,3.704,3.715,0,0,0,10.971,66.92,1056.8257067187,9.186352,6,P-GPS,
18100,2025-01-07 02:23:47,0,0,9.186352,,,1056.8257067187,10.826772,0,0,0,5,0,11.133,1056.8257067187,9.186352,3.802798,0,0,0,0,175.7, -0.1, 3.8,0,0,1024,1024,1024,1684,0,0,0,100,178.3,0,0,96,3.717,3.704,3.715,0,0,0,10.971,66.92,1056.8257067187,9.186352,6,P-GPS,
18200,2025-01-07 02:23:47,0,0,9.186352,,,1056.8257067187,10.826772,0,0,0,5,0,11.122,1056.8257067187,9.186352,3.802798,0,0,0,0,179, -0.5, 0.9,0,0,1024,1024,1024,1684,0,0,0,100,181.6,0,0,96,3.713,3.701,3.712,0,0,0,10.857,67.1,1056.8257067187,9.186352,6,P-GPS,
18300,2025-01-07 02:23:47,0,0,9.186352,,,1056.8257067187,10.826772,0,0,0,5,0,11.122,1056.8257067187,9.186352,3.802798,0,0,0,0,181.9, -0.5, -0.7,0,0,1024,1024,1024,1684,0,0,0,100,184.8,0,0,96,3.713,3.701,3.712,0,0,0,10.857,67.1,1056.8257067187,9.186352,6,P-GPS,
18400,2025-01-07 02:23:48,0,0,9.186352,,,1056.8257067187,10.826772,0,0,0,5,0,11.122,1056.8257067187,9.186352,3.802798,0,0,0,0,184.7, 0.1, 1.2,0,0,1024,1024,1024,1684,0,0,0,100,188,0,0,96,3.713,3.701,3.712,0,0,0,10.857,67.1,1056.8257067187,9.186352,6,P-GPS,
18500,2025-01-07 02:23:48,0,0,9.186352,,,1056.8257067187,10.826772,0,0,0,5,0,11.122,1056.8257067187,9.186352,3.802798,0,0,0,0,187.8, 1.1, 3.5,0,0,1024,1024,1024,1684,0,0,0,100,191.2,0,0,96,3.713,3.701,3.712,0,0,0,10.857,67.1,1056.8257067187,9.186352,6,P-GPS,
18600,2025-01-07 02:23:48,0,0,9.186352,,,1056.8257067187,10.826772,0,0,0,5,0,11.122,1056.8257067187,9.186352,3.802798,0,0,0,0,191.7, 0, 3.3,0,0,1024,1024,1024,1684,0,0,0,100,194.4,0,0,96,3.713,3.701,3.712,0,0,0,10.857,67.1,1056.8257067187,9.186352,6,P-GPS,
18700,2025-01-07 02:23:48,0,0,9.186352,,,1056.8257067187,10.826772,0,0,0,5,0,11.122,1056.8257067187,9.186352,3.802798,0,0,0,0,195.3, -1.9, 0.2,0,0,1024,1024,1024,1684,0,0,0,100,197.6,0,0,96,3.713,3.701,3.712,0,0,0,10.857,67.1,1056.8257067187,9.186352,6,P-GPS,
18800,2025-01-07 02:23:48,0,0,9.186352,,,1056.8257067187,10.826772,0,0,0,5,0,11.122,1056.8257067187,9.186352,3.802798,0,0,0,0,198.2, -1.8, -1.6,0,0,1024,1024,1024,1684,0,0,0,100,200.8,0,0,96,3.713,3.701,3.712,0,0,0,10.857,67.1,1056.8257067187,9.186352,6,P-GPS,
18900,2025-01-07 02:23:48,0,0,9.186352,,,1056.8257067187,10.826772,0,0,0,5,0,11.122,1056.8257067187,9.186352,3.802798,0,0,0,0,201, 0.1, 1.5,0,0,1024,1024,1024,1684,0,0,0,100,204,0,0,96,3.713,3.701,3.712,0,0,0,10.857,67.1,1056.8257067187,9.186352,6,P-GPS,
19000,2025-01-07 02:23:48,0,0,9.186352,,,1056.8257067187,10.826772,0,0,0,5,0,11.122,1056.8257067187,9.186352,3.802798,0,0,0,0,204.3, 0.7, 5.7,0,0,1024,1024,1024,1684,0,0,0,100,207.2,0,0,96,3.713,3.701,3.712,0,0,0,10.857,67.1,1056.8257067187,9.186352,6,P-GPS,
19100,2025-01-07 02:23:48,0,0,9.186352,,,1056.8257067187,10.826772,0,0,0,5,0,11.122,1056.8257067187,9.186352,3.802798,0,0,0,0,207.7, -0.9, 5.4,0,0,1024,1024,1024,1684,0,0,0,100,210.4,0,0,96,3.713,3.701,3.712,0,0,0,10.857,67.1,1056.8257067187,9.186352,6,P-GPS,
19200,2025-01-07 02:23:48,0,0,9.186352,,,1056.8257067187,10.826772,0,0,0,5,0,11.121,1056.8257067187,9.186352,3.802798,0,0,0,0,211, -1.3, 1.6,0,0,1024,1024,1024,1684,0,0,0,100,213.6,0,0,96,3.711,3.698,3.707,0,0,0,10.87,67.28,1056.8257067187,9.186352,6,P-GPS,
19300,2025-01-07 02:23:49,0,0,9.186352,,,1056.8257067187,10.826772,0,0,0,5,0,11.121,1056.8257067187,9.186352,3.802798,0,0,0,0,213.8, -0.4, -0.4,0,0,1024,1024,1024,1684,0,0,0,100,216.8,0,0,96,3.711,3.698,3.707,0,0,0,10.87,67.28,1056.8257067187,9.186352,6,P-GPS,
19400,2025-01-07 02:23:49,0,0,9.186352,,,1056.8257067187,10.826772,0,0,0,5,0,11.121,1056.8257067187,9.186352,3.802798,0,0,0,0,216.7, -1.1, 0.8,0,0,1024,1024,1024,1684,0,0,0,100,220,0,0,96,3.711,3.698,3.707,0,0,0,10.87,67.28,1056.8257067187,9.186352,6,P-GPS,
19500,2025-01-07 02:23:49,0,0,9.186352,,,1056.8257067187,10.826772,0,0,0,5,0,11.121,1056.8257067187,9.186352,3.802798,0,0,0,0,220, -2.5, 1.9,0,0,1024,1024,1024,1684,0,0,0,100,223.2,0,0,96,3.711,3.698,3.707,0,0,0,10.87,67.28,1056.8257067187,9.186352,6,P-GPS,
19600,2025-01-07 02:23:49,0,0,9.186352,,,1056.8257067187,10.826772,0,0,0,5,0,11.121,1056.8257067187,9.186352,3.802798,0,0,0,0,223.2, -2.1, 2,0,0,1024,1024,1024,1684,0,0,0,100,226.4,0,0,96,3.711,3.698,3.707,0,0,0,10.87,67.28,1056.8257067187,9.186352,6,P-GPS,
19700,2025-01-07 02:23:49,0,0,9.186352,,,1056.8257067187,10.826772,0,0,0,5,0,11.121,1056.8257067187,9.186352,3.802798,0,0,0,0,226.5, -0.1, 1.5,0,0,1024,1024,1024,1684,0,0,0,100,229.6,0,0,96,3.711,3.698,3.707,0,0,0,10.87,67.28,1056.8257067187,9.186352,6,P-GPS,
19800,2025-01-07 02:23:49,0,0,9.186352,,,1056.8257067187,10.826772,0,0,0,5,0,11.121,1056.8257067187,9.186352,3.802798,0,0,0,0,229.7, 0.8, 1.8,0,0,1024,1024,1024,1684,0,0,0,100,232.8,0,0,96,3.711,3.698,3.707,0,0,0,10.87,67.28,1056.8257067187,9.186352,6,P-GPS,
19900,2025-01-07 02:23:49,0,0,9.186352,,,1056.8257067187,10.826772,0,0,0,5,0,11.121,1056.8257067187,9.186352,3.802798,0,0,0,0,233, 0.1, 2.8,0,0,1024,1024,1024,1684,0,0,0,100,236,0,0,96,3.711,3.698,3.707,0,0,0,10.87,67.28,1056.8257067187,9.186352,6,P-GPS,
20000,2025-01-07 02:23:49,0,0,9.186352,,,1056.8257067187,10.826772,0,0,0,5,0,11.121,1056.8257067187,9.186352,3.802798,0,0,0,0,236.4, -0.6, 2.8,0,0,1024,1024,1024,1684,0,0,0,100,239.2,0,0,96,3.711,3.698,3.707,0,0,0,10.87,67.28,1056.8257067187,9.186352,6,P-GPS,
20100,2025-01-07 02:23:49,0,0,9.186352,,,1056.8257067187,10.826772,0,0,0,5,0,11.121,1056.8257067187,9.186352,3.802798,0,0,0,0,239.6, -0.9, 2.2,0,0,1024,1024,1024,1684,0,0,0,100,242.4,0,0,96,3.711,3.698,3.707,0,0,0,10.87,67.28,1056.8257067187,9.186352,6,P-GPS,
20200,2025-01-07 02:23:49,0,0,9.186352,,,1056.8257067187,10.826772,0,0,0,5,0,11.094,1056.8257067187,9.186352,3.802798,0,0,0,0,242.7, -1, 1.8,0,0,1024,1024,1024,1684,0,0,0,100,245.6,0,0,96,3.703,3.689,3.701,0,0,0,11.078,67.28,1056.8257067187,9.186352,6,P-GPS,
20300,2025-01-07 02:23:50,0,0,9.186352,,,1056.8257067187,10.826772,0,0,0,5,0,11.094,1056.8257067187,9.186352,3.802798,0,0,0,0,245.8, -1.2, 1.6,0,0,1024,1024,1024,1684,0,0,0,100,248.8,0,0,96,3.703,3.689,3.701,0,0,0,11.078,67.28,1056.8257067187,9.186352,6,P-GPS,
20400,2025-01-07 02:23:50,0,0,9.186352,,,1056.8257067187,10.826772,0,0,0,5,0,11.094,1056.8257067187,9.186352,3.802798,0,0,0,0,249, -1.3, 1.5,0,0,1024,1024,1024,1684,0,0,0,100,252,0,0,96,3.703,3.689,3.701,0,0,0,11.078,67.28,1056.8257067187,9.186352,6,P-GPS,
20500,2025-01-07 02:23:50,0,0,9.186352,,,1056.8257067187,10.826772,0,0,0,5,0,11.094,1056.8257067187,9.186352,3.802798,0,0,0,0,252.1, -0.8, 1.1,0,0,1024,1024,1024,1684,0,0,0,100,255.2,0,0,96,3.703,3.689,3.701,0,0,0,11.078,67.28,1056.8257067187,9.186352,6,P-GPS,
20600,2025-01-07 02:23:50,0,0,9.186352,,,1056.8257067187,10.826772,0,0,0,5,0,11.094,1056.8257067187,9.186352,3.802798,0,0,0,0,255.2, -0.5, 1.3,0,0,1024,1024,1024,1684,0,0,0,100,258.4,0,0,96,3.703,3.689,3.701,0,0,0,11.078,67.28,1056.8257067187,9.186352,6,P-GPS,
20700,2025-01-07 02:23:50,0,0,9.186352,,,1056.8257067187,10.826772,0,0,0,5,0,11.094,1056.8257067187,9.186352,3.802798,0,0,0,0,258.5, -1.5, 1,0,0,1024,1024,1024,1684,0,0,0,100,261.6,0,0,96,3.703,3.689,3.701,0,0,0,11.078,67.28,1056.8257067187,9.186352,6,P-GPS,
20800,2025-01-07 02:23:50,0,0,9.186352,,,1056.8257067187,10.826772,0,0,0,5,0,11.094,1056.8257067187,9.186352,3.802798,0,0,0,0,261.6, -2, 0.3,0,0,1024,1024,1024,1684,0,0,0,100,264.8,0,0,96,3.703,3.689,3.701,0,0,0,11.078,67.28,1056.8257067187,9.186352,6,P-GPS,
20900,2025-01-07 02:23:50,0,0,9.186352,,,1056.8257067187,10.826772,0,0,0,5,0,11.094,1056.8257067187,9.186352,3.802798,0,0,0,0,264.7, -1.5, 0,0,0,1024,1024,1024,1684,0,0,0,100,268,0,0,96,3.703,3.689,3.701,0,0,0,11.078,67.28,1056.8257067187,9.186352,6,P-GPS,
21000,2025-01-07 02:23:50,0,0,9.186352,,,1056.8257067187,10.826772,0,0,0,5,0,11.094,1056.8257067187,9.186352,3.802798,0,0,0,0,267.8, -1.3, -0.2,0,0,1024,1024,1024,1684,0,0,0,100,271.2,0,0,96,3.703,3.689,3.701,0,0,0,11.078,67.28,1056.8257067187,9.186352,6,P-GPS,
21100,2025-01-07 02:23:50,0,0,9.186352,,,1056.8257067187,10.826772,0,0,0,5,0,11.094,1056.8257067187,9.186352,3.802798,0,0,0,0,271, -1.5, 0.2,0,0,1024,1024,1024,1684,0,0,0,100,274.4,0,0,96,3.703,3.689,3.701,0,0,0,11.078,67.28,1056.8257067187,9.186352,6,P-GPS,
21200,2025-01-07 02:23:50,0,0,9.186352,,,1056.8257067187,10.826772,0,0,0,5,0,11.107,1056.8257067187,9.186352,3.802798,0,0,0,0,274.2, -1.3, 0.6,0,0,1024,1024,1024,1684,0,0,0,100,277.6,0,0,96,3.708,3.693,3.704,0,0,0,11.063,67.64,1056.8257067187,9.186352,6,P-GPS,
21300,2025-01-07 02:23:51,0,0,9.186352,,,1056.8257067187,10.826772,0,0,0,5,0,11.107,1056.8257067187,9.186352,3.802798,0,0,0,0,277.4, -1.3, 0.6,0,0,1024,1024,1024,1684,0,0,0,100,280.8,0,0,96,3.708,3.693,3.704,0,0,0,11.063,67.64,1056.8257067187,9.186352,6,P-GPS,
21400,2025-01-07 02:23:51,0,0,9.186352,,,1056.8257067187,10.826772,0,0,0,5,0,11.107,1056.8257067187,9.186352,3.802798,0,0,0,0,280.6, -1.5, 1,0,0,1024,1024,1024,1684,0,0,0,100,284,0,0,96,3.708,3.693,3.704,0,0,0,11.063,67.64,1056.8257067187,9.186352,6,P-GPS,
21500,2025-01-07 02:23:51,0,0,9.186352,,,1056.8257067187,10.826772,0,0,0,5,0,11.107,1056.8257067187,9.186352,3.802798,0,0,0,0,283.9, -1.4, 1.2,0,0,1024,1024,1024,1684,0,0,0,100,287.2,0,0,96,3.708,3.693,3.704,0,0,0,11.063,67.64,1056.8257067187,9.186352,6,P-GPS,
21600,2025-01-07 02:23:51,0,0,9.186352,,,1056.8257067187,10.826772,0,0,0,5,0,11.107,1056.8257067187,9.186352,3.802798,0,0,0,0,287, -1.3, 0.9,0,0,1024,1024,1024,1527,0,0,0,76,290.4,0,0,96,3.708,3.693,3.704,0,0,0,11.063,67.64,1056.8257067187,9.186352,6,P-GPS,
21700,2025-01-07 02:23:51,0,0,9.186352,,,1056.8257067187,10.826772,0,0,0,5,0,11.107,1056.8257067187,9.186352,3.802798,0,0,0,0,290.2, -1.1, 0.7,0,0,1024,1024,1024,1024,0,0,0,0,293.5,0,0,96,3.708,3.693,3.704,0,0,0,11.063,67.64,1056.8257067187,9.186352,6,P-GPS,
21800,2025-01-07 02:23:51,0,0,9.186352,,,1056.8257067187,10.826772,0,0,0,5,0,11.107,1056.8257067187,9.186352,3.802798,0,0,0,0,292.7, -0.8, 0.8,0,0,1024,1024,1024,1024,0,0,0,0,296.1,0,0,96,3.708,3.693,3.704,0,0,0,11.063,67.64,1056.8257067187,9.186352,6,P-GPS,
21900,2025-01-07 02:23:51,0,0,9.186352,,,1056.8257067187,10.826772,0,0,0,5,0,11.107,1056.8257067187,9.186352,3.802798,0,0,0,0,294.5, -0.6, -0.2,0,0,1024,1024,1024,1024,0,0,0,0,297.4,0,0,96,3.708,3.693,3.704,0,0,0,11.063,67.64,1056.8257067187,9.186352,6,P-GPS,
22000,2025-01-07 02:23:51,0,0,9.186352,,,1056.8257067187,10.826772,0,0,0,5,0,11.107,1056.8257067187,9.186352,3.802798,0,0,0,0,295.6, -1, -1.4,0,0,1024,1024,1024,1024,0,0,0,0,297.8,0,0,96,3.708,3.693,3.704,0,0,0,11.063,67.64,1056.8257067187,9.186352,6,P-GPS,
22100,2025-01-07 02:23:51,0,0,9.186352,,,1056.8257067187,10.826772,0,0,0,5,0,11.107,1056.8257067187,9.186352,3.802798,0,0,0,0,295.9, -1.9, -0.4,0,0,1024,1024,1024,1024,0,0,0,0,297.8,0,0,96,3.708,3.693,3.704,0,0,0,11.063,67.64,1056.8257067187,9.186352,6,P-GPS,
22200,2025-01-07 02:23:51,0,0,9.186352,,,1056.8257067187,10.826772,0,0,0,5,0,11.097,1056.8257067187,9.186352,3.802798,0,0,0,0,295.9, -2, 1.4,0,0,1024,1024,1024,1024,0,0,0,0,297.8,0,0,96,3.707,3.694,3.705,0,0,0,10.994,67.82,1056.8257067187,9.186352,6,P-GPS,
22300,2025-01-07 02:23:52,0,0,9.186352,,,1056.8257067187,10.826772,0,0,0,5,0,11.097,1056.8257067187,9.186352,3.802798,0,0,0,0,296.1, -1, 1.4,0,0,1024,1024,1081,1024,0,0,9,0,297.8,0,0,96,3.707,3.694,3.705,0,0,0,10.994,67.82,1056.8257067187,9.186352,6,P-GPS,
22400,2025-01-07 02:23:52,0,0,9.186352,,,1056.8257067187,10.826772,0,0,0,5,0,11.097,1056.8257067187,9.186352,3.802798,0,0,0,0,296.1, -0.6, 0,0,0,1024,1024,1233,1024,0,0,32,0,297.8,0,0,96,3.707,3.694,3.705,0,0,0,10.994,67.82,1056.8257067187,9.186352,6,P-GPS,
