time(millisecond),datetime(utc),latitude,longitude,height_above_takeoff(feet),height_above_ground_at_drone_location(feet),ground_elevation_at_drone_location(feet),altitude_above_seaLevel(feet),height_sonar(feet),speed(mph),distance(feet),mileage(feet),satellites,gpslevel,voltage(v),max_altitude(feet),max_ascent(feet),max_speed(mph),max_distance(feet), xSpeed(mph), ySpeed(mph), zSpeed(mph), compass_heading(degrees), pitch(degrees), roll(degrees),isPhoto,isVideo,rc_elevator,rc_aileron,rc_throttle,rc_rudder,rc_elevator(percent),rc_aileron(percent),rc_throttle(percent),rc_rudder(percent),gimbal_heading(degrees),gimbal_pitch(degrees),gimbal_roll(degrees),battery_percent,voltageCell1,voltageCell2,voltageCell3,voltageCell4,voltageCell5,voltageCell6,current(A),battery_temperature(f),altitude(feet),ascent(feet),flycStateRaw,flycState,message
0,,0,0,0,Available with any HD 360 subscription,Available with any HD 360 subscription,1049.9526031523,0.328084,0,0,0,6,0,0,1049.9526031523,0,0,0,0,0,0,100.2, -0.5, 0.6,0,0,1024,1024,1024,1024,0,0,0,0,101.1,0,0,98,3.942,3.911,3.917,0,0,0,0,52.34,1049.9526031523,0,41,Motors_Started,
100,2025-01-07 01:02:58,0,0,0,,,1049.9526031523,0.328084,0,0,0,6,0,0,1049.9526031523,0,0,0,0,0,0,100.2, -0.5, 0.6,0,0,1024,1024,1024,1024,0,0,0,0,101.1,0,0,98,3.942,3.911,3.917,0,0,0,0,52.34,1049.9526031523,0,41,Motors_Started,
200,2025-01-07 01:02:58,0,0,0,,,1049.9526031523,0.328084,0,0,0,6,0,0,1049.9526031523,0,0,0,0,0,0,100.1, -0.5, 0.6,0,0,1024,1024,1024,1024,0,0,0,0,101.1,0,0,98,3.942,3.911,3.917,0,0,0,0,52.34,1049.9526031523,0,41,Motors_Started,
300,2025-01-07 01:02:58,0,0,0,,,1049.9526031523,0.328084,0,0,0,6,0,0,1049.9526031523,0,0,0,0,0,0,100.1, -0.5, 0.6,0,0,1024,1024,1024,1024,0,0,0,0,101.1,0,0,98,3.942,3.911,3.917,0,0,0,0,52.34,1049.9526031523,0,41,Motors_Started,"Setting new Return-To-Home altitude to 100m (328 ft). Data Recorder File Index is 8. Setting new Maximum Flight Altitude to 30m (98 ft)"
400,2025-01-07 01:02:58,0,0,0,,,1049.9526031523,0.328084,0,0,0,6,0,0,1049.9526031523,0,0,0,0,0,0,100.1, -0.6, 0.6,0,0,1024,1024,1024,1024,0,0,0,0,101.1,0,0,98,3.942,3.911,3.917,0,0,0,0,52.34,1049.9526031523,0,41,Motors_Started,
500,2025-01-07 01:02:58,0,0,0,,,1049.9526031523,0.328084,0,0,0,6,0,0,1049.9526031523,0,0,0,0,0,0,100.1, -0.4, 0.6,0,0,1024,1024,1024,1024,0,0,0,0,101.1,0,0,98,3.942,3.911,3.917,0,0,0,0,52.34,1049.9526031523,0,41,Motors_Started,
600,2025-01-07 01:02:58,0,0,0,,,1049.9526031523,0.328084,0,0,0,6,0,0,1049.9526031523,0,0,0,0,0,0,100.1, -0.6, 0.6,0,0,1024,1024,1024,1024,0,0,0,0,101.1,0,0,98,3.942,3.911,3.917,0,0,0,0,52.34,1049.9526031523,0,41,Motors_Started,
700,2025-01-07 01:02:58,0,0,0,,,1049.9526031523,0.328084,0,0,0,6,0,0,1049.9526031523,0,0,0,0,0,0,99.8, 0, 0.7,0,0,1024,1024,1024,1024,0,0,0,0,101.1,0,0,98,3.942,3.911,3.917,0,0,0,0,52.34,1049.9526031523,0,41,Motors_Started,
800,2025-01-07 01:02:59,0,0,0,,,1049.9526031523,0.328084,0,0,0,6,0,0,1049.9526031523,0,0,0,0,0,0,100.1, -0.4, 0.7,0,0,1024,1024,1024,1024,0,0,0,0,101.1,0,0,98,3.942,3.911,3.917,0,0,0,0,52.34,1049.9526031523,0,41,Motors_Started,
900,2025-01-07 01:02:59,0,0,0,,,1049.9526031523,0.328084,0,0,0,6,0,0,1049.9526031523,0,0,0,0,0,0,99.9, -0.4, 0.7,0,0,1024,1024,1024,1024,0,0,0,0,101.1,0,0,98,3.942,3.911,3.917,0,0,0,0,52.34,1049.9526031523,0,41,Motors_Started,
1000,2025-01-07 01:02:59,0,0,0,,,1049.9526031523,0.328084,0,0,0,6,0,0,1049.9526031523,0,0,0,0,0,0,99.4, -0.5, 0.8,0,0,1024,1024,1024,1024,0,0,0,0,101.1,0,0,98,3.942,3.911,3.917,0,0,0,0,52.34,1049.9526031523,0,41,Motors_Started,
1100,2025-01-07 01:02:59,0,0,0,,,1049.9526031523,0.328084,0,0,0,6,0,0,1049.9526031523,0,0,0,0,0,0,100.2, -0.6, 0.5,0,0,1024,1024,1024,1024,0,0,0,0,101.1,0,0,98,3.942,3.911,3.917,0,0,0,0,52.34,1049.9526031523,0,41,Motors_Started,
1200,2025-01-07 01:02:59,0,0,0,,,1049.9526031523,0.328084,0,0,0,6,0,11.953,1049.9526031523,0,0,0,0,0,0,100.2, -0.6, 0.5,0,0,1024,1024,1024,1024,0,0,0,0,101.1,0,0,98,3.942,3.911,3.917,0,0,0,1.417,52.34,1049.9526031523,0,41,Motors_Started,
1300,2025-01-07 01:02:59,0,0,0,,,1049.9526031523,0.328084,0,0,0,6,0,11.953,1049.9526031523,0,0,0,0,0,0,100.2, -0.6, 0.5,0,0,1024,1024,1024,1024,0,0,0,0,101.1,0,0,98,3.942,3.911,3.917,0,0,0,1.417,52.34,1049.9526031523,0,41,Motors_Started,
1400,2025-01-07 01:02:59,0,0,0,,,1049.9526031523,0.328084,0,0,0,6,0,11.953,1049.9526031523,0,0,0,0,0,0,100.2, -0.6, 0.5,0,0,1024,1024,1024,1024,0,0,0,0,101.1,0,0,98,3.942,3.911,3.917,0,0,0,1.417,52.34,1049.9526031523,0,41,Motors_Started,
1500,2025-01-07 01:02:59,0,0,0,,,1049.9526031523,0.328084,0,0,0,6,0,11.953,1049.9526031523,0,0,0,0,0,0,100.2, -0.5, 0.6,0,0,1024,1024,1024,1024,0,0,0,0,101.1,0,0,98,3.942,3.911,3.917,0,0,0,1.417,52.34,1049.9526031523,0,11,AutoTakeoff,
1600,2025-01-07 01:02:59,0,0,0,,,1049.9526031523,0.328084,0,0,0,6,0,11.953,1049.9526031523,0,0,0,0,0,0,100.2, -0.6, 0.5,0,0,1024,1024,1024,1024,0,0,0,0,101.1,0,0,98,3.942,3.911,3.917,0,0,0,1.417,52.34,1049.9526031523,0,11,AutoTakeoff,飛行中
1700,2025-01-07 01:03:00,0,0,0,,,1049.9526031523,0.328084,0,0,0,7,0,11.953,1049.9526031523,0,0,0,0,0,0,100.2, -0.6, 0.5,0,0,1024,1024,1024,1024,0,0,0,0,101.1,0,0,98,3.942,3.911,3.917,0,0,0,1.417,52.34,1049.9526031523,0,11,AutoTakeoff,
1800,2025-01-07 01:03:00,0,0,0,,,1049.9526031523,0.328084,0,0,0,7,0,11.953,1049.9526031523,0,0,0,0,0,0,100.1, -0.7, 0.4,0,0,1024,1024,1024,1024,0,0,0,0,101.1,0,0,98,3.942,3.911,3.917,0,0,0,1.417,52.34,1049.9526031523,0,11,AutoTakeoff,
1900,2025-01-07 01:03:00,0,0,0,,,1049.9526031523,0.328084,0,0,0,7,0,11.953,1049.9526031523,0,0,0,0,0,0,100.1, -0.8, 0.3,0,0,1024,1024,1024,1024,0,0,0,0,101.1,0,0,98,3.942,3.911,3.917,0,0,0,1.417,52.34,1049.9526031523,0,11,AutoTakeoff,
2000,2025-01-07 01:03:00,0,0,0,,,1049.9526031523,0.328084,0,0,0,7,0,11.953,1049.9526031523,0,0,0,0,0,0,100.1, -0.8, 0.3,0,0,1024,1024,1024,1024,0,0,0,0,101.1,0,0,98,3.942,3.911,3.917,0,0,0,1.417,52.34,1049.9526031523,0,11,AutoTakeoff,
2100,2025-01-07 01:03:00,0,0,0,,,1049.9526031523,0.328084,0,0,0,7,0,11.953,1049.9526031523,0,0,0,0,0,0,100.1, -0.9, 0.3,0,0,1024,1024,1024,1024,0,0,0,0,101.1,0,0,98,3.942,3.911,3.917,0,0,0,1.417,52.34,1049.9526031523,0,11,AutoTakeoff,
2200,2025-01-07 01:03:00,0,0,0,,,1049.9526031523,0.328084,0,0,0,7,0,11.55,1049.9526031523,0,0,0,0,0,0,100.1, -1, 0.1,0,0,1024,1024,1024,1024,0,0,0,0,101.1,0,0,98,3.862,3.851,3.865,0,0,0,4.161,52.34,1049.9526031523,0,11,AutoTakeoff,
2300,2025-01-07 01:03:00,0,0,0,,,1049.9526031523,0.328084,0,0,0,7,0,11.55,1049.9526031523,0,0,0,0,0,0,100.1, -1.4, 0,0,0,1024,1024,1024,1024,0,0,0,0,101.1,0,0,98,3.862,3.851,3.865,0,0,0,4.161,52.34,1049.9526031523,0,11,AutoTakeoff,
2400,2025-01-07 01:03:00,0,0,0,,,1049.9526031523,0.328084,0,0,0,7,0,11.55,1049.9526031523,0,0,0,0,0,0,99.9, -2.8, -0.3,0,0,1024,1024,1024,1024,0,0,0,0,101.1,0,0,98,3.862,3.851,3.865,0,0,0,4.161,52.34,1049.9526031523,0,11,AutoTakeoff,
2500,2025-01-07 01:03:00,0,0,0,,,1049.9526031523,0.328084,0,0,0,7,0,11.55,1049.9526031523,0,0,0,0,0,0,99.1, -4.6, -1.9,0,0,1024,1024,1024,1024,0,0,0,0,101.1,0,0,98,3.862,3.851,3.865,0,0,0,4.161,52.34,1049.9526031523,0,11,AutoTakeoff,
2600,2025-01-07 01:03:00,0,0,0,,,1049.9526031523,0.328084,0.3131716,0,0,7,0,11.55,1049.9526031523,0,0.3131716,0,0.223694,0.223694,-0.223694,98.5, -4.3, -3,0,0,1024,1024,1024,1024,0,0,0,0,101.1,0,0,98,3.862,3.851,3.865,0,0,0,4.161,52.34,1049.9526031523,0,11,AutoTakeoff,
2700,2025-01-07 01:03:01,0,0,0,,,1049.9526031523,0.328084,0.6263432,0,0,7,0,11.55,1049.9526031523,0,0.6263432,0,0.447388,0.447388,-0.671082,98.3, 0, -0.5,0,0,1024,1024,1024,1024,0,0,0,0,101,0,0,98,3.862,3.851,3.865,0,0,0,4.161,52.34,1049.9526031523,0,11,AutoTakeoff,
2800,2025-01-07 01:03:01,0,0,0,,,1049.9526031523,0.328084,0.6263432,0,0,7,0,11.55,1049.9526031523,0,0.6263432,0,0.447388,0.447388,-0.894776,98.6, 4.7, 3.6,0,0,1024,1024,1024,1024,0,0,0,0,101,0,0,98,3.862,3.851,3.865,0,0,0,4.161,52.34,1049.9526031523,0,11,AutoTakeoff,
2900,2025-01-07 01:03:01,0,0,0.328084,,,1050.2806871523,0.328084,0.3131716,0,0,7,0,11.55,1050.2806871523,0.328084,0.6263432,0,0.223694,0.223694,-0.894776,99, 4.3, 3.3,0,0,1024,1024,1024,1024,0,0,0,0,100.9,0,0,98,3.862,3.851,3.865,0,0,0,4.161,52.34,1050.2806871523,0.328084,11,AutoTakeoff,
3000,2025-01-07 01:03:01,0,0,0.328084,,,1050.2806871523,0.656168,0.447388,0,0,7,0,11.55,1050.2806871523,0.328084,0.6263432,0,0.447388,0,-0.894776,98.8, 0.7, 1.1,0,0,1024,1024,1024,1024,0,0,0,0,100.9,0,0,98,3.862,3.851,3.865,0,0,0,4.161,52.34,1050.2806871523,0.328084,11,AutoTakeoff,
3100,2025-01-07 01:03:01,0,0,0.656168,,,1050.6087711523,0.656168,0.447388,0,0,7,0,11.55,1050.6087711523,0.656168,0.6263432,0,0.447388,0,-0.894776,98.7, -1.5, 1.8,0,0,1024,1024,1024,1024,0,0,0,0,100.9,0,0,98,3.862,3.851,3.865,0,0,0,4.161,52.34,1050.6087711523,0.656168,11,AutoTakeoff,
3200,2025-01-07 01:03:01,0,0,0.656168,,,1050.6087711523,0.984252,0.447388,0,0,7,0,11.608,1050.6087711523,0.656168,0.6263432,0,0.447388,0,-1.11847,98.4, -1.8, 3.6,0,0,1024,1024,1024,1024,0,0,0,0,100.8,0,0,98,3.806,3.784,3.797,0,0,0,3.428,52.34,1050.6087711523,0.656168,11,AutoTakeoff,
3300,2025-01-07 01:03:01,0,0,0.984252,,,1050.9368551523,0.984252,0.447388,0,0,7,0,11.608,1050.9368551523,0.984252,0.6263432,0,0.447388,0,-1.11847,98.3, -1, 4.1,0,0,1024,1024,1024,1024,0,0,0,0,100.8,0,0,98,3.806,3.784,3.797,0,0,0,3.428,52.34,1050.9368551523,0.984252,11,AutoTakeoff,
3400,2025-01-07 01:03:01,0,0,0.984252,,,1050.9368551523,1.312336,0.447388,0,0,7,0,11.608,1050.9368551523,0.984252,0.6263432,0,0.447388,0,-0.894776,98.3, -0.1, 4.9,0,0,1024,1024,1024,1024,0,0,0,0,100.8,0,0,98,3.806,3.784,3.797,0,0,0,3.428,52.34,1050.9368551523,0.984252,11,AutoTakeoff,
3500,2025-01-07 01:03:01,0,0,1.312336,,,1051.2649391523,1.64042,0.447388,0,0,7,0,11.608,1051.2649391523,1.312336,0.6263432,0,0.447388,0,-1.11847,98.5, 0.2, 6.2,0,0,1024,1024,1024,1024,0,0,0,0,100.7,0,0,98,3.806,3.784,3.797,0,0,0,3.428,52.34,1051.2649391523,1.312336,11,AutoTakeoff,
3600,2025-01-07 01:03:01,0,0,1.312336,,,1051.2649391523,1.64042,0.223694,0,0,7,0,11.608,1051.2649391523,1.312336,0.6263432,0,0.223694,0,-1.11847,98.7, 0, 5.4,0,0,1024,1024,1024,1024,0,0,0,0,100.7,0,0,98,3.806,3.784,3.797,0,0,0,3.428,52.34,1051.2649391523,1.312336,11,AutoTakeoff,
3700,2025-01-07 01:03:02,0,0,1.64042,,,1051.5930231523,1.968504,0.223694,0,0,7,0,11.608,1051.5930231523,1.64042,0.6263432,0,0.223694,0,-1.11847,98.7, -0.4, 4,0,0,1024,1024,1024,1024,0,0,0,0,100.7,0,0,98,3.806,3.784,3.797,0,0,0,3.428,52.34,1051.5930231523,1.64042,11,AutoTakeoff,
3800,2025-01-07 01:03:02,0,0,1.64042,,,1051.5930231523,1.968504,0.223694,0,0,7,0,11.608,1051.5930231523,1.64042,0.6263432,0,0.223694,0,-1.11847,98.6, -1, 4.5,0,0,1024,1024,1024,1024,0,0,0,0,100.7,0,0,98,3.806,3.784,3.797,0,0,0,3.428,52.34,1051.5930231523,1.64042,11,AutoTakeoff,
3900,2025-01-07 01:03:02,0,0,1.968504,,,1051.9211071523,1.968504,0.223694,0,0,7,0,11.608,1051.9211071523,1.968504,0.6263432,0,0.223694,0,-0.894776,98.6, -1.3, 7.3,0,0,1024,1024,1024,1024,0,0,0,0,100.6,0,0,98,3.806,3.784,3.797,0,0,0,3.428,52.34,1051.9211071523,1.968504,11,AutoTakeoff,
4000,2025-01-07 01:03:02,0,0,1.968504,,,1051.9211071523,2.296588,0,0,0,7,0,11.608,1051.9211071523,1.968504,0.6263432,0,0,0,-0.894776,98.7, -1.4, 6.1,0,0,1024,1024,1024,1024,0,0,0,0,100.6,0,0,98,3.806,3.784,3.797,0,0,0,3.428,52.34,1051.9211071523,1.968504,11,AutoTakeoff,
4100,2025-01-07 01:03:02,0,0,2.296588,,,1052.2491911523,2.296588,0,0,0,8,0,11.608,1052.2491911523,2.296588,0.6263432,0,0,0,-0.894776,98.5, -1.3, 3.3,0,0,1024,1024,1024,1024,0,0,0,0,100.6,0,0,98,3.806,3.784,3.797,0,0,0,3.428,52.34,1052.2491911523,2.296588,11,AutoTakeoff,
4200,2025-01-07 01:03:02,0,0,2.296588,,,1052.2491911523,2.624672,0,0,0,8,0,10.858,1052.2491911523,2.296588,0.6263432,0,0,0,-0.894776,98.3, -1.2, 3.2,0,0,1024,1024,1024,1024,0,0,0,0,100.6,0,0,98,3.613,3.596,3.622,0,0,0,9.957,52.34,1052.2491911523,2.296588,11,AutoTakeoff,
4300,2025-01-07 01:03:02,0,0,2.624672,,,1052.5772751523,2.624672,0,0,0,8,0,10.858,1052.5772751523,2.624672,0.6263432,0,0,0,-0.894776,98.4, -0.7, 4.8,0,0,1024,1024,1024,1024,0,0,0,0,100.6,0,0,98,3.613,3.596,3.622,0,0,0,9.957,52.34,1052.5772751523,2.624672,11,AutoTakeoff,
4400,2025-01-07 01:03:02,0,0,2.624672,,,1052.5772751523,2.952756,0,0,0,8,0,10.858,1052.5772751523,2.624672,0.6263432,0,0,0,-0.894776,98.5, -0.7, 3.6,0,0,1024,1024,1024,1024,0,0,0,0,100.6,0,0,98,3.613,3.596,3.622,0,0,0,9.957,52.34,1052.5772751523,2.624672,11,AutoTakeoff,
4500,2025-01-07 01:03:02,0,0,2.952756,,,1052.9053591523,2.952756,0,0,0,7,0,10.858,1052.9053591523,2.952756,0.6263432,0,0,0,-0.894776,98.4, 0.2, 2.4,0,0,1024,1024,1024,1024,0,0,0,0,100.5,0,0,98,3.613,3.596,3.622,0,0,0,9.957,52.34,1052.9053591523,2.952756,11,AutoTakeoff,
4600,2025-01-07 01:03:02,0,0,2.952756,,,1052.9053591523,2.952756,0,0,0,7,0,10.858,1052.9053591523,2.952756,0.6263432,0,0,0,-0.894776,98.6, 1.5, 2.7,0,0,1024,1024,1024,1024,0,0,0,0,100.5,0,0,98,3.613,3.596,3.622,0,0,0,9.957,52.34,1052.9053591523,2.952756,11,AutoTakeoff,
4700,2025-01-07 01:03:02,0,0,3.28084,,,1053.2334431523,3.28084,0,0,0,7,0,10.858,1053.2334431523,3.28084,0.6263432,0,0,0,-0.894776,98.6, 1.3, 3.1,0,0,1024,1024,1024,1024,0,0,0,0,100.5,0,0,98,3.613,3.596,3.622,0,0,0,9.957,52.34,1053.2334431523,3.28084,11,AutoTakeoff,
4800,2025-01-07 01:03:03,0,0,3.28084,,,1053.2334431523,3.28084,0,0,0,7,0,10.858,1053.2334431523,3.28084,0.6263432,0,0,0,-0.894776,98.4, 1.4, 4.1,0,0,1024,1024,1024,1024,0,0,0,0,100.5,0,0,98,3.613,3.596,3.622,0,0,0,9.957,52.34,1053.2334431523,3.28084,11,AutoTakeoff,
4900,2025-01-07 01:03:03,0,0,3.608924,,,1053.5615271523,3.608924,0,0,0,7,0,10.858,1053.5615271523,3.608924,0.6263432,0,0,0,-0.894776,98.5, 2.1, 3.2,0,0,1024,1024,1024,1024,0,0,0,0,100.5,0,0,98,3.613,3.596,3.622,0,0,0,9.957,52.34,1053.5615271523,3.608924,6,P-GPS,
5000,2025-01-07 01:03:03,0,0,3.608924,,,1053.5615271523,3.608924,0,0,0,7,0,10.858,1053.5615271523,3.608924,0.6263432,0,0,0,-0.671082,98.4, 2.8, 1.6,0,0,1024,1024,1024,1024,0,0,0,0,100.5,0,0,98,3.613,3.596,3.622,0,0,0,9.957,52.34,1053.5615271523,3.608924,6,P-GPS,
5100,2025-01-07 01:03:03,0,0,3.937008,,,1053.8896111523,3.608924,0,0,0,7,0,10.858,1053.8896111523,3.937008,0.6263432,0,0,0,-0.447388,98.6, 1.8, 1.5,0,0,1024,1024,1024,1024,0,0,0,0,100.5,0,0,98,3.613,3.596,3.622,0,0,0,9.957,52.34,1053.8896111523,3.937008,6,P-GPS,
5200,2025-01-07 01:03:03,0,0,3.937008,,,1053.8896111523,3.608924,0,0,0,7,0,10.803,1053.8896111523,3.937008,0.6263432,0,0,0,-0.223694,98.6, 0.8, 2.3,0,0,1024,1024,1024,1024,0,0,0,0,100.5,0,0,98,3.595,3.579,3.608,0,0,0,11.086,52.52,1053.8896111523,3.937008,6,P-GPS,
5300,2025-01-07 01:03:03,0,0,3.937008,,,1053.8896111523,3.608924,0.223694,0,0,8,0,10.803,1053.8896111523,3.937008,0.6263432,0,0,0.223694,0,99, 2.2, 1,0,0,1024,1024,1024,1024,0,0,0,0,100.5,0,0,98,3.595,3.579,3.608,0,0,0,11.086,52.52,1053.8896111523,3.937008,6,P-GPS,
5400,2025-01-07 01:03:03,0,0,3.937008,,,1053.8896111523,3.937008,0.223694,0,0,8,0,10.803,1053.8896111523,3.937008,0.6263432,0,0,0.223694,0,99.1, 4.2, 0.2,0,0,1030,1024,1024,1024,1,0,0,0,100.5,0,0,98,3.595,3.579,3.608,0,0,0,11.086,52.52,1053.8896111523,3.937008,6,P-GPS,
5500,2025-01-07 01:03:03,0,0,3.937008,,,1053.8896111523,3.937008,0.223694,0,0,7,0,10.803,1053.8896111523,3.937008,0.6263432,0,0,0.223694,0,99.3, 4.9, 2.1,0,0,1054,1024,1024,1024,5,0,0,0,100.5,0,0,98,3.595,3.579,3.608,0,0,0,11.086,52.52,1053.8896111523,3.937008,6,P-GPS,
5600,2025-01-07 01:03:03,0,0,3.937008,,,1053.8896111523,3.608924,0,0,0,7,0,10.803,1053.8896111523,3.937008,0.6263432,0,0,0,0,99.6, 4, 4.1,0,0,1078,1024,1024,1024,8,0,0,0,100.5,0,0,98,3.595,3.579,3.608,0,0,0,11.086,52.52,1053.8896111523,3.937008,6,P-GPS,
5700,2025-01-07 01:03:03,0,0,3.937008,,,1053.8896111523,3.608924,0,0,0,7,0,10.803,1053.8896111523,3.937008,0.6263432,0,0,0,0,100.1, 2.2, 2.9,0,0,1123,1024,1024,1024,15,0,0,0,100.5,0,0,98,3.595,3.579,3.608,0,0,0,11.086,52.52,1053.8896111523,3.937008,6,P-GPS,
5800,2025-01-07 01:03:04,0,0,3.937008,,,1053.8896111523,3.608924,0,0,0,7,0,10.803,1053.8896111523,3.937008,0.6263432,0,0,0,0,100.6, 1.3, 3.1,0,0,1139,1024,1024,1024,17,0,0,0,100.5,0,0,98,3.595,3.579,3.608,0,0,0,11.086,52.52,1053.8896111523,3.937008,6,P-GPS,
5900,2025-01-07 01:03:04,0,0,3.937008,,,1053.8896111523,3.608924,0,0,0,7,0,10.803,1053.8896111523,3.937008,0.6263432,0,0,0,0,101.1, 0.2, 3.6,0,0,1141,1024,1024,1024,18,0,0,0,100.5,0,0,98,3.595,3.579,3.608,0,0,0,11.086,52.52,1053.8896111523,3.937008,6,P-GPS,
6000,2025-01-07 01:03:04,0,0,3.937008,,,1053.8896111523,3.608924,0,0,0,7,0,10.803,1053.8896111523,3.937008,0.6263432,0,0,0,0,101, -0.4, 2.8,0,0,1153,1024,1024,1024,20,0,0,0,100.5,0,0,98,3.595,3.579,3.608,0,0,0,11.086,52.52,1053.8896111523,3.937008,6,P-GPS,
6100,2025-01-07 01:03:04,0,0,3.937008,,,1053.8896111523,3.608924,0.223694,0,0,7,0,10.803,1053.8896111523,3.937008,0.6263432,0,0,0.223694,0,100.2, -0.4, 0.2,0,0,1147,1024,1024,1024,19,0,0,0,100.5,0,0,98,3.595,3.579,3.608,0,0,0,11.086,52.52,1053.8896111523,3.937008,6,P-GPS,
6200,2025-01-07 01:03:04,0,0,3.937008,,,1053.8896111523,3.608924,0.223694,0,0,7,0,10.728,1053.8896111523,3.937008,0.6263432,0,0,0.223694,0,99.6, 0.8, 0,0,0,1134,1024,1024,1024,17,0,0,0,100.5,0,0,98,3.607,3.588,3.613,0,0,0,11.294,52.52,1053.8896111523,3.937008,6,P-GPS,
6300,2025-01-07 01:03:04,0,0,3.937008,,,1053.8896111523,3.608924,0.447388,0,0,8,0,10.728,1053.8896111523,3.937008,0.6263432,0,0,0.447388,0,99.4, 1.7, 2.5,0,0,1134,1024,1024,1024,17,0,0,0,100.5,0,0,98,3.607,3.588,3.613,0,0,0,11.294,52.52,1053.8896111523,3.937008,6,P-GPS,
6400,2025-01-07 01:03:04,0,0,3.937008,,,1053.8896111523,3.608924,0.447388,0,0,8,0,10.728,1053.8896111523,3.937008,0.6263432,0,0,0.447388,0,99.5, 1.9, 4.8,0,0,1134,1024,1024,1024,17,0,0,0,100.5,0,0,98,3.607,3.588,3.613,0,0,0,11.294,52.52,1053.8896111523,3.937008,6,P-GPS,
6500,2025-01-07 01:03:04,0,0,3.937008,,,1053.8896111523,3.608924,0.447388,0,0,8,0,10.728,1053.8896111523,3.937008,0.6263432,0,0,0.447388,0,99.8, 1.4, 3.7,0,0,1138,1024,1024,1024,17,0,0,0,100.5,0,0,98,3.607,3.588,3.613,0,0,0,11.294,52.52,1053.8896111523,3.937008,6,P-GPS,
6600,2025-01-07 01:03:04,0,0,3.937008,,,1053.8896111523,3.608924,0.447388,0,0,8,0,10.728,1053.8896111523,3.937008,0.6263432,0,0,0.447388,0,99.7, 0.9, 2.4,0,0,1147,1024,1024,1024,19,0,0,0,100.5,0,0,98,3.607,3.588,3.613,0,0,0,11.294,52.52,1053.8896111523,3.937008,6,P-GPS,
6700,2025-01-07 01:03:05,0,0,3.937008,,,1053.8896111523,3.608924,0.447388,0,0,7,0,10.728,1053.8896111523,3.937008,0.6263432,0,0,0.447388,0,99.5, 1.1, 2.2,0,0,1149,1024,1024,1024,19,0,0,0,100.5,0,0,98,3.607,3.588,3.613,0,0,0,11.294,52.52,1053.8896111523,3.937008,6,P-GPS,
6800,2025-01-07 01:03:05,0,0,3.937008,,,1053.8896111523,3.608924,0.447388,0,0,7,0,10.728,1053.8896111523,3.937008,0.6263432,0,0,0.447388,0,99.4, 1.8, 1.3,0,0,1150,1024,1024,1024,19,0,0,0,100.5,0,0,98,3.607,3.588,3.613,0,0,0,11.294,52.52,1053.8896111523,3.937008,6,P-GPS,
6900,2025-01-07 01:03:05,0,0,3.937008,,,1053.8896111523,3.608924,0.447388,0,0,7,0,10.728,1053.8896111523,3.937008,0.6263432,0,0,0.447388,0,99.5, 2.2, 0,0,0,1153,1024,1024,1024,20,0,0,0,100.5,0,0,98,3.607,3.588,3.613,0,0,0,11.294,52.52,1053.8896111523,3.937008,6,P-GPS,
7000,2025-01-07 01:03:05,0,0,3.937008,,,1053.8896111523,3.608924,0.447388,0,0,7,0,10.728,1053.8896111523,3.937008,0.6263432,0,0,0.447388,0,99.3, 1.4, 0.9,0,0,1155,1024,1024,1024,20,0,0,0,100.5,0,0,98,3.607,3.588,3.613,0,0,0,11.294,52.52,1053.8896111523,3.937008,6,P-GPS,
7100,2025-01-07 01:03:05,0,0,3.937008,,,1053.8896111523,3.608924,0.447388,0,0,7,0,10.728,1053.8896111523,3.937008,0.6263432,0,0,0.447388,0,99.2, 0, 3.2,0,0,1168,1024,1024,1024,22,0,0,0,100.5,0,0,98,3.607,3.588,3.613,0,0,0,11.294,52.52,1053.8896111523,3.937008,6,P-GPS,
7200,2025-01-07 01:03:05,0,0,3.608924,,,1053.5615271523,3.608924,0.447388,0,0,7,0,10.665,1053.8896111523,3.937008,0.6263432,0,0,0.447388,0,99.5, -0.8, 3.4,0,0,1211,1024,1024,1024,28,0,0,0,100.5,0,0,98,3.541,3.527,3.557,0,0,0,11.719,52.7,1053.5615271523,3.608924,6,P-GPS,
7300,2025-01-07 01:03:05,0,0,3.608924,,,1053.5615271523,3.608924,0.447388,0,0,7,0,10.665,1053.8896111523,3.937008,0.6263432,0,0,0.447388,0,99.6, -0.7, 0.9,0,0,1252,1024,1024,1024,35,0,0,0,100.5,0,0,98,3.541,3.527,3.557,0,0,0,11.719,52.7,1053.5615271523,3.608924,6,P-GPS,
7400,2025-01-07 01:03:05,0,0,3.608924,,,1053.5615271523,3.608924,0.447388,0,0,7,0,10.665,1053.8896111523,3.937008,0.6263432,0,0,0.447388,0,99.5, -1.9, 0.6,0,0,1252,1024,1024,1024,35,0,0,0,100.5,0,0,98,3.541,3.527,3.557,0,0,0,11.719,52.7,1053.5615271523,3.608924,6,P-GPS,
7500,2025-01-07 01:03:05,0,0,3.608924,,,1053.5615271523,3.608924,0.671082,0,0,7,0,10.665,1053.8896111523,3.937008,0.671082,0,0,0.671082,0,99.3, -3.9, 2.5,0,0,1252,1024,1024,1024,35,0,0,0,100.5,0,0,98,3.541,3.527,3.557,0,0,0,11.719,52.7,1053.5615271523,3.608924,6,P-GPS,
7600,2025-01-07 01:03:05,0,0,3.608924,,,1053.5615271523,3.608924,0.894776,0,0,7,0,10.665,1053.8896111523,3.937008,0.894776,0,0,0.894776,0,99, -4.9, 3.4,0,0,1252,1024,1024,1024,35,0,0,0,100.5,0,0,98,3.541,3.527,3.557,0,0,0,11.719,52.7,1053.5615271523,3.608924,6,P-GPS,
7700,2025-01-07 01:03:06,0,0,3.608924,,,1053.5615271523,3.608924,1.11847,0,0,7,0,10.665,1053.8896111523,3.937008,1.11847,0,0,1.11847,0,98.9, -5.1, 3.5,0,0,1251,1024,1024,1024,34,0,0,0,100.5,0,0,98,3.541,3.527,3.557,0,0,0,11.719,52.7,1053.5615271523,3.608924,6,P-GPS,
7800,2025-01-07 01:03:06,0,0,3.608924,,,1053.5615271523,3.608924,1.342164,0,0,7,0,10.665,1053.8896111523,3.937008,1.342164,0,0,1.342164,0,99.1, -4, 2.3,0,0,1245,1024,1024,1024,33,0,0,0,100.5,0,0,98,3.541,3.527,3.557,0,0,0,11.719,52.7,1053.5615271523,3.608924,6,P-GPS,
7900,2025-01-07 01:03:06,0,0,3.608924,,,1053.5615271523,3.608924,1.3645334,0,0,7,0,10.665,1053.8896111523,3.937008,1.3645334,0,-0.223694,1.342164,0,99, -3.5, 1.9,0,0,1241,1024,1024,1024,33,0,0,0,100.5,0,0,98,3.541,3.527,3.557,0,0,0,11.719,52.7,1053.5615271523,3.608924,6,P-GPS,
8000,2025-01-07 01:03:06,0,0,3.608924,,,1053.5615271523,3.608924,1.5882274,0,0,7,0,10.665,1053.8896111523,3.937008,1.5882274,0,-0.223694,1.565858,0,98.9, -4.2, 1.9,0,0,1237,1024,1024,1024,32,0,0,0,100.5,0,0,98,3.541,3.527,3.557,0,0,0,11.719,52.7,1053.5615271523,3.608924,6,P-GPS,
8100,2025-01-07 01:03:06,0,0,3.608924,,,1053.5615271523,3.608924,1.8119214,0,0,7,0,10.665,1053.8896111523,3.937008,1.8119214,0,-0.223694,1.789552,0,99, -4.2, 2.3,0,0,1236,1024,1024,1024,32,0,0,0,100.5,0,0,98,3.541,3.527,3.557,0,0,0,11.719,52.7,1053.5615271523,3.608924,6,P-GPS,
8200,2025-01-07 01:03:06,0,0,3.608924,,,1053.5615271523,3.608924,2.0356154,0,0,7,0,10.679,1053.8896111523,3.937008,2.0356154,0,-0.223694,2.013246,0,99.1, -3.2, 2.5,0,0,1210,1024,1024,1024,28,0,0,0,100.5,0,0,97,3.561,3.543,3.572,0,0,0,11.774,52.7,1053.5615271523,3.608924,6,P-GPS,
8300,2025-01-07 01:03:06,0,0,3.608924,,,1053.5615271523,3.608924,2.0356154,0,0,7,0,10.679,1053.8896111523,3.937008,2.0356154,0,-0.223694,2.013246,0,99.1, -2.1, 2.2,0,0,1208,1024,1024,1024,28,0,0,0,100.5,0,0,97,3.561,3.543,3.572,0,0,0,11.774,52.7,1053.5615271523,3.608924,6,P-GPS,
8400,2025-01-07 01:03:06,0,0,3.608924,,,1053.5615271523,3.608924,2.0356154,0,0,7,0,10.679,1053.8896111523,3.937008,2.0356154,0,-0.223694,2.013246,0,99, -1.8, 2.6,0,0,1205,1024,1024,1024,27,0,0,0,100.5,0,0,97,3.561,3.543,3.572,0,0,0,11.774,52.7,1053.5615271523,3.608924,6,P-GPS,
8500,2025-01-07 01:03:06,0,0,3.608924,,,1053.5615271523,3.937008,2.2816788,0,0,7,0,10.679,1053.8896111523,3.937008,2.2816788,0,-0.447388,2.23694,0,99.1, -2, 2.4,0,0,1205,1024,1024,1024,27,0,0,0,100.5,0,0,97,3.561,3.543,3.572,0,0,0,11.774,52.7,1053.5615271523,3.608924,6,P-GPS,
8600,2025-01-07 01:03:06,0,0,3.608924,,,1053.5615271523,4.265092,2.2816788,0,0,7,0,10.679,1053.8896111523,3.937008,2.2816788,0,-0.447388,2.23694,0,99.4, -1.9, 1,0,0,1207,1024,1024,1024,28,0,0,0,100.5,0,0,97,3.561,3.543,3.572,0,0,0,11.774,52.7,1053.5615271523,3.608924,6,P-GPS,
8700,2025-01-07 01:03:07,0,0,3.608924,,,1053.5615271523,4.593176,2.5053728,0,0,7,0,10.679,1053.8896111523,3.937008,2.5053728,0,-0.447388,2.460634,0,99.3, -0.8, 0.1,0,0,1207,1024,1024,1024,28,0,0,0,100.5,0,0,97,3.561,3.543,3.572,0,0,0,11.774,52.7,1053.5615271523,3.608924,6,P-GPS,
8800,2025-01-07 01:03:07,0,0,3.608924,,,1053.5615271523,4.92126,2.5053728,0,0,7,0,10.679,1053.8896111523,3.937008,2.5053728,0,-0.447388,2.460634,0,99.2, 0, 0.9,0,0,1202,1024,1024,1024,27,0,0,0,100.5,0,0,97,3.561,3.543,3.572,0,0,0,11.774,52.7,1053.5615271523,3.608924,6,P-GPS,
8900,2025-01-07 01:03:07,0,0,3.608924,,,1053.5615271523,4.92126,2.5053728,0,0,7,0,10.679,1053.8896111523,3.937008,2.5053728,0,-0.447388,2.460634,0,99.5, -0.4, 1.4,0,0,1196,1024,1024,1024,26,0,0,0,100.5,0,0,97,3.561,3.543,3.572,0,0,0,11.774,52.7,1053.5615271523,3.608924,6,P-GPS,
9000,2025-01-07 01:03:07,0,0,3.608924,,,1053.5615271523,5.249344,2.5053728,0,0,7,0,10.679,1053.8896111523,3.937008,2.5053728,0,-0.447388,2.460634,0,99.5, -0.4, 0.9,0,0,1192,1024,1024,1024,25,0,0,0,100.5,0,0,97,3.561,3.543,3.572,0,0,0,11.774,52.7,1053.5615271523,3.608924,6,P-GPS,
9100,2025-01-07 01:03:07,0,0,3.937008,,,1053.8896111523,4.92126,2.7290668,0,0,7,0,10.679,1053.8896111523,3.937008,2.7290668,0,-0.447388,2.684328,0,99.5, 0.2, 1.2,0,0,1191,1024,1024,1024,25,0,0,0,100.5,0,0,97,3.561,3.543,3.572,0,0,0,11.774,52.7,1053.8896111523,3.937008,6,P-GPS,
9200,2025-01-07 01:03:07,0,0,3.937008,,,1053.8896111523,4.92126,2.7290668,0,0,7,0,10.642,1053.8896111523,3.937008,2.7290668,0,-0.447388,2.684328,0,99.5, 0.9, 1.6,0,0,1190,1024,1024,1024,25,0,0,0,100.5,0,0,97,3.549,3.53,3.56,0,0,0,11.891,52.7,1053.8896111523,3.937008,6,P-GPS,
9300,2025-01-07 01:03:07,0,0,3.937008,,,1053.8896111523,5.249344,2.5053728,0,0,7,0,10.642,1053.8896111523,3.937008,2.7290668,0,-0.447388,2.460634,0,99.5, 1.2, 1.2,0,0,1189,1024,1024,1024,25,0,0,0,100.5,0,0,97,3.549,3.53,3.56,0,0,0,11.891,52.7,1053.8896111523,3.937008,6,P-GPS,
9400,2025-01-07 01:03:07,0,0,3.937008,,,1053.8896111523,5.249344,2.5053728,0,0,7,0,10.642,1053.8896111523,3.937008,2.7290668,0,-0.447388,2.460634,0,99.3, 1.5, 0.3,0,0,1189,1024,1024,1024,25,0,0,0,100.5,0,0,97,3.549,3.53,3.56,0,0,0,11.891,52.7,1053.8896111523,3.937008,6,P-GPS,
9500,2025-01-07 01:03:07,0,0,3.937008,,,1053.8896111523,5.249344,2.5053728,0,0,7,0,10.642,1053.8896111523,3.937008,2.7290668,0,-0.223694,2.460634,0,99.1, 1.2, 1,0,0,1188,1024,1024,1024,25,0,0,0,100.5,0,0,97,3.549,3.53,3.56,0,0,0,11.891,52.7,1053.8896111523,3.937008,6,P-GPS,
9600,2025-01-07 01:03:07,0,0,3.937008,,,1053.8896111523,5.249344,2.460634,0,0,7,0,10.642,1053.8896111523,3.937008,2.7290668,0,-0.223694,2.460634,0,99, 0.9, 1.7,0,0,1188,1024,1024,1024,25,0,0,0,100.5,0,0,97,3.549,3.53,3.56,0,0,0,11.891,52.7,1053.8896111523,3.937008,6,P-GPS,
9700,2025-01-07 01:03:08,0,0,3.937008,,,1053.8896111523,5.249344,2.5053728,0,0,6,0,10.642,1053.8896111523,3.937008,2.7290668,0,-0.447388,2.460634,0,99, 1.3, 1.3,0,0,1188,1024,1024,1024,25,0,0,0,100.5,0,0,97,3.549,3.53,3.56,0,0,0,11.891,52.7,1053.8896111523,3.937008,6,P-GPS,
9800,2025-01-07 01:03:08,0,0,3.937008,,,1053.8896111523,5.249344,2.460634,0,0,6,0,10.642,1053.8896111523,3.937008,2.7290668,0,-0.223694,2.460634,0,99.2, 1.1, 1.3,0,0,1188,1024,1024,1024,25,0,0,0,100.5,0,0,97,3.549,3.53,3.56,0,0,0,11.891,52.7,1053.8896111523,3.937008,6,P-GPS,
9900,2025-01-07 01:03:08,0,0,3.937008,,,1053.8896111523,5.249344,2.460634,0,0,6,0,10.642,1053.8896111523,3.937008,2.7290668,0,-0.223694,2.460634,0,99.2, 0.6, 1.7,0,0,1189,1024,1024,1024,25,0,0,0,100.5,0,0,97,3.549,3.53,3.56,0,0,0,11.891,52.7,1053.8896111523,3.937008,6,P-GPS,
10000,2025-01-07 01:03:08,0,0,3.937008,,,1053.8896111523,5.249344,2.460634,0,0,6,0,10.642,1053.8896111523,3.937008,2.7290668,0,-0.447388,2.460634,0,99.3, 0.7, 1.6,0,0,1189,1024,1024,1024,25,0,0,0,100.5,0,0,97,3.549,3.53,3.56,0,0,0,11.891,52.7,1053.8896111523,3.937008,6,P-GPS,
10100,2025-01-07 01:03:08,0,0,3.937008,,,1053.8896111523,5.249344,2.5053728,0,0,6,0,10.642,1053.8896111523,3.937008,2.7290668,0,-0.447388,2.460634,0,99.5, 0.9, 1.5,0,0,1189,1024,1024,1024,25,0,0,0,100.5,0,0,97,3.549,3.53,3.56,0,0,0,11.891,52.7,1053.8896111523,3.937008,6,P-GPS,
10200,2025-01-07 01:03:08,0,0,3.937008,,,1053.8896111523,5.249344,2.5053728,0,0,6,0,10.606,1053.8896111523,3.937008,2.7290668,0,-0.447388,2.460634,0,99.4, 1.2, 1.3,0,0,1189,1024,1024,1024,25,0,0,0,100.5,0,0,97,3.547,3.531,3.561,0,0,0,12.153,53.06,1053.8896111523,3.937008,6,P-GPS,
10300,2025-01-07 01:03:08,0,0,3.937008,,,1053.8896111523,5.249344,2.5053728,0,0,6,0,10.606,1053.8896111523,3.937008,2.7290668,0,-0.447388,2.460634,0,99.5, 1.3, 1.2,0,0,1189,1024,1024,1024,25,0,0,0,100.5,0,0,97,3.547,3.531,3.561,0,0,0,12.153,53.06,1053.8896111523,3.937008,6,P-GPS,
10400,2025-01-07 01:03:08,0,0,3.937008,,,1053.8896111523,5.249344,2.5053728,0,0,6,0,10.606,1053.8896111523,3.937008,2.7290668,0,-0.447388,2.460634,0,99.5, 1.4, 0.8,0,0,1189,1024,1024,1024,25,0,0,0,100.5,0,0,97,3.547,3.531,3.561,0,0,0,12.153,53.06,1053.8896111523,3.937008,6,P-GPS,
10500,2025-01-07 01:03:08,0,0,3.937008,,,1053.8896111523,5.249344,2.5053728,0,0,6,0,10.606,1053.8896111523,3.937008,2.7290668,0,-0.447388,2.460634,0,99.4, 1.4, 0.9,0,0,1189,1024,1024,1024,25,0,0,0,100.5,0,0,97,3.547,3.531,3.561,0,0,0,12.153,53.06,1053.8896111523,3.937008,6,P-GPS,
10600,2025-01-07 01:03:08,0,0,3.937008,,,1053.8896111523,5.249344,2.5053728,0,0,6,0,10.606,1053.8896111523,3.937008,2.7290668,0,-0.447388,2.460634,0,99.4, 0.9, 1.2,0,0,1189,1024,1024,1024,25,0,0,0,100.5,0,0,97,3.547,3.531,3.561,0,0,0,12.153,53.06,1053.8896111523,3.937008,6,P-GPS,
10700,2025-01-07 01:03:09,0,0,3.937008,,,1053.8896111523,5.249344,2.5053728,0,0,7,0,10.606,1053.8896111523,3.937008,2.7290668,0,-0.447388,2.460634,0,99.4, 0.3, 1.2,0,0,1189,1024,1024,1024,25,0,0,0,100.5,0,0,97,3.547,3.531,3.561,0,0,0,12.153,53.06,1053.8896111523,3.937008,6,P-GPS,
10800,2025-01-07 01:03:09,0,0,3.937008,,,1053.8896111523,5.249344,2.5053728,0,0,7,0,10.606,1053.8896111523,3.937008,2.7290668,0,-0.447388,2.460634,0,99.5, 0.2, 0.9,0,0,1189,1024,1024,1024,25,0,0,0,100.5,0,0,97,3.547,3.531,3.561,0,0,0,12.153,53.06,1053.8896111523,3.937008,6,P-GPS,
10900,2025-01-07 01:03:09,0,0,3.937008,,,1053.8896111523,5.249344,2.5053728,0,0,8,0,10.606,1053.8896111523,3.937008,2.7290668,0,-0.447388,2.460634,0,99.5, 0.7, 0.7,0,0,1189,1024,1024,1024,25,0,0,0,100.5,0,0,97,3.547,3.531,3.561,0,0,0,12.153,53.06,1053.8896111523,3.937008,6,P-GPS,
11000,2025-01-07 01:03:09,0,0,3.937008,,,1053.8896111523,5.249344,2.5053728,0,0,8,0,10.606,1053.8896111523,3.937008,2.7290668,0,-0.447388,2.460634,0,99.3, 1.4, 0.8,0,0,1189,1024,1024,1024,25,0,0,0,100.5,0,0,97,3.547,3.531,3.561,0,0,0,12.153,53.06,1053.8896111523,3.937008,6,P-GPS,
11100,2025-01-07 01:03:09,0,0,3.937008,,,1053.8896111523,5.249344,2.5053728,0,0,8,0,10.606,1053.8896111523,3.937008,2.7290668,0,-0.447388,2.460634,0,99.3, 1.3, 0.8,0,0,1188,1024,1024,1024,25,0,0,0,100.5,0,0,97,3.547,3.531,3.561,0,0,0,12.153,53.06,1053.8896111523,3.937008,6,P-GPS,
11200,2025-01-07 01:03:09,0,0,3.937008,,,1053.8896111523,5.249344,2.5053728,0,0,8,0,10.606,1053.8896111523,3.937008,2.7290668,0,-0.447388,2.460634,0,99.3, 0.7, 0.7,0,0,1138,1024,1024,1024,17,0,0,0,100.5,0,0,97,3.538,3.519,3.549,0,0,0,11.79,53.06,1053.8896111523,3.937008,6,P-GPS,
11300,2025-01-07 01:03:09,0,0,3.937008,,,1053.8896111523,5.249344,2.460634,0,0,8,0,10.606,1053.8896111523,3.937008,2.7290668,0,-0.223694,2.460634,0,99.4, 1, 0.5,0,0,1024,1024,1024,1024,0,0,0,0,100.5,0,0,97,3.538,3.519,3.549,0,0,0,11.79,53.06,1053.8896111523,3.937008,6,P-GPS,
11400,2025-01-07 01:03:09,0,0,3.937008,,,1053.8896111523,5.249344,2.460634,0,0,8,0,10.606,1053.8896111523,3.937008,2.7290668,0,-0.223694,2.460634,0,99.4, 5.8, 1.1,0,0,1024,1024,1024,1024,0,0,0,0,100.5,0,0,97,3.538,3.519,3.549,0,0,0,11.79,53.06,1053.8896111523,3.937008,6,P-GPS,
11500,2025-01-07 01:03:09,0,0,3.937008,,,1053.8896111523,5.249344,2.460634,0,0,8,0,10.606,1053.8896111523,3.937008,2.7290668,0,-0.223694,2.013246,0,99.5, 11.8, 1.5,0,0,1024,1024,1024,1024,0,0,0,0,100.5,0,0,97,3.538,3.519,3.549,0,0,0,11.79,53.06,1053.8896111523,3.937008,6,P-GPS,
11600,2025-01-07 01:03:09,0,0,3.937008,,,1053.8896111523,5.249344,1.5882274,0,0,8,0,10.606,1053.8896111523,3.937008,2.7290668,0,-0.223694,1.565858,0,99.6, 11.7, 1.4,0,0,1024,1024,1024,1024,0,0,0,0,100.5,0,0,97,3.538,3.519,3.549,0,0,0,11.79,53.06,1053.8896111523,3.937008,6,P-GPS,
11700,2025-01-07 01:03:09,0,0,3.937008,,,1053.8896111523,5.249344,1.3645334,0,0,8,0,10.606,1053.8896111523,3.937008,2.7290668,0,-0.223694,1.342164,0,99.6, 8, 0.9,0,0,1024,1024,1024,1024,0,0,0,0,100.5,0,0,97,3.538,3.519,3.549,0,0,0,11.79,53.06,1053.8896111523,3.937008,6,P-GPS,
11800,2025-01-07 01:03:10,0,0,3.937008,,,1053.8896111523,5.249344,1.11847,0,0,8,0,10.606,1053.8896111523,3.937008,2.7290668,0,0,1.11847,0,99.6, 5.5, 1.3,0,0,1024,1024,1024,1024,0,0,0,0,100.5,0,0,97,3.538,3.519,3.549,0,0,0,11.79,53.06,1053.8896111523,3.937008,6,P-GPS,
11900,2025-01-07 01:03:10,0,0,3.937008,,,1053.8896111523,5.249344,0.894776,0,0,8,0,10.606,1053.8896111523,3.937008,2.7290668,0,0,0.894776,0,99.6, 5.5, 1.3,0,0,1024,1024,1024,1024,0,0,0,0,100.5,0,0,97,3.538,3.519,3.549,0,0,0,11.79,53.06,1053.8896111523,3.937008,6,P-GPS,
12000,2025-01-07 01:03:10,0,0,3.937008,,,1053.8896111523,5.577428,0.894776,0,0,8,0,10.606,1053.8896111523,3.937008,2.7290668,0,0,0.894776,0,99.4, 6.4, 1.3,0,0,1024,1024,1024,1024,0,0,0,0,100.5,0,0,97,3.538,3.519,3.549,0,0,0,11.79,53.06,1053.8896111523,3.937008,6,P-GPS,
12100,2025-01-07 01:03:10,0,0,3.937008,,,1053.8896111523,5.577428,0.671082,0,0,7,0,10.606,1053.8896111523,3.937008,2.7290668,0,0,0.671082,0,99.3, 6.5, 2,0,0,1024,1024,1024,1024,0,0,0,0,100.5,0,0,97,3.538,3.519,3.549,0,0,0,11.79,53.06,1053.8896111523,3.937008,6,P-GPS,
12200,2025-01-07 01:03:10,0,0,3.937008,,,1053.8896111523,5.249344,0.447388,0,0,7,0,10.603,1053.8896111523,3.937008,2.7290668,0,0,0.447388,0,99.5, 6.2, 2,0,0,1024,1024,1024,1024,0,0,0,0,100.5,0,0,97,3.538,3.52,3.549,0,0,0,11.994,53.42,1053.8896111523,3.937008,6,P-GPS,
12300,2025-01-07 01:03:10,0,0,3.937008,,,1053.8896111523,5.249344,0.223694,0,0,8,0,10.603,1053.8896111523,3.937008,2.7290668,0,0,0.223694,0,99.5, 5.4, 2.1,0,0,1024,1024,1024,1024,0,0,0,0,100.5,0,0,97,3.538,3.52,3.549,0,0,0,11.994,53.42,1053.8896111523,3.937008,6,P-GPS,
12400,2025-01-07 01:03:10,0,0,3.937008,,,1053.8896111523,5.249344,0.223694,0,0,8,0,10.603,1053.8896111523,3.937008,2.7290668,0,0,0.223694,0,99.6, 4.5, 2.9,0,0,1024,1024,1024,1024,0,0,0,0,100.5,0,0,97,3.538,3.52,3.549,0,0,0,11.994,53.42,1053.8896111523,3.937008,6,P-GPS,
12500,2025-01-07 01:03:10,0,0,3.937008,,,1053.8896111523,5.249344,0.223694,0,0,8,0,10.603,1053.8896111523,3.937008,2.7290668,0,-0.223694,0,0,99.6, 3.6, 1.1,0,0,1024,1024,1024,1110,0,0,0,13,100.5,0,0,97,3.538,3.52,3.549,0,0,0,11.994,53.42,1053.8896111523,3.937008,6,P-GPS,
12600,2025-01-07 01:03:10,0,0,3.937008,,,1053.8896111523,5.249344,0.223694,0,0,8,0,10.603,1053.8896111523,3.937008,2.7290668,0,-0.223694,0,0,99.6, 3.4, -0.1,0,0,1024,1024,1024,1178,0,0,0,23,100.5,0,0,97,3.538,3.52,3.549,0,0,0,11.994,53.42,1053.8896111523,3.937008,6,P-GPS,
12700,2025-01-07 01:03:10,0,0,3.937008,,,1053.8896111523,5.249344,0.223694,0,0,7,0,10.603,1053.8896111523,3.937008,2.7290668,0,-0.223694,0,0,99.4, 3.3, -0.9,0,0,1024,1024,1024,1229,0,0,0,31,100.8,0,0,97,3.538,3.52,3.549,0,0,0,11.994,53.42,1053.8896111523,3.937008,6,P-GPS,
12800,2025-01-07 01:03:11,0,0,3.937008,,,1053.8896111523,5.249344,0.223694,0,0,7,0,10.603,1053.8896111523,3.937008,2.7290668,0,-0.223694,0,0,99.8, 2.5, -2.4,0,0,1024,1024,1024,1288,0,0,0,40,101.4,0,0,97,3.538,3.52,3.549,0,0,0,11.994,53.42,1053.8896111523,3.937008,6,P-GPS,
12900,2025-01-07 01:03:11,0,0,3.937008,,,1053.8896111523,5.249344,0,0,0,7,0,10.603,1053.8896111523,3.937008,2.7290668,0,0,0,0,100.3, 1.4, -2.5,0,0,1024,1024,1024,1289,0,0,0,40,102.2,0,0,97,3.538,3.52,3.549,0,0,0,11.994,53.42,1053.8896111523,3.937008,6,P-GPS,
13000,2025-01-07 01:03:11,0,0,3.937008,,,1053.8896111523,5.249344,0,0,0,7,0,10.603,1053.8896111523,3.937008,2.7290668,0,0,0,0,101.2, 0.9, -1.6,0,0,1024,1024,1024,1024,0,0,0,0,103.2,0,0,97,3.538,3.52,3.549,0,0,0,11.994,53.42,1053.8896111523,3.937008,6,P-GPS,
13100,2025-01-07 01:03:11,0,0,3.937008,,,1053.8896111523,5.249344,0,0,0,7,0,10.603,1053.8896111523,3.937008,2.7290668,0,0,0,0,102.1, 1, -1.4,0,0,1020,1100,1024,1024,-1,12,0,0,104.3,0,0,97,3.538,3.52,3.549,0,0,0,11.994,53.42,1053.8896111523,3.937008,6,P-GPS,
13200,2025-01-07 01:03:11,0,0,3.937008,,,1053.8896111523,5.249344,0,0,0,7,0,10.581,1053.8896111523,3.937008,2.7290668,0,0,0,0,102.7, 0.3, -1.8,0,0,979,1257,1024,1024,-7,35,0,0,105,0,0,97,3.54,3.522,3.552,0,0,0,12.024,53.42,1053.8896111523,3.937008,6,P-GPS,
13300,2025-01-07 01:03:11,0,0,3.937008,,,1053.8896111523,5.249344,0,0,0,7,0,10.581,1053.8896111523,3.937008,2.7290668,0,0,0,0,103, 0, -1.1,0,0,979,1257,1024,1024,-7,35,0,0,105.4,0,0,97,3.54,3.522,3.552,0,0,0,12.024,53.42,1053.8896111523,3.937008,6,P-GPS,
13400,2025-01-07 01:03:11,0,0,3.937008,,,1053.8896111523,5.249344,0,0,0,7,0,10.581,1053.8896111523,3.937008,2.7290668,0,0,0,0,103.7, 0.7, 1.8,0,0,977,1337,1024,1024,-7,47,0,0,105.4,0,0,97,3.54,3.522,3.552,0,0,0,12.024,53.42,1053.8896111523,3.937008,6,P-GPS,
13500,2025-01-07 01:03:11,0,0,3.937008,,,1053.8896111523,5.249344,0,0,0,7,0,10.581,1053.8896111523,3.937008,2.7290668,0,0,0,0,104.3, 1.6, 7.6,0,0,979,1342,1024,1024,-7,48,0,0,105.4,0,0,97,3.54,3.522,3.552,0,0,0,12.024,53.42,1053.8896111523,3.937008,6,P-GPS,
13600,2025-01-07 01:03:11,0,0,3.937008,,,1053.8896111523,5.249344,0.223694,0,0,7,0,10.581,1053.8896111523,3.937008,2.7290668,0,-0.223694,0,0,105.4, 3, 10.5,0,0,951,1342,1024,1024,-11,48,0,0,105.4,0,0,97,3.54,3.522,3.552,0,0,0,12.024,53.42,1053.8896111523,3.937008,6,P-GPS,
13700,2025-01-07 01:03:12,0,0,3.937008,,,1053.8896111523,5.249344,0.447388,0,0,7,0,10.581,1053.8896111523,3.937008,2.7290668,0,-0.447388,0,0,106.3, 2.3, 9.3,0,0,1024,1230,1024,1024,0,31,0,0,105.4,0,0,97,3.54,3.522,3.552,0,0,0,12.024,53.42,1053.8896111523,3.937008,6,P-GPS,
13800,2025-01-07 01:03:12,0,0,3.937008,,,1053.8896111523,5.249344,0.9171454,0,0,7,0,10.581,1053.8896111523,3.937008,2.7290668,0,-0.894776,-0.223694,0,106.5, 1.3, 8,0,0,1024,1024,1024,1024,0,0,0,0,105.4,0,0,97,3.54,3.522,3.552,0,0,0,12.024,53.42,1053.8896111523,3.937008,6,P-GPS,
13900,2025-01-07 01:03:12,0,0,3.937008,,,1053.8896111523,5.249344,1.1408394,0,0,7,0,10.581,1053.8896111523,3.937008,2.7290668,0,-1.11847,-0.223694,0,106.4, 1, 3.5,0,0,1024,1024,1024,1024,0,0,0,0,105.4,0,0,97,3.54,3.522,3.552,0,0,0,12.024,53.42,1053.8896111523,3.937008,6,P-GPS,
14000,2025-01-07 01:03:12,0,0,3.937008,,,1053.8896111523,5.249344,1.1408394,0,0,7,0,10.581,1053.8896111523,3.937008,2.7290668,0,-1.11847,-0.223694,0,105.6, 1.3, -4.4,0,0,1024,1024,1024,1024,0,0,0,0,105.4,0,0,97,3.54,3.522,3.552,0,0,0,12.024,53.42,1053.8896111523,3.937008,6,P-GPS,
14100,2025-01-07 01:03:12,0,0,3.937008,,,1053.8896111523,5.249344,0.894776,0,0,8,0,10.581,1053.8896111523,3.937008,2.7290668,0,-0.894776,0,0,104.3, 1.7, -6.4,0,0,1024,1024,1024,1131,0,0,0,16,105.4,0,0,97,3.54,3.522,3.552,0,0,0,12.024,53.42,1053.8896111523,3.937008,6,P-GPS,
14200,2025-01-07 01:03:12,0,0,3.937008,,,1053.8896111523,5.249344,0.447388,0,0,8,0,10.581,1053.8896111523,3.937008,2.7290668,0,-0.447388,0,0,103, 2.1, -2.8,0,0,1024,1024,1024,1378,0,0,0,54,105.4,0,0,97,3.532,3.516,3.545,0,0,0,11.922,53.78,1053.8896111523,3.937008,6,P-GPS,
14300,2025-01-07 01:03:12,0,0,3.937008,,,1053.8896111523,5.249344,0.447388,0,0,8,0,10.581,1053.8896111523,3.937008,2.7290668,0,-0.447388,0,0,103.1, 2.2, -0.1,0,0,1024,1024,1024,1471,0,0,0,68,105.7,0,0,97,3.532,3.516,3.545,0,0,0,11.922,53.78,1053.8896111523,3.937008,6,P-GPS,
14400,2025-01-07 01:03:12,0,0,3.608924,,,1053.5615271523,5.249344,0.223694,0,0,8,0,10.581,1053.8896111523,3.937008,2.7290668,0,-0.223694,0,0,104.2, 1.8, -0.3,0,0,1024,1024,1024,1471,0,0,0,68,106.7,0,0,97,3.532,3.516,3.545,0,0,0,11.922,53.78,1053.5615271523,3.608924,6,P-GPS,
14500,2025-01-07 01:03:12,0,0,3.937008,,,1053.8896111523,5.249344,0.223694,0,0,8,0,10.581,1053.8896111523,3.937008,2.7290668,0,-0.223694,0,0,105.9, 1.2, -1.8,0,0,1024,1024,1024,1578,0,0,0,84,108.3,0,0,97,3.532,3.516,3.545,0,0,0,11.922,53.78,1053.8896111523,3.937008,6,P-GPS,
14600,2025-01-07 01:03:12,0,0,3.937008,,,1053.8896111523,5.249344,0,0,0,8,0,10.581,1053.8896111523,3.937008,2.7290668,0,0,0,0,107.8, 1.7, -1.1,0,0,1024,1024,1024,1618,0,0,0,90,110.5,0,0,97,3.532,3.516,3.545,0,0,0,11.922,53.78,1053.8896111523,3.937008,6,P-GPS,
14700,2025-01-07 01:03:13,0,0,3.937008,,,1053.8896111523,5.249344,0,0,0,8,0,10.581,1053.8896111523,3.937008,2.7290668,0,0,0,0,110.2, 2.9, 1,0,0,1024,1024,1024,1646,0,0,0,94,113,0,0,97,3.532,3.516,3.545,0,0,0,11.922,53.78,1053.8896111523,3.937008,6,P-GPS,
14800,2025-01-07 01:03:13,0,0,3.937008,,,1053.8896111523,5.249344,0,0,0,8,0,10.581,1053.8896111523,3.937008,2.7290668,0,0,0,0,113, 3.6, 1.1,0,0,1024,1024,1024,1674,0,0,0,98,115.9,0,0,97,3.532,3.516,3.545,0,0,0,11.922,53.78,1053.8896111523,3.937008,6,P-GPS,
14900,2025-01-07 01:03:13,0,0,3.937008,,,1053.8896111523,5.249344,0,0,0,8,0,10.581,1053.8896111523,3.937008,2.7290668,0,0,0,0,116.1, 3.1, 0.9,0,0,1024,1024,1024,1684,0,0,0,100,118.8,0,0,97,3.532,3.516,3.545,0,0,0,11.922,53.78,1053.8896111523,3.937008,6,P-GPS,
15000,2025-01-07 01:03:13,0,0,3.937008,,,1053.8896111523,5.249344,0,0,0,8,0,10.581,1053.8896111523,3.937008,2.7290668,0,0,0,0,119.1, 2.1, 2.2,0,0,1024,1024,1024,1684,0,0,0,100,122,0,0,97,3.532,3.516,3.545,0,0,0,11.922,53.78,1053.8896111523,3.937008,6,P-GPS,
15100,2025-01-07 01:03:13,0,0,3.937008,,,1053.8896111523,5.249344,0,0,0,8,0,10.581,1053.8896111523,3.937008,2.7290668,0,0,0,0,122.4, 1.6, 3.6,0,0,1024,1024,1024,1684,0,0,0,100,125.1,0,0,97,3.532,3.516,3.545,0,0,0,11.922,53.78,1053.8896111523,3.937008,6,P-GPS,
15200,2025-01-07 01:03:13,0,0,3.937008,,,1053.8896111523,5.249344,0,0,0,8,0,10.588,1053.8896111523,3.937008,2.7290668,0,0,0,0,125.9, 2.2, 2.7,0,0,1024,1024,1024,1684,0,0,0,100,128.3,0,0,97,3.523,3.502,3.532,0,0,0,11.842,53.96,1053.8896111523,3.937008,6,P-GPS,
15300,2025-01-07 01:03:13,0,0,3.937008,,,1053.8896111523,5.249344,0,0,0,8,0,10.588,1053.8896111523,3.937008,2.7290668,0,0,0,0,129.1, 2.3, 1.6,0,0,1024,1024,1024,1684,0,0,0,100,131.5,0,0,97,3.523,3.502,3.532,0,0,0,11.842,53.96,1053.8896111523,3.937008,6,P-GPS,
15400,2025-01-07 01:03:13,0,0,3.937008,,,1053.8896111523,5.249344,0,0,0,8,0,10.588,1053.8896111523,3.937008,2.7290668,0,0,0,0,132.2, 1.5, 2.3,0,0,1024,1024,1024,1684,0,0,0,100,134.7,0,0,97,3.523,3.502,3.532,0,0,0,11.842,53.96,1053.8896111523,3.937008,6,P-GPS,
15500,2025-01-07 01:03:13,0,0,3.608924,,,1053.5615271523,5.249344,0,0,0,8,0,10.588,1053.8896111523,3.937008,2.7290668,0,0,0,0,135.3, 0, 3.2,0,0,1024,1024,1024,1684,0,0,0,100,137.9,0,0,97,3.523,3.502,3.532,0,0,0,11.842,53.96,1053.5615271523,3.608924,6,P-GPS,
15600,2025-01-07 01:03:13,0,0,3.608924,,,1053.5615271523,5.249344,0,0,0,8,0,10.588,1053.8896111523,3.937008,2.7290668,0,0,0,0,138.5, -0.5, 2.7,0,0,1024,1024,1024,1684,0,0,0,100,141.1,0,0,97,3.523,3.502,3.532,0,0,0,11.842,53.96,1053.5615271523,3.608924,6,P-GPS,
15700,2025-01-07 01:03:14,0,0,3.608924,,,1053.5615271523,5.249344,0,0,0,8,0,10.588,1053.8896111523,3.937008,2.7290668,0,0,0,0,141.8, 0.3, 1.9,0,0,1024,1024,1024,1684,0,0,0,100,144.3,0,0,97,3.523,3.502,3.532,0,0,0,11.842,53.96,1053.5615271523,3.608924,6,P-GPS,
15800,2025-01-07 01:03:14,0,0,3.608924,,,1053.5615271523,5.249344,0,0,0,8,0,10.588,1053.8896111523,3.937008,2.7290668,0,0,0,0,145.2, 0.9, 1.5,0,0,1024,1024,1024,1684,0,0,0,100,147.5,0,0,97,3.523,3.502,3.532,0,0,0,11.842,53.96,1053.5615271523,3.608924,6,P-GPS,
15900,2025-01-07 01:03:14,0,0,3.937008,,,1053.8896111523,5.249344,0,0,0,8,0,10.588,1053.8896111523,3.937008,2.7290668,0,0,0,0,148.3, 0.2, 2.5,0,0,1024,1024,1024,1684,0,0,0,100,150.7,0,0,97,3.523,3.502,3.532,0,0,0,11.842,53.96,1053.8896111523,3.937008,6,P-GPS,
16000,2025-01-07 01:03:14,0,0,3.937008,,,1053.8896111523,5.249344,0.223694,0,0,8,0,10.588,1053.8896111523,3.937008,2.7290668,0,0.223694,0,0,151.6, -0.8, 3.4,0,0,1024,1024,1024,1684,0,0,0,100,153.9,0,0,97,3.523,3.502,3.532,0,0,0,11.842,53.96,1053.8896111523,3.937008,6,P-GPS,
16100,2025-01-07 01:03:14,0,0,3.937008,,,1053.8896111523,5.249344,0,0,0,8,0,10.588,1053.8896111523,3.937008,2.7290668,0,0,0,0,154.8, -1.8, 3.5,0,0,1024,1024,1024,1684,0,0,0,100,157.1,0,0,97,3.523,3.502,3.532,0,0,0,11.842,53.96,1053.8896111523,3.937008,6,P-GPS,
16200,2025-01-07 01:03:14,0,0,3.937008,,,1053.8896111523,5.249344,0,0,0,8,0,10.589,1053.8896111523,3.937008,2.7290668,0,0,0,0,158.2, -1.1, 3.3,0,0,1024,1024,1024,1684,0,0,0,100,160.3,0,0,97,3.531,3.512,3.538,0,0,0,12.073,53.96,1053.8896111523,3.937008,6,P-GPS,
16300,2025-01-07 01:03:14,0,0,3.937008,,,1053.8896111523,5.249344,0.223694,0,0,8,0,10.589,1053.8896111523,3.937008,2.7290668,0,0.223694,0,0,161.2, -0.9, 3.8,0,0,1024,1024,1024,1684,0,0,0,100,163.5,0,0,97,3.531,3.512,3.538,0,0,0,12.073,53.96,1053.8896111523,3.937008,6,P-GPS,
16400,2025-01-07 01:03:14,0,0,3.937008,,,1053.8896111523,5.249344,0.223694,0,0,8,0,10.589,1053.8896111523,3.937008,2.7290668,0,0.223694,0,0,164.2, -2.4, 3.9,0,0,1024,1024,1024,1684,0,0,0,100,166.7,0,0,97,3.531,3.512,3.538,0,0,0,12.073,53.96,1053.8896111523,3.937008,6,P-GPS,
16500,2025-01-07 01:03:14,0,0,3.937008,,,1053.8896111523,5.249344,0.223694,0,0,9,0,10.589,1053.8896111523,3.937008,2.7290668,0,0,0,0,167.4, -4, 3.2,0,0,1024,1024,1024,1684,0,0,0,100,169.9,0,0,97,3.531,3.512,3.538,0,0,0,12.073,53.96,1053.8896111523,3.937008,6,P-GPS,
16600,2025-01-07 01:03:14,0,0,3.937008,,,1053.8896111523,5.249344,0,0,0,9,0,10.589,1053.8896111523,3.937008,2.7290668,0,0,0,0,170.1, -4, 3.4,0,0,1024,1024,1024,1684,0,0,0,100,173.1,0,0,97,3.531,3.512,3.538,0,0,0,12.073,53.96,1053.8896111523,3.937008,6,P-GPS,
16700,2025-01-07 01:03:15,0,0,3.937008,,,1053.8896111523,5.249344,0,0,0,9,2,10.589,1053.8896111523,3.937008,2.7290668,0,0,0,0,172.9, -2.5, 4.6,0,0,1024,1024,1024,1684,0,0,0,100,176.3,0,0,97,3.531,3.512,3.538,0,0,0,12.073,53.96,1053.8896111523,3.937008,6,P-GPS,
16800,2025-01-07 01:03:15,0,0,3.937008,,,1053.8896111523,5.249344,0,0,0,9,2,10.589,1053.8896111523,3.937008,2.7290668,0,0,0,0,176.4, -1.4, 4,0,0,1024,1024,1024,1684,0,0,0,100,179.5,0,0,97,3.531,3.512,3.538,0,0,0,12.073,53.96,1053.8896111523,3.937008,6,P-GPS,
16900,2025-01-07 01:03:15,0,0,3.937008,,,1053.8896111523,5.249344,0.223694,0,0,9,2,10.589,1053.8896111523,3.937008,2.7290668,0,0,-0.223694,0,180.1, -2.6, 0.3,0,0,1024,1024,1024,1684,0,0,0,100,182.8,0,0,97,3.531,3.512,3.538,0,0,0,12.073,53.96,1053.8896111523,3.937008,6,P-GPS,
17000,2025-01-07 01:03:15,0,0,3.937008,,,1053.8896111523,5.249344,0.223694,0,0,9,2,10.589,1053.8896111523,3.937008,2.7290668,0,0,0,0,183.1, -3.6, -2.2,0,0,1024,1024,1024,1684,0,0,0,100,186,0,0,97,3.531,3.512,3.538,0,0,0,12.073,53.96,1053.8896111523,3.937008,6,P-GPS,
17100,2025-01-07 01:03:15,0,0,3.937008,,,1053.8896111523,5.249344,0,0,0,9,2,10.589,1053.8896111523,3.937008,2.7290668,0,0,0,0,186, -2.7, -0.6,0,0,1024,1024,1024,1684,0,0,0,100,189.2,0,0,97,3.531,3.512,3.538,0,0,0,12.073,53.96,1053.8896111523,3.937008,6,P-GPS,
17200,2025-01-07 01:03:15,0,0,3.937008,,,1053.8896111523,5.249344,0,0,0,9,2,10.569,1053.8896111523,3.937008,2.7290668,0,0,0,0,189.1, -1.1, 3.6,0,0,1024,1024,1024,1684,0,0,0,100,192.4,0,0,97,3.536,3.52,3.548,0,0,0,11.958,54.32,1053.8896111523,3.937008,6,P-GPS,
17300,2025-01-07 01:03:15,0,0,3.937008,,,1053.8896111523,5.249344,0,0,0,9,2,10.569,1053.8896111523,3.937008,2.7290668,0,0,0,0,192.8, -0.5, 5.6,0,0,1024,1024,1024,1684,0,0,0,100,195.6,0,0,97,3.536,3.52,3.548,0,0,0,11.958,54.32,1053.8896111523,3.937008,6,P-GPS,
17400,2025-01-07 01:03:15,0,0,3.937008,,,1053.8896111523,5.249344,0.223694,0,0,9,2,10.569,1053.8896111523,3.937008,2.7290668,0,0,-0.223694,0,196.5, -1, 2,0,0,1024,1024,1024,1684,0,0,0,100,198.8,0,0,97,3.536,3.52,3.548,0,0,0,11.958,54.32,1053.8896111523,3.937008,6,P-GPS,
17500,2025-01-07 01:03:15,0,0,3.937008,,,1053.8896111523,5.249344,0.223694,0,0,9,2,10.569,1053.8896111523,3.937008,2.7290668,0,0,-0.223694,0,199.6, -0.9, -3.3,0,0,1024,1024,1021,1684,0,0,-0,100,202,0,0,97,3.536,3.52,3.548,0,0,0,11.958,54.32,1053.8896111523,3.937008,6,P-GPS,
17600,2025-01-07 01:03:15,0,0,3.937008,,,1053.8896111523,5.249344,0,0,0,9,2,10.569,1053.8896111523,3.937008,2.7290668,0,0,0,0,201.9, -0.1, -4.2,0,0,1024,1024,1021,1684,0,0,-0,100,205.2,0,0,97,3.536,3.52,3.548,0,0,0,11.958,54.32,1053.8896111523,3.937008,6,P-GPS,
17700,2025-01-07 01:03:15,0,0,3.937008,,,1053.8896111523,5.249344,0.223694,0,0,8,2,10.569,1053.8896111523,3.937008,2.7290668,0,0,0.223694,0,204.4, 0.1, 0.9,0,0,1024,1024,1016,1684,0,0,-1,100,208.4,0,0,97,3.536,3.52,3.548,0,0,0,11.958,54.32,1053.8896111523,3.937008,6,P-GPS,
17800,2025-01-07 01:03:16,0,0,3.937008,,,1053.8896111523,5.249344,0.223694,0,0,8,2,10.569,1053.8896111523,3.937008,2.7290668,0,0,0.223694,0,207.8, -1, 6.9,0,0,1024,1024,1016,1684,0,0,-1,100,211.6,0,0,97,3.536,3.52,3.548,0,0,0,11.958,54.32,1053.8896111523,3.937008,6,P-GPS,
17900,2025-01-07 01:03:16,0,0,3.937008,,,1053.8896111523,5.249344,0,0,0,8,2,10.569,1053.8896111523,3.937008,2.7290668,0,0,0,0,211.8, -2.5, 6.4,0,0,1024,1024,1014,1684,0,0,-2,100,214.8,0,0,97,3.536,3.52,3.548,0,0,0,11.958,54.32,1053.8896111523,3.937008,6,P-GPS,
18000,2025-01-07 01:03:16,0,0,3.937008,,,1053.8896111523,5.249344,0,0,0,8,2,10.569,1053.8896111523,3.937008,2.7290668,0,0,-0.223694,0,215.7, -2.3, -0.4,0,0,1024,1024,1012,1684,0,0,-2,100,218,0,0,97,3.536,3.52,3.548,0,0,0,11.958,54.32,1053.8896111523,3.937008,6,P-GPS,
18100,2025-01-07 01:03:16,0,0,3.937008,,,1053.8896111523,5.249344,0,0,0,8,2,10.569,1053.8896111523,3.937008,2.7290668,0,0,0,0,218.7, -0.6, -6.4,0,0,1024,1024,1012,1684,0,0,-2,100,221.2,0,0,97,3.536,3.52,3.548,0,0,0,11.958,54.32,1053.8896111523,3.937008,6,P-GPS,
18200,2025-01-07 01:03:16,0,0,3.937008,,,1053.8896111523,5.249344,0,0,0,8,2,10.614,1053.8896111523,3.937008,2.7290668,0,0,0,0,220.7, -0.1, -3.4,0,0,1024,1024,1012,1684,0,0,-2,100,224.4,0,0,96,3.533,3.517,3.544,0,0,0,11.44,54.5,1053.8896111523,3.937008,6,P-GPS,
18300,2025-01-07 01:03:16,0,0,3.937008,,,1053.8896111523,5.249344,0,0,0,7,2,10.614,1053.8896111523,3.937008,2.7290668,0,-0.223694,0.223694,0,223.4, -1.8, 4.9,0,0,1024,1024,1011,1684,0,0,-2,100,227.6,0,0,96,3.533,3.517,3.544,0,0,0,11.44,54.5,1053.8896111523,3.937008,6,P-GPS,
18400,2025-01-07 01:03:16,0,0,3.937008,,,1053.8896111523,5.249344,0,0,0,7,2,10.614,1053.8896111523,3.937008,2.7290668,0,0,0,0,227.2, -4.2, 8.1,0,0,1024,1024,1010,1684,0,0,-2,100,230.8,0,0,96,3.533,3.517,3.544,0,0,0,11.44,54.5,1053.8896111523,3.937008,6,P-GPS,
18500,2025-01-07 01:03:16,0,0,3.937008,,,1053.8896111523,5.249344,0.223694,0,0,7,0,10.614,1053.8896111523,3.937008,2.7290668,0,0,-0.223694,0,231.5, -2.9, 2.5,0,0,1024,1024,1009,1684,0,0,-2,100,234,0,0,96,3.533,3.517,3.544,0,0,0,11.44,54.5,1053.8896111523,3.937008,6,P-GPS,
18600,2025-01-07 01:03:16,0,0,3.937008,,,1053.8896111523,5.249344,0.223694,0,0,7,0,10.614,1053.8896111523,3.937008,2.7290668,0,0,-0.223694,0,234.6, 1.6, -5.3,0,0,1024,1024,1009,1684,0,0,-2,100,237.2,0,0,96,3.533,3.517,3.544,0,0,0,11.44,54.5,1053.8896111523,3.937008,6,P-GPS,
18700,2025-01-07 01:03:16,0,0,3.937008,,,1053.8896111523,5.249344,0,0,0,7,0,10.614,1053.8896111523,3.937008,2.7290668,0,0,0,0,236.3, 3.8, -6.4,0,0,1024,1024,1009,1684,0,0,-2,100,240.4,0,0,96,3.533,3.517,3.544,0,0,0,11.44,54.5,1053.8896111523,3.937008,6,P-GPS,
18800,2025-01-07 01:03:17,0,0,3.937008,,,1053.8896111523,5.249344,0.223694,0,0,7,0,10.614,1053.8896111523,3.937008,2.7290668,0,0,0.223694,0,238.3, 0, -0.7,0,0,1024,1024,1008,1684,0,0,-2,100,243.6,0,0,96,3.533,3.517,3.544,0,0,0,11.44,54.5,1053.8896111523,3.937008,6,P-GPS,
18900,2025-01-07 01:03:17,0,0,3.937008,,,1053.8896111523,5.249344,0,0,0,7,0,10.614,1053.8896111523,3.937008,2.7290668,0,0,0,0,241.9, -5.9, 3.8,0,0,1024,1024,1008,1684,0,0,-2,100,246.8,0,0,96,3.533,3.517,3.544,0,0,0,11.44,54.5,1053.8896111523,3.937008,6,P-GPS,
19000,2025-01-07 01:03:17,0,0,3.937008,,,1053.8896111523,5.249344,0,0,0,7,0,10.614,1053.8896111523,3.937008,2.7290668,0,0,0,0,246.2, -4.5, 1.1,0,0,1024,1024,1008,1684,0,0,-2,100,250,0,0,96,3.533,3.517,3.544,0,0,0,11.44,54.5,1053.8896111523,3.937008,6,P-GPS,
19100,2025-01-07 01:03:17,0,0,3.937008,,,1053.8896111523,5.249344,0,0,0,7,0,10.614,1053.8896111523,3.937008,2.7290668,0,0,0,0,249.7, 1.4, -3,0,0,1024,1024,1008,1684,0,0,-2,100,253.2,0,0,96,3.533,3.517,3.544,0,0,0,11.44,54.5,1053.8896111523,3.937008,6,P-GPS,
19200,2025-01-07 01:03:17,0,0,3.937008,,,1053.8896111523,5.249344,0,0,0,7,0,10.591,1053.8896111523,3.937008,2.7290668,0,0,0,0,252.1, 3.6, -2.6,0,0,1024,1024,1008,1684,0,0,-2,100,256.4,0,0,96,3.536,3.518,3.544,0,0,0,11.683,54.5,1053.8896111523,3.937008,6,P-GPS,
19300,2025-01-07 01:03:17,0,0,3.937008,,,1053.8896111523,5.249344,0,0,0,7,0,10.591,1053.8896111523,3.937008,2.7290668,0,0,0,0,255, -0.5, -0.7,0,0,1024,1024,1009,1684,0,0,-2,100,259.6,0,0,96,3.536,3.518,3.544,0,0,0,11.683,54.5,1053.8896111523,3.937008,6,P-GPS,
19400,2025-01-07 01:03:17,0,0,3.937008,,,1053.8896111523,5.249344,0,0,0,7,0,10.591,1053.8896111523,3.937008,2.7290668,0,0,0,0,258.8, -4, -1.3,0,0,1024,1024,1009,1684,0,0,-2,100,262.8,0,0,96,3.536,3.518,3.544,0,0,0,11.683,54.5,1053.8896111523,3.937008,6,P-GPS,
19500,2025-01-07 01:03:17,0,0,3.937008,,,1053.8896111523,5.249344,0,0,0,7,0,10.591,1053.8896111523,3.937008,2.7290668,0,0,0,0,262.7, -2.2, -1.9,0,0,1024,1024,1009,1684,0,0,-2,100,266,0,0,96,3.536,3.518,3.544,0,0,0,11.683,54.5,1053.8896111523,3.937008,6,P-GPS,
19600,2025-01-07 01:03:17,0,0,3.937008,,,1053.8896111523,5.249344,0.223694,0,0,7,0,10.591,1053.8896111523,3.937008,2.7290668,0,-0.223694,0,0,266.1, 1.5, 1.7,0,0,1024,1024,1009,1684,0,0,-2,100,269.2,0,0,96,3.536,3.518,3.544,0,0,0,11.683,54.5,1053.8896111523,3.937008,6,P-GPS,
19700,2025-01-07 01:03:17,0,0,3.937008,,,1053.8896111523,5.249344,0,0,0,8,0,10.591,1053.8896111523,3.937008,2.7290668,0,0,0,0,269.5, 1, 5.3,0,0,1024,1024,1009,1684,0,0,-2,100,272.4,0,0,96,3.536,3.518,3.544,0,0,0,11.683,54.5,1053.8896111523,3.937008,6,P-GPS,
19800,2025-01-07 01:03:18,0,0,3.937008,,,1053.8896111523,5.249344,0,0,0,8,0,10.591,1053.8896111523,3.937008,2.7290668,0,0,0,0,273.2, -2.1, 3.5,0,0,1024,1024,1012,1684,0,0,-2,100,275.6,0,0,96,3.536,3.518,3.544,0,0,0,11.683,54.5,1053.8896111523,3.937008,6,P-GPS,
19900,2025-01-07 01:03:18,0,0,3.937008,,,1053.8896111523,5.249344,0.223694,0,0,8,0,10.591,1053.8896111523,3.937008,2.7290668,0,0.223694,0,0,276.4, -2, -0.8,0,0,1024,1024,1024,1143,0,0,0,18,278.8,0,0,96,3.536,3.518,3.544,0,0,0,11.683,54.5,1053.8896111523,3.937008,6,P-GPS,
20000,2025-01-07 01:03:18,0,0,3.937008,,,1053.8896111523,5.249344,0.223694,0,0,8,0,10.591,1053.8896111523,3.937008,2.7290668,0,0.223694,0,0,279.1, 0.8, -2.5,0,0,1024,1024,1024,1024,0,0,0,0,282,0,0,96,3.536,3.518,3.544,0,0,0,11.683,54.5,1053.8896111523,3.937008,6,P-GPS,
20100,2025-01-07 01:03:18,0,0,3.937008,,,1053.8896111523,5.249344,0,0,0,8,0,10.591,1053.8896111523,3.937008,2.7290668,0,0,0,0,280.8, 1.8, -2.5,0,0,1024,1024,1024,1024,0,0,0,0,284.3,0,0,96,3.536,3.518,3.544,0,0,0,11.683,54.5,1053.8896111523,3.937008,6,P-GPS,
20200,2025-01-07 01:03:18,0,0,3.937008,,,1053.8896111523,5.249344,0,0,0,8,0,10.628,1053.8896111523,3.937008,2.7290668,0,0,0,0,282.3, -0.1, -1.7,0,0,1024,1024,1024,1024,0,0,0,0,285.4,0,0,96,3.535,3.517,3.543,0,0,0,11.383,54.86,1053.8896111523,3.937008,6,P-GPS,
20300,2025-01-07 01:03:18,0,0,3.937008,,,1053.8896111523,5.249344,0,0,0,8,0,10.628,1053.8896111523,3.937008,2.7290668,0,0,0,0,283.4, -1.6, -0.2,0,0,1024,1024,1024,1024,0,0,0,0,285.7,0,0,96,3.535,3.517,3.543,0,0,0,11.383,54.86,1053.8896111523,3.937008,6,P-GPS,
20400,2025-01-07 01:03:18,0,0,3.937008,,,1053.8896111523,5.249344,0,0,0,8,0,10.628,1053.8896111523,3.937008,2.7290668,0,0,0,0,283.9, -0.3, 0,0,0,1024,1024,1024,1024,0,0,0,0,285.7,0,0,96,3.535,3.517,3.543,0,0,0,11.383,54.86,1053.8896111523,3.937008,6,P-GPS,
20500,2025-01-07 01:03:18,0,0,3.937008,,,1053.8896111523,5.249344,0,0,0,9,0,10.628,1053.8896111523,3.937008,2.7290668,0,0,0,0,283.8, 1.3, -0.7,0,0,1024,1024,1024,1156,0,0,0,20,285.7,0,0,96,3.535,3.517,3.543,0,0,0,11.383,54.86,1053.8896111523,3.937008,6,P-GPS,
20600,2025-01-07 01:03:18,0,0,3.937008,,,1053.8896111523,5.249344,0,0,0,9,0,10.628,1053.8896111523,3.937008,2.7290668,0,0,0,0,283.8, 0.6, -0.9,0,0,1024,1024,1024,1452,0,0,0,65,285.8,0,0,96,3.535,3.517,3.543,0,0,0,11.383,54.86,1053.8896111523,3.937008,6,P-GPS,
20700,2025-01-07 01:03:19,0,0,3.937008,,,1053.8896111523,5.249344,0,0,0,9,2,10.628,1053.8896111523,3.937008,2.7290668,0,0,0,0,284.5, -0.9, 0.1,0,0,1024,1024,1024,1489,0,0,0,70,286.4,0,0,96,3.535,3.517,3.543,0,0,0,11.383,54.86,1053.8896111523,3.937008,6,P-GPS,
20800,2025-01-07 01:03:19,0,0,3.937008,,,1053.8896111523,5.249344,0,0,0,9,2,10.628,1053.8896111523,3.937008,2.7290668,0,0,0,0,285.7, -1.2, 0.9,0,0,1024,1024,1024,1024,0,0,0,0,287.9,0,0,96,3.535,3.517,3.543,0,0,0,11.383,54.86,1053.8896111523,3.937008,6,P-GPS,
20900,2025-01-07 01:03:19,0,0,3.937008,,,1053.8896111523,5.249344,0,0,0,9,2,10.628,1053.8896111523,3.937008,2.7290668,0,0,0,0,287.3, 0, 1,0,0,1024,1024,1024,1024,0,0,0,0,289.8,0,0,96,3.535,3.517,3.543,0,0,0,11.383,54.86,1053.8896111523,3.937008,6,P-GPS,
21000,2025-01-07 01:03:19,0,0,3.937008,,,1053.8896111523,5.249344,0,0,0,9,2,10.628,1053.8896111523,3.937008,2.7290668,0,0,0,0,288.6, 1.2, 1.4,0,0,1024,1024,1024,1024,0,0,0,0,291,0,0,96,3.535,3.517,3.543,0,0,0,11.383,54.86,1053.8896111523,3.937008,6,P-GPS,
21100,2025-01-07 01:03:19,0,0,3.937008,,,1053.8896111523,5.249344,0,0,0,9,2,10.628,1053.8896111523,3.937008,2.7290668,0,0,0,0,289.8, 0.6, 1.5,0,0,1024,1024,1024,1024,0,0,0,0,291.6,0,0,96,3.535,3.517,3.543,0,0,0,11.383,54.86,1053.8896111523,3.937008,6,P-GPS,
21200,2025-01-07 01:03:19,0,0,3.937008,,,1053.8896111523,5.249344,0,0,0,9,2,10.587,1053.8896111523,3.937008,2.7290668,0,0,0,0,290.3, -0.4, 0.5,0,0,1024,1024,1024,1024,0,0,0,0,291.6,0,0,96,3.544,3.527,3.553,0,0,0,11.798,55.04,1053.8896111523,3.937008,6,P-GPS,
21300,2025-01-07 01:03:19,0,0,3.937008,,,1053.8896111523,5.249344,0,0,0,9,2,10.587,1053.8896111523,3.937008,2.7290668,0,0,0,0,290.2, -0.5, -0.5,0,0,1024,1024,1024,1024,0,0,0,0,291.6,0,0,96,3.544,3.527,3.553,0,0,0,11.798,55.04,1053.8896111523,3.937008,6,P-GPS,
21400,2025-01-07 01:03:19,0,0,3.937008,,,1053.8896111523,5.249344,0,0,0,9,2,10.587,1053.8896111523,3.937008,2.7290668,0,0,0,0,289.9, -0.1, -1.1,0,0,1024,1024,1024,1024,0,0,0,0,291.6,0,0,96,3.544,3.527,3.553,0,0,0,11.798,55.04,1053.8896111523,3.937008,6,P-GPS,
21500,2025-01-07 01:03:19,0,0,3.937008,,,1053.8896111523,5.249344,0,0,0,9,2,10.587,1053.8896111523,3.937008,2.7290668,0,0,0,0,289.8, -0.7, -1.7,0,0,1024,1024,1024,1024,0,0,0,0,291.6,0,0,96,3.544,3.527,3.553,0,0,0,11.798,55.04,1053.8896111523,3.937008,6,P-GPS,
21600,2025-01-07 01:03:19,0,0,3.937008,,,1053.8896111523,5.249344,0,0,0,9,2,10.587,1053.8896111523,3.937008,2.7290668,0,0,0,0,289.6, -1.3, -1.3,0,0,1024,1024,1024,1024,0,0,0,0,291.6,0,0,96,3.544,3.527,3.553,0,0,0,11.798,55.04,1053.8896111523,3.937008,6,P-GPS,
21700,2025-01-07 01:03:20,0,0,3.937008,,,1053.8896111523,5.249344,0,0,0,9,2,10.587,1053.8896111523,3.937008,2.7290668,0,0,0,0,289.6, -1.2, 0,0,0,1024,1024,1024,1024,0,0,0,0,291.6,0,0,96,3.544,3.527,3.553,0,0,0,11.798,55.04,1053.8896111523,3.937008,6,P-GPS,
21800,2025-01-07 01:03:20,0,0,3.937008,,,1053.8896111523,5.249344,0,0,0,9,2,10.587,1053.8896111523,3.937008,2.7290668,0,0,0,0,289.7, -0.9, 0,0,0,1024,1024,1024,1024,0,0,0,0,291.6,0,0,96,3.544,3.527,3.553,0,0,0,11.798,55.04,1053.8896111523,3.937008,6,P-GPS,
21900,2025-01-07 01:03:20,0,0,3.937008,,,1053.8896111523,5.249344,0,0,0,9,2,10.587,1053.8896111523,3.937008,2.7290668,0,0,0,0,289.8, -0.7, -0.3,0,0,1024,1024,1024,1115,0,0,0,14,291.6,0,0,96,3.544,3.527,3.553,0,0,0,11.798,55.04,1053.8896111523,3.937008,6,P-GPS,
22000,2025-01-07 01:03:20,0,0,3.937008,,,1053.8896111523,5.249344,0,0,0,9,2,10.587,1053.8896111523,3.937008,2.7290668,0,0,0,0,290, -0.7, 0,0,0,1024,1024,1024,1329,0,0,0,46,291.6,0,0,96,3.544,3.527,3.553,0,0,0,11.798,55.04,1053.8896111523,3.937008,6,P-GPS,
22100,2025-01-07 01:03:20,0,0,3.937008,,,1053.8896111523,5.249344,0,0,0,9,2,10.587,1053.8896111523,3.937008,2.7290668,0,0,0,0,290.4, -0.3, 0.6,0,0,1024,1024,1024,1024,0,0,0,0,292,0,0,96,3.544,3.527,3.553,0,0,0,11.798,55.04,1053.8896111523,3.937008,6,P-GPS,
