time(millisecond),datetime(utc),latitude,longitude,height_above_takeoff(feet),height_above_ground_at_drone_location(feet),ground_elevation_at_drone_location(feet),altitude_above_seaLevel(feet),height_sonar(feet),speed(mph),distance(feet),mileage(feet),satellites,gpslevel,voltage(v),max_altitude(feet),max_ascent(feet),max_speed(mph),max_distance(feet), xSpeed(mph), ySpeed(mph), zSpeed(mph), compass_heading(degrees), pitch(degrees), roll(degrees),isPhoto,isVideo,rc_elevator,rc_aileron,rc_throttle,rc_rudder,rc_elevator(percent),rc_aileron(percent),rc_throttle(percent),rc_rudder(percent),gimbal_heading(degrees),gimbal_pitch(degrees),gimbal_roll(degrees),battery_percent,voltageCell1,voltageCell2,voltageCell3,voltageCell4,voltageCell5,voltageCell6,current(A),battery_temperature(f),altitude(feet),ascent(feet),flycStateRaw,flycState,message
100,2025-01-25 03:58:55,0,0,0,Available with any HD 360 subscription,Available with any HD 360 subscription,1055.7414314215,0.328084,0,0,0,20,2,0,1055.7414314215,0,0,0,0,0,0,288.2, 3, -0.2,0,0,1024,1024,1024,1024,0,0,0,0,288.3,0,0,96,4.223,4.22,4.221,4.219,0,0,0,71.24,1055.7414314215,0,41,Motors_Started,"機体が高度区域 (500 m)にいます。慎重に飛行してください。 (Code: 190001). 機体は飛行していません。ビジョンシステムと障害物回避が無効です (Code: 180059). GNSS信号が微弱です。ホバリングが不安定です。慎重に飛行してください (Code: 30008). GNSS信号が微弱です。ホバリングが不安定です。慎重に飛行してください (Code: 30002). 機体は飛行していません。ビジョンシステムと障害物回避が無効です (Code: 180059)"
300,2025-01-25 03:58:55,0,0,0,,,1055.7414314215,0.328084,0,0,0,20,2,0,1055.7414314215,0,0,0,0,0,0,288.2, 2.9, -0.2,0,0,1024,1024,1024,1024,0,0,0,0,288.3,0,0,96,4.223,4.22,4.221,4.219,0,0,0,71.24,1055.7414314215,0,41,Motors_Started,GNSSがありません。慎重に飛行してください
500,2025-01-25 03:58:56,0,0,0,,,1055.7414314215,0,0,0,0,20,2,0,1055.7414314215,0,0,0,0,0,0,288.2, 2.9, -0.2,0,0,1024,1024,1024,1024,0,0,0,0,288.3,0,0,96,4.223,4.22,4.221,4.219,0,0,0,71.24,1055.7414314215,0,41,Motors_Started,
700,2025-01-25 03:58:56,0,0,0,,,1055.7414314215,0,0,0,0,20,2,0,1055.7414314215,0,0,0,0,0,0,288.2, 2.9, -0.2,0,0,1024,1024,1024,1024,0,0,0,0,288.3,0,0,96,4.223,4.22,4.221,4.219,0,0,0,71.24,1055.7414314215,0,41,Motors_Started,
900,2025-01-25 03:58:56,0,0,0,,,1055.7414314215,0,0,0,0,20,2,16.932,1055.7414314215,0,0,0,0,0,0,288.2, 2.9, -0.2,0,0,1024,1024,1024,1024,0,0,0,0,288.3,0,0,96,4.223,4.22,4.221,4.219,0,0,2.093,71.24,1055.7414314215,0,41,Motors_Started,"Setting new Return-To-Home altitude to 100m (328 ft). Data Recorder File Index is 97. Setting new Maximum Flight Altitude to 30m (98 ft)"
1100,2025-01-25 03:58:56,0,0,0,,,1055.7414314215,0,0,0,0,20,2,16.932,1055.7414314215,0,0,0,0,0,0,288.2, 2.9, -0.2,0,0,1024,1024,1024,1024,0,0,0,0,288.3,0,0,96,4.223,4.22,4.221,4.219,0,0,2.093,71.24,1055.7414314215,0,41,Motors_Started,
1300,2025-01-25 03:58:56,0,0,0,,,1055.7414314215,0,0,0,0,21,2,16.932,1055.7414314215,0,0,0,0,0,0,288.2, 2.9, -0.2,0,0,1024,1024,1024,1024,0,0,0,0,288.3,0,0,96,4.223,4.22,4.221,4.219,0,0,2.093,71.24,1055.7414314215,0,41,Motors_Started,
1500,2025-01-25 03:58:57,0,0,0,,,1055.7414314215,0,0,0,0,20,2,16.932,1055.7414314215,0,0,0,0,0,0,288.2, 2.9, -0.2,0,0,1024,1024,1024,1024,0,0,0,0,288.3,0,0,96,4.223,4.22,4.221,4.219,0,0,2.093,71.24,1055.7414314215,0,41,Motors_Started,
1700,2025-01-25 03:58:57,0,0,0,,,1055.7414314215,0,0,0,0,20,2,16.932,1055.7414314215,0,0,0,0,0,0,288.2, 2.9, -0.2,0,0,1024,1024,1024,1024,0,0,0,0,288.3,0,0,96,4.223,4.22,4.221,4.219,0,0,2.093,71.24,1055.7414314215,0,11,AutoTakeoff,
1900,2025-01-25 03:58:57,0,0,0,,,1055.7414314215,0,0,0,0,20,2,16.92,1055.7414314215,0,0,0,0,0,0,288.2, 2.8, -0.3,0,0,1024,1024,1024,1024,0,0,0,0,288.3,0,0,96,4.244,4.244,4.246,4.247,0,0,4.124,71.06,1055.7414314215,0,11,AutoTakeoff,
2100,2025-01-25 03:58:57,0,0,0,,,1055.7414314215,0,0,0,0,20,2,16.92,1055.7414314215,0,0,0,0,0,0,288.3, 0.5, -0.3,0,0,1024,1024,1024,1024,0,0,0,0,288.3,0,0,96,4.244,4.244,4.246,4.247,0,0,4.124,71.06,1055.7414314215,0,11,AutoTakeoff,"機体は飛行していません。ビジョンシステムと障害物回避が無効です (Code: 180059)"
2300,2025-01-25 03:58:57,0,0,0,,,1055.7414314215,0,0,0,0,20,2,16.92,1055.7414314215,0,0,0,0,0,-0.671082,288.6, -3.1, -0.4,0,0,1024,1024,1024,1024,0,0,0,0,288.3,0,0,96,4.244,4.244,4.246,4.247,0,0,4.124,71.06,1055.7414314215,0,11,AutoTakeoff,
2500,2025-01-25 03:58:58,0,0,0,,,1055.7414314215,0.328084,0.223694,0,0,19,2,16.92,1055.7414314215,0,0.223694,0,0,-0.223694,-0.894776,288.4, 1.5, 0.9,0,0,1024,1024,1024,1024,0,0,0,0,288.3,0,0,96,4.244,4.244,4.246,4.247,0,0,4.124,71.06,1055.7414314215,0,11,AutoTakeoff,
2700,2025-01-25 03:58:58,0,0,0.328084,,,1056.0695154215,0.656168,0,0,0,19,2,16.92,1056.0695154215,0.328084,0.223694,0,0,0,-0.894776,288.6, 1.8, 0.8,0,0,1024,1024,1024,1024,0,0,0,0,288.3,0,0,96,4.244,4.244,4.246,4.247,0,0,4.124,71.06,1056.0695154215,0.328084,11,AutoTakeoff,
2900,2025-01-25 03:58:58,0,0,0.656168,,,1056.3975994215,0.984252,0,0,0,19,2,16.695,1056.3975994215,0.656168,0.223694,0,0,0,-0.894776,288.7, 0.7, 1.8,0,0,1024,1024,1024,1024,0,0,0,0,288.3,0,0,96,4.173,4.166,4.167,4.165,0,0,5.171,71.06,1056.3975994215,0.656168,11,AutoTakeoff,
3100,2025-01-25 03:58:58,0,0,0.984252,,,1056.7256834215,1.312336,0,0,0,19,2,16.695,1056.7256834215,0.984252,0.223694,0,0,0,-0.894776,288.7, -0.1, 2.7,0,0,1024,1024,1028,1024,0,0,1,0,288.3,0,0,96,4.173,4.166,4.167,4.165,0,0,5.171,71.06,1056.7256834215,0.984252,11,AutoTakeoff,
3300,2025-01-25 03:58:58,0,0,1.312336,,,1057.0537674215,1.64042,0,0,0,18,2,16.695,1057.0537674215,1.312336,0.223694,0,0,0,-0.894776,288.5, -0.5, 2.3,0,0,1024,1024,1060,1024,0,0,5,0,288.3,0,0,96,4.173,4.166,4.167,4.165,0,0,5.171,71.06,1057.0537674215,1.312336,11,AutoTakeoff,飛行中
3500,2025-01-25 03:58:58,37.0153454327289,140.148895486976,1.64042,,,1057.3818514215,1.968504,0,0,0,19,2,16.695,1057.3818514215,1.64042,0.223694,0,0,0,-1.11847,288.5, -1, 1.8,0,0,1024,1024,1124,1024,0,0,15,0,288.3,0,0,96,4.173,4.166,4.167,4.165,0,0,5.171,71.06,1057.3818514215,1.64042,11,AutoTakeoff,
3700,2025-01-25 03:58:59,37.0153460334058,140.148895193506,1.968504,,,1057.7099354215,2.296588,0,0.235242133512,0.235242133512,19,2,16.695,1057.7099354215,1.968504,0.223694,0.235242133512,0,0,-1.11847,288.7, -0.9, 1.9,0,0,1024,1024,1162,1024,0,0,21,0,288.3,0,0,96,4.173,4.166,4.167,4.165,0,0,5.171,71.06,1057.7099354215,1.968504,11,AutoTakeoff,"GNSS信号が微弱です。ホバリングが不安定です。慎重に飛行してください (Code: 30002)"
3900,2025-01-25 03:58:59,37.015346415577,140.148895061847,2.296588,,,1058.0380194215,2.624672,0,0.37937665256,0.3798556552,18,2,16.599,1058.0380194215,2.296588,0.223694,0.37937665256,0,0,-1.11847,288.5, -0.3, 2.6,0,0,1024,1024,1172,1024,0,0,22,0,288.3,0,0,96,4.151,4.149,4.149,4.151,0,0,8.515,71.06,1058.0380194215,2.296588,11,AutoTakeoff,GNSSがありません。慎重に飛行してください
4100,2025-01-25 03:58:59,37.0153467302523,140.148894956894,2.624672,,,1058.3661034215,2.952756,0,0.497949491,0.49866799496,17,2,16.599,1058.3661034215,2.624672,0.223694,0.497949491,0,0,-1.342164,288.7, -1.5, 3.4,0,0,1024,1024,1199,1024,0,0,27,0,288.3,0,0,96,4.151,4.149,4.149,4.151,0,0,8.515,71.06,1058.3661034215,2.624672,11,AutoTakeoff,
4300,2025-01-25 03:59:00,37.0153471255739,140.14889491065,3.28084,,,1059.0222714215,3.608924,0,0.64004595224,0.64352692348,18,2,16.599,1059.0222714215,3.28084,0.223694,0.64004595224,0,0,-1.342164,288.7, -1.2, 2.4,0,0,1024,1024,1208,1024,0,0,28,0,288.3,0,0,96,4.151,4.149,4.149,4.151,0,0,8.515,71.06,1059.0222714215,3.28084,11,AutoTakeoff,
4500,2025-01-25 03:59:00,37.0153475557281,140.148894875225,3.608924,,,1059.3503554215,3.937008,0,0.79481301756,0.80080711224,19,5,16.599,1059.3503554215,3.608924,0.223694,0.79481301756,0,0,-1.342164,288.5, -1.3, 1.4,0,0,1024,1024,1216,1024,0,0,29,0,288.3,0,0,96,4.151,4.149,4.149,4.151,0,0,8.515,71.06,1059.3503554215,3.608924,6,P-GPS,
4700,2025-01-25 03:59:00,37.015347976432,140.148894732872,4.265092,,,1060.0065234215,4.265092,0,0.95371722212,0.95980646116,18,5,16.599,1060.0065234215,4.265092,0.223694,0.95371722212,0,0,-1.11847,288.3, -1.7, 0.8,0,0,1024,1024,1217,1024,0,0,29,0,288.3,0,0,96,4.151,4.149,4.149,4.151,0,0,8.515,71.06,1060.0065234215,4.265092,6,P-GPS,
4900,2025-01-25 03:59:00,37.0153482177983,140.148894430391,4.593176,,,1060.3346074215,4.92126,0,1.0617290366,1.0843832368,17,5,16.575,1060.3346074215,4.593176,0.223694,1.0617290366,0,0,-0.894776,288.6, -1.9, 1.3,0,0,1024,1024,1217,1024,0,0,29,0,288.3,0,0,96,4.148,4.163,4.166,4.161,0,0,8.897,71.06,1060.3346074215,4.593176,6,P-GPS,"Setting new Maximum Flight Altitude to 150m (492 ft)"
5100,2025-01-25 03:59:00,37.0153485092758,140.148894155793,4.92126,,,1060.6626914215,4.92126,0,1.18757877816,1.21746066888,17,5,16.575,1060.6626914215,4.92126,0.223694,1.18757877816,0,0,-0.894776,288.7, -1.3, 1.4,0,0,1024,1024,1222,1024,0,0,30,0,288.3,0,0,96,4.148,4.163,4.166,4.161,0,0,8.897,71.06,1060.6626914215,4.92126,6,P-GPS,
5300,2025-01-25 03:59:00,37.0153487507993,140.14889373695,5.249344,,,1060.9907754215,5.249344,0,1.31356959584,1.36796920388,16,5,16.575,1060.9907754215,5.249344,0.223694,1.31356959584,0,0,-0.894776,288.8, -1.5, 2,0,0,1024,1024,1231,1024,0,0,31,0,288.3,0,0,96,4.148,4.163,4.166,4.161,0,0,8.897,71.06,1060.9907754215,5.249344,6,P-GPS,
5500,2025-01-25 03:59:01,37.0153490383257,140.148893381294,5.577428,,,1061.3188594215,5.577428,0,1.45149610944,1.51541671516,16,5,16.575,1061.3188594215,5.577428,0.223694,1.45149610944,0,0,-1.11847,288.8, -1.3, 1.9,0,0,1024,1024,1231,1024,0,0,31,0,288.3,0,0,96,4.148,4.163,4.166,4.161,0,0,8.897,71.06,1061.3188594215,5.577428,6,P-GPS,
5700,2025-01-25 03:59:01,37.0153493596832,140.148893092284,5.905512,,,1061.6469434215,5.905512,0,1.59356632396,1.6597605518,16,5,16.575,1061.6469434215,5.905512,0.223694,1.59356632396,0,0,-1.11847,288.8, -0.5, 1.7,0,0,1024,1024,1234,1024,0,0,32,0,288.3,0,0,96,4.148,4.163,4.166,4.161,0,0,8.897,71.06,1061.6469434215,5.905512,6,P-GPS,
5900,2025-01-25 03:59:01,37.0153496275827,140.148892887479,6.233596,,,1061.9750274215,6.233596,0,1.70759847984,1.77427499116,16,5,16.578,1061.9750274215,6.233596,0.223694,1.70759847984,0,0,-1.11847,288.9, -1.6, 1.5,0,0,1024,1024,1238,1024,0,0,32,0,288.3,0,0,96,4.141,4.141,4.139,4.142,0,0,8.272,71.06,1061.9750274215,6.233596,6,P-GPS,
6100,2025-01-25 03:59:01,37.0153499000889,140.148892660055,6.56168,,,1062.3031114215,6.56168,0,1.82615491408,1.89375334144,16,5,16.578,1062.3031114215,6.56168,0.223694,1.82615491408,0,0,-1.11847,288.9, -1.5, 1.3,0,0,1024,1024,1114,1024,0,0,14,0,288.3,0,0,96,4.141,4.141,4.139,4.142,0,0,8.272,71.06,1062.3031114215,6.56168,6,P-GPS,
6300,2025-01-25 03:59:01,37.0153501748648,140.14889249028,6.889764,,,1062.6311954215,6.889764,0,1.93793969456,2.00554140276,17,5,16.578,1062.6311954215,6.889764,0.223694,1.93793969456,0,0,-1.11847,288.9, -1.6, 0.5,0,0,1024,1174,1024,1024,0,23,0,0,288.3,0,0,96,4.141,4.141,4.139,4.142,0,0,8.272,71.06,1062.6311954215,6.889764,6,P-GPS,
6500,2025-01-25 03:59:01,37.0153503713394,140.148892259467,7.217848,,,1062.9592794215,7.217848,0,2.03241804404,2.10382552664,17,5,16.578,1062.9592794215,7.217848,0.223694,2.03241804404,0,0,-0.223694,288.8, -1.6, 0.8,0,0,1024,1318,1024,1024,0,45,0,0,288.3,0,0,96,4.141,4.141,4.139,4.142,0,0,8.272,71.06,1062.9592794215,7.217848,6,P-GPS,
6700,2025-01-25 03:59:02,37.0153504892805,140.14889197634,7.217848,,,1062.9592794215,7.217848,0,2.10939639296,2.19685702568,17,5,16.578,1062.9592794215,7.217848,0.223694,2.10939639296,0,0,0,288.8, -0.9, 2.8,0,0,1024,1351,1024,1024,0,50,0,0,288.3,0,0,96,4.141,4.141,4.139,4.142,0,0,8.272,71.06,1062.9592794215,7.217848,6,P-GPS,"ホームポイントを更新 (Code: 3000001)"
6900,2025-01-25 03:59:02,37.0153506998369,140.14889177991,7.217848,,,1062.9592794215,7.217848,0,2.20436686844,2.29264771116,20,5,16.59,1062.9592794215,7.217848,0.223694,2.20436686844,0,0,0,288.8, -1.2, 3.5,0,0,1024,1410,1024,1024,0,58,0,0,288.3,0,0,96,4.172,4.159,4.155,4.153,0,0,8.274,71.06,1062.9592794215,7.217848,6,P-GPS,飛行中
7100,2025-01-25 03:59:02,37.0153510235809,140.148891731467,7.217848,,,1062.9592794215,7.217848,0.223694,2.31470151764,2.41160768872,20,5,16.59,1062.9592794215,7.217848,0.223694,2.31470151764,0.223694,0,0,289, -1, 4.2,0,0,1024,1475,1024,1024,0,68,0,0,288.3,0,0,96,4.172,4.159,4.155,4.153,0,0,8.274,71.06,1062.9592794215,7.217848,6,P-GPS,
7300,2025-01-25 03:59:02,37.0153514942171,140.148891757839,7.217848,,,1062.9592794215,7.217848,0.447388,2.4639600526,2.58349089632,20,5,16.59,1062.9592794215,7.217848,0.447388,2.4639600526,0.447388,0,0,289, -0.6, 4,0,0,1024,1522,1024,1024,0,75,0,0,288.3,0,0,96,4.172,4.159,4.155,4.153,0,0,8.274,71.06,1062.9592794215,7.217848,6,P-GPS,
7500,2025-01-25 03:59:02,37.0153521149943,140.148891920015,7.217848,,,1062.9592794215,7.217848,0.7158208,2.65023630528,2.81485573312,20,5,16.59,1062.9592794215,7.217848,0.7158208,2.65023630528,0.671082,0.223694,0,288.9, -0.7, 3.5,0,0,1024,1573,1024,1024,0,83,0,0,288.3,0,0,96,4.172,4.159,4.155,4.153,0,0,8.274,71.06,1062.9592794215,7.217848,6,P-GPS,
7700,2025-01-25 03:59:03,37.015352867857,140.148892217942,7.217848,,,1062.9592794215,7.217848,0.9171454,2.8750164962,3.10292332764,20,5,16.59,1062.9592794215,7.217848,0.9171454,2.8750164962,0.894776,0.223694,0,288.7, -1.2, 3.6,0,0,1024,1599,1024,1024,0,87,0,0,288.3,0,0,96,4.172,4.159,4.155,4.153,0,0,8.274,71.06,1062.9592794215,7.217848,6,P-GPS,
7900,2025-01-25 03:59:03,37.0153536945363,140.148892636821,7.217848,,,1062.9592794215,7.217848,0.9171454,3.12658146488,3.4282809496,20,5,16.553,1062.9592794215,7.217848,0.9171454,3.12658146488,0.894776,0.223694,0,288.7, -1.6, 3.9,0,0,1024,1624,1024,1024,0,91,0,0,288.3,0,0,96,4.142,4.14,4.144,4.142,0,0,8.379,71.24,1062.9592794215,7.217848,6,P-GPS,
8100,2025-01-25 03:59:03,37.0153546362338,140.148893141376,7.217848,,,1062.9592794215,7.217848,1.1408394,3.4267061464,3.802001434,20,5,16.553,1062.9592794215,7.217848,1.1408394,3.4267061464,1.11847,0.223694,0,288.7, -1.7, 3.5,0,0,1024,1672,1024,1024,0,98,0,0,288.3,0,0,96,4.142,4.14,4.144,4.142,0,0,8.379,71.24,1062.9592794215,7.217848,6,P-GPS,
8300,2025-01-25 03:59:03,37.0153556465684,140.148893703709,7.545932,,,1063.2873634215,7.217848,1.4092722,3.7625657372,4.205380712,20,5,16.553,1063.2873634215,7.545932,1.4092722,3.7625657372,1.342164,0.447388,0,288.7, -1.3, 2.8,0,0,1024,1672,1024,1024,0,98,0,0,288.3,0,0,96,4.142,4.14,4.144,4.142,0,0,8.379,71.24,1063.2873634215,7.545932,6,P-GPS,
8500,2025-01-25 03:59:03,37.015356587723,140.148894369743,7.545932,,,1063.2873634215,7.217848,1.4092722,4.0828741464,4.5997704884,20,5,16.553,1063.2873634215,7.545932,1.4092722,4.0828741464,1.342164,0.447388,0,288.7, -1.5, 3.1,0,0,1024,1673,1024,1024,0,98,0,0,288.3,0,0,96,4.142,4.14,4.144,4.142,0,0,8.379,71.24,1063.2873634215,7.545932,6,P-GPS,
8700,2025-01-25 03:59:04,37.015357493846,140.148895089362,7.545932,,,1063.2873634215,7.217848,1.4092722,4.4020014532,4.9912403172,20,5,16.553,1063.2873634215,7.545932,1.4092722,4.4020014532,1.342164,0.447388,0,288.9, -1.3, 3.5,0,0,1024,1682,1024,1024,0,100,0,0,288.3,0,0,96,4.142,4.14,4.144,4.142,0,0,8.379,71.24,1063.2873634215,7.545932,6,P-GPS,
8900,2025-01-25 03:59:04,37.0153583902738,140.148895860307,7.545932,,,1063.2873634215,7.217848,1.6329662,4.7288059256,5.3879922984,20,5,16.558,1063.2873634215,7.545932,1.6329662,4.7288059256,1.565858,0.447388,0,288.7, -1.2, 3.3,0,0,1024,1683,1024,1024,0,100,0,0,288.3,0,0,96,4.143,4.138,4.14,4.139,0,0,8.276,71.42,1063.2873634215,7.545932,6,P-GPS,
9300,2025-01-25 03:59:04,37.015360320003,140.148897505156,7.545932,,,1063.2873634215,7.217848,1.8342908,5.4633531932,6.2396327456,20,5,16.558,1063.2873634215,7.545932,1.8342908,5.4633531932,1.789552,0.447388,0,288.8, -1.1, 3.1,0,0,1024,1683,1024,1024,0,100,0,0,288.3,0,0,96,4.143,4.138,4.14,4.139,0,0,8.276,71.42,1063.2873634215,7.545932,6,P-GPS,
9500,2025-01-25 03:59:05,37.0153614305658,140.148898258523,7.545932,,,1063.2873634215,7.217848,1.8342908,5.89238864,6.700459532,19,5,16.558,1063.2873634215,7.545932,1.8342908,5.89238864,1.789552,0.447388,0,288.8, -1.3, 2.9,0,0,1024,1682,1024,1024,0,100,0,0,288.3,0,0,96,4.143,4.138,4.14,4.139,0,0,8.276,71.42,1063.2873634215,7.545932,6,P-GPS,
9700,2025-01-25 03:59:05,37.0153626835897,140.14889905406,7.545932,,,1063.2873634215,7.217848,1.901399,6.3791668708,7.2130251652,19,5,16.558,1063.2873634215,7.545932,1.901399,6.3791668708,1.789552,0.671082,0,288.8, -1.5, 2.8,0,0,1024,1682,1024,1024,0,100,0,0,288.3,0,0,96,4.143,4.138,4.14,4.139,0,0,8.276,71.42,1063.2873634215,7.545932,6,P-GPS,
9900,2025-01-25 03:59:05,37.015363949412,140.14889981006,7.545932,,,1063.2873634215,7.217848,1.8342908,6.8721786976,7.7246721632,19,5,16.561,1063.2873634215,7.545932,1.901399,6.8721786976,1.789552,0.447388,0,288.8, -1.3, 2.8,0,0,1024,1674,1024,1024,0,98,0,0,288.3,0,0,96,4.141,4.139,4.139,4.136,0,0,8.326,71.42,1063.2873634215,7.545932,6,P-GPS,
10100,2025-01-25 03:59:05,37.0153651724659,140.148900578383,7.545932,,,1063.2873634215,7.217848,1.8342908,7.35318265,8.2238847776,19,5,16.561,1063.2873634215,7.545932,1.901399,7.35318265,1.789552,0.447388,0,288.8, -1.6, 1.2,0,0,1024,1644,1024,1024,0,94,0,0,288.3,0,0,96,4.141,4.139,4.139,4.136,0,0,8.326,71.42,1063.2873634215,7.545932,6,P-GPS,
10300,2025-01-25 03:59:05,37.0153664062152,140.148901394676,7.545932,,,1063.2873634215,7.217848,1.8342908,7.8433073376,8.7329727204,19,5,16.561,1063.2873634215,7.545932,1.901399,7.8433073376,1.789552,0.447388,0,288.8, -1.6, 0.6,0,0,1024,1634,1024,1024,0,92,0,0,288.3,0,0,96,4.141,4.139,4.139,4.136,0,0,8.326,71.42,1063.2873634215,7.545932,6,P-GPS,
10500,2025-01-25 03:59:06,37.0153674870993,140.148902177905,7.545932,,,1063.2873634215,7.217848,1.6329662,8.2792653568,9.1885829712,19,5,16.561,1063.2873634215,7.545932,1.901399,8.2792653568,1.565858,0.447388,0,288.7, -1.3, -0.2,0,0,1024,1604,1024,1024,0,88,0,0,288.3,0,0,96,4.141,4.139,4.139,4.136,0,0,8.326,71.42,1063.2873634215,7.545932,6,P-GPS,
10700,2025-01-25 03:59:06,37.0153683506809,140.14890292375,7.545932,,,1063.2873634215,7.217848,1.4092722,8.6377299352,9.5713257656,19,5,16.561,1063.2873634215,7.545932,1.901399,8.6377299352,1.342164,0.447388,0,289.8, -1.7, 0,0,0,1024,1441,1024,1024,0,63,0,0,288.3,0,0,96,4.141,4.139,4.139,4.136,0,0,8.326,71.42,1063.2873634215,7.545932,6,P-GPS,
10900,2025-01-25 03:59:06,37.015369273455,140.148903537583,7.545932,,,1063.2873634215,7.217848,1.2079476,9.0089241728,9.9525593736,20,5,16.554,1063.2873634215,7.545932,1.901399,9.0089241728,1.11847,0.447388,0,294.3, -1.4, -0.1,0,0,1024,1024,1048,1024,0,0,4,0,288.3,0,0,95,4.134,4.135,4.134,4.136,0,0,8.341,71.6,1063.2873634215,7.545932,6,P-GPS,
11100,2025-01-25 03:59:06,37.0153701435087,140.148904146547,7.545932,,,1063.2873634215,7.217848,1.2079476,9.3620081736,10.3162076792,21,5,16.554,1063.2873634215,7.545932,1.901399,9.3620081736,1.11847,0.447388,0,295.4, -1.1, -0.3,0,0,1024,1024,1306,1024,0,0,43,0,288.3,0,0,95,4.134,4.135,4.134,4.136,0,0,8.341,71.6,1063.2873634215,7.545932,6,P-GPS,
11300,2025-01-25 03:59:06,37.0153709623817,140.148904555628,7.545932,,,1063.2873634215,7.217848,0.9171454,9.6818900736,10.6378612328,22,5,16.554,1063.2873634215,7.545932,1.901399,9.6818900736,0.894776,0.223694,0,295.6, -0.8, -4.1,0,0,1024,1024,1456,1024,0,0,65,0,288.3,0,0,95,4.134,4.135,4.134,4.136,0,0,8.341,71.6,1063.2873634215,7.545932,6,P-GPS,
11500,2025-01-25 03:59:07,37.0153714919743,140.14890486486,7.874016,,,1063.6154474215,7.217848,0.223694,9.8924215764,10.851050216,22,5,16.554,1063.6154474215,7.874016,1.901399,9.8924215764,0.223694,0,-1.565858,295.3, -0.9, -2.8,0,0,1024,1024,1484,1024,0,0,70,0,288.3,0,0,95,4.134,4.135,4.134,4.136,0,0,8.341,71.6,1063.6154474215,7.874016,6,P-GPS,
11700,2025-01-25 03:59:07,37.0153716838963,140.148904983352,8.858268,,,1064.5996994215,8.2021,0,9.9692588492,10.9291013996,22,5,16.554,1064.5996994215,8.858268,1.901399,9.9692588492,0,0,-3.579104,295.6, -0.8, 0,0,0,1024,1024,1471,1024,0,0,68,0,288.3,0,0,95,4.134,4.135,4.134,4.136,0,0,8.341,71.6,1064.5996994215,8.858268,6,P-GPS,
11900,2025-01-25 03:59:07,37.015371825762,140.148905019468,10.170604,,,1065.9120354215,9.514436,0,10.0219163312,10.9819229236,22,5,16.511,1065.9120354215,10.170604,1.901399,10.0219163312,0,0,-5.59235,295.4, -1.2, 0.7,0,0,1024,1024,1024,1024,0,0,0,0,288.3,0,0,95,4.07,4.064,4.064,4.065,0,0,8.908,71.6,1065.9120354215,10.170604,6,P-GPS,
12100,2025-01-25 03:59:07,37.0153719149994,140.14890502796,11.811024,,,1067.5524554215,11.154856,0.223694,10.0539045212,11.0145672816,23,5,16.511,1067.5524554215,11.811024,1.901399,10.0539045212,0.223694,0,-4.921268,295.4, -0.7, 0.2,0,0,1024,1024,916,1024,0,0,-16,0,288.3,0,0,95,4.07,4.064,4.064,4.065,0,0,8.908,71.6,1067.5524554215,11.811024,6,P-GPS,
12300,2025-01-25 03:59:07,37.0153719892539,140.148905044948,13.12336,,,1068.8647914215,12.139108,0.223694,10.0812995352,11.0421263376,22,5,16.511,1068.8647914215,13.12336,1.901399,10.0812995352,0.223694,0,-2.684328,295.4, -0.7, -1.1,0,0,1024,1024,1019,1024,0,0,-1,0,288.3,0,0,95,4.07,4.064,4.064,4.065,0,0,8.908,71.6,1068.8647914215,13.12336,6,P-GPS,
12500,2025-01-25 03:59:07,37.0153721726908,140.148905006547,13.451444,,,1069.1928754215,12.795276,0,10.142552818,11.1099741088,21,5,16.511,1069.1928754215,13.451444,1.901399,10.142552818,0,0,-0.223694,295.1, -0.4, -2.4,0,0,1024,1024,1024,1024,0,0,0,0,288.3,0,0,95,4.07,4.064,4.064,4.065,0,0,8.908,71.6,1069.1928754215,13.451444,6,P-GPS,
12700,2025-01-25 03:59:08,37.0153723448306,140.148904743619,13.451444,,,1069.1928754215,12.795276,0,10.1824478324,11.2090226684,21,5,16.511,1069.1928754215,13.451444,1.901399,10.1824478324,0,0,0,295.1, -0.3, -1.9,0,0,1024,1024,598,1024,0,0,-65,0,288.3,0,0,95,4.07,4.064,4.064,4.065,0,0,8.908,71.6,1069.1928754215,13.451444,6,P-GPS,
12900,2025-01-25 03:59:08,37.015372533356,140.148904486543,13.451444,,,1069.1928754215,12.467192,0,10.229331036,11.3107287084,20,5,16.666,1069.1928754215,13.451444,1.901399,10.229331036,0,0,0,294.7, 0, -0.4,0,0,1024,1024,586,1024,0,0,-66,0,288.3,0,0,95,4.186,4.185,4.19,4.19,0,0,10.375,71.78,1069.1928754215,13.451444,6,P-GPS,
13100,2025-01-25 03:59:08,37.0153725766576,140.148904255523,13.12336,,,1068.8647914215,12.139108,0,10.2275921908,11.3798560072,19,5,16.666,1069.1928754215,13.451444,1.901399,10.229331036,0,0,1.789552,294.4, 0.1, -0.2,0,0,1024,1024,1024,1024,0,0,0,0,288.3,0,0,95,4.186,4.185,4.19,4.19,0,0,10.375,71.78,1068.8647914215,13.12336,6,P-GPS,
13300,2025-01-25 03:59:08,37.0153727398583,140.148904037853,12.467192,,,1068.2086234215,11.48294,0,10.269685368,11.4668310756,18,5,16.666,1069.1928754215,13.451444,1.901399,10.269685368,0,0,2.908022,294.4, -0.2, -0.9,0,0,1024,1024,1024,1024,0,0,0,0,288.3,0,0,95,4.186,4.185,4.19,4.19,0,0,10.375,71.78,1068.2086234215,12.467192,6,P-GPS,
13500,2025-01-25 03:59:08,37.0153728918132,140.148903887379,11.811024,,,1067.5524554215,10.826772,0,10.312992456,11.5375003692,18,5,16.666,1069.1928754215,13.451444,1.901399,10.312992456,0,0,1.342164,295.4, 0, -0.3,0,0,1024,1024,1267,1024,0,0,37,0,288.3,0,0,95,4.186,4.185,4.19,4.19,0,0,10.375,71.78,1067.5524554215,11.811024,6,P-GPS,
13700,2025-01-25 03:59:09,37.0153728699665,140.148903928959,11.48294,,,1067.2243714215,10.498688,0,10.3081368128,11.552001682,20,5,16.666,1069.1928754215,13.451444,1.901399,10.312992456,0,0,0.223694,295.7, -0.7, -0.4,0,0,1024,1024,1024,1024,0,0,0,0,288.3,0,0,95,4.186,4.185,4.19,4.19,0,0,10.375,71.78,1067.2243714215,11.48294,6,P-GPS,
13900,2025-01-25 03:59:09,37.0153726736091,140.148903814458,11.811024,,,1067.5524554215,10.826772,0,10.2306105636,11.6310371176,17,5,16.64,1069.1928754215,13.451444,1.901399,10.312992456,0,0,-0.447388,295.9, -0.6, -0.7,0,0,1024,1024,1024,1024,0,0,0,0,288.3,0,0,95,4.077,4.08,4.09,4.096,0,0,7.369,71.6,1067.5524554215,11.811024,6,P-GPS,
14100,2025-01-25 03:59:09,37.0153725950392,140.148903780845,11.811024,,,1067.5524554215,10.826772,0,10.200459644,11.6613192708,17,5,16.64,1069.1928754215,13.451444,1.901399,10.312992456,0,0,-0.223694,297.3, -0.9, 0,0,0,1024,1024,1024,1024,0,0,0,0,288.3,0,0,95,4.077,4.08,4.09,4.096,0,0,7.369,71.6,1067.5524554215,11.811024,6,P-GPS,
14300,2025-01-25 03:59:09,37.0153725035253,140.148903695,11.811024,,,1067.5524554215,10.826772,0,10.1621066244,11.7030515556,17,5,16.64,1069.1928754215,13.451444,1.901399,10.312992456,0,0,0,298, -0.2, 0.2,0,0,1024,1024,1024,1024,0,0,0,0,288.3,0,0,95,4.077,4.08,4.09,4.096,0,0,7.369,71.6,1067.5524554215,11.811024,6,P-GPS,
14500,2025-01-25 03:59:10,37.0153724563538,140.148903643871,11.811024,,,1067.5524554215,10.826772,0,10.1418638416,11.7258205852,17,5,16.64,1069.1928754215,13.451444,1.901399,10.312992456,0,0,0,298, -0.4, 0,0,0,1024,1024,1024,1024,0,0,0,0,288.3,0,0,95,4.077,4.08,4.09,4.096,0,0,7.369,71.6,1067.5524554215,11.811024,6,P-GPS,
14700,2025-01-25 03:59:10,37.0153723406309,140.148903660863,11.811024,,,1067.5524554215,10.826772,0,10.1020016356,11.7683074632,19,5,16.64,1069.1928754215,13.451444,1.901399,10.312992456,0,0,0,298, -0.4, -0.1,0,0,1024,1024,1024,1024,0,0,0,0,288.3,0,0,95,4.077,4.08,4.09,4.096,0,0,7.369,71.6,1067.5524554215,11.811024,6,P-GPS,
14900,2025-01-25 03:59:10,37.0153722161852,140.148903702693,11.811024,,,1067.5524554215,10.826772,0,10.0607614768,11.8153219004,20,5,16.64,1069.1928754215,13.451444,1.901399,10.312992456,0,0,0,298, -0.7, -0.1,0,0,1024,1024,1024,1024,0,0,0,0,288.3,0,0,95,4.125,4.123,4.126,4.122,0,0,7.369,71.6,1067.5524554215,11.811024,6,P-GPS,
15100,2025-01-25 03:59:10,37.0153722146539,140.148903706755,11.811024,,,1067.5524554215,10.826772,0,10.0604990096,11.8166342364,21,5,16.64,1069.1928754215,13.451444,1.901399,10.312992456,0,0,0,297.9, -0.5, -0.3,0,0,1024,1024,1024,1024,0,0,0,0,288.3,0,0,95,4.125,4.123,4.126,4.122,0,0,7.369,71.6,1067.5524554215,11.811024,6,P-GPS,
15300,2025-01-25 03:59:10,37.0153723158865,140.148903821199,11.811024,,,1067.5524554215,10.826772,0,10.104331032,11.8664045792,22,5,16.64,1069.1928754215,13.451444,1.901399,10.312992456,0,0,0,298.2, -0.6, -1.1,0,0,1024,1024,1024,1024,0,0,0,0,288.3,0,0,95,4.125,4.123,4.126,4.122,0,0,7.369,71.6,1067.5524554215,11.811024,6,P-GPS,
15500,2025-01-25 03:59:11,37.0153726180788,140.148904302899,11.811024,,,1067.5524554215,10.826772,0,10.2456696192,12.0448494668,23,5,16.64,1069.1928754215,13.451444,1.901399,10.312992456,0,0,0,298.3, -0.5, -1,0,0,1024,1024,1024,1024,0,0,0,0,288.3,0,0,95,4.125,4.123,4.126,4.122,0,0,7.369,71.6,1067.5524554215,11.811024,6,P-GPS,
15700,2025-01-25 03:59:11,37.0153729452661,140.148904745484,11.811024,,,1067.5524554215,10.826772,0,10.3939963956,12.2205712572,23,5,16.64,1069.1928754215,13.451444,1.901399,10.3939963956,0,0,0,298.3, -0.8, -1,0,0,1024,1024,1024,1024,0,0,0,0,288.3,0,0,95,4.125,4.123,4.126,4.122,0,0,7.369,71.6,1067.5524554215,11.811024,6,P-GPS,
15900,2025-01-25 03:59:11,37.015373230304,140.148905109413,11.811024,,,1067.5524554215,10.826772,0,10.5222116228,12.3690620756,23,5,16.518,1069.1928754215,13.451444,1.901399,10.5222116228,0,0,0,298.4, -0.8, 0.1,0,0,1024,1024,1024,1024,0,0,0,0,288.3,0,0,95,4.124,4.122,4.122,4.122,0,0,9.703,71.96,1067.5524554215,11.811024,6,P-GPS,
16100,2025-01-25 03:59:11,37.0153735557608,140.14890530509,11.811024,,,1067.5524554215,10.826772,0,10.6518704196,12.5007878016,22,5,16.518,1069.1928754215,13.451444,1.901399,10.6518704196,0,0,0,298.4, -0.8, 1,0,0,1024,1024,1024,1024,0,0,0,0,288.3,0,0,95,4.124,4.122,4.122,4.122,0,0,9.703,71.96,1067.5524554215,11.811024,6,P-GPS,
16300,2025-01-25 03:59:11,37.0153738307866,140.148905408202,11.811024,,,1067.5524554215,10.826772,0,10.7565948324,12.6055450228,20,5,16.518,1069.1928754215,13.451444,1.901399,10.7565948324,0,0,0,298.3, -1, 0.8,0,0,1024,1024,1024,1024,0,0,0,0,288.3,0,0,95,4.124,4.122,4.122,4.122,0,0,9.703,71.96,1067.5524554215,11.811024,6,P-GPS,
16500,2025-01-25 03:59:11,37.0153740938407,140.148905510534,12.139108,,,1067.8805394215,10.826772,0,10.8570541532,12.706037152,20,5,16.518,1069.1928754215,13.451444,1.901399,10.8570541532,0,0,0,298.3, -1.2, 0.6,0,0,1024,1024,1024,1024,0,0,0,0,288.3,0,0,95,4.124,4.122,4.122,4.122,0,0,9.703,71.96,1067.8805394215,12.139108,6,P-GPS,
16700,2025-01-25 03:59:12,37.0153743002358,140.148905568288,12.139108,,,1067.8805394215,10.826772,0,10.9341210848,12.7832025088,20,5,16.518,1069.1928754215,13.451444,1.901399,10.9341210848,0,0,0,298.6, -0.9, 0.1,0,0,1024,1024,1024,1024,0,0,0,0,288.3,0,0,95,4.124,4.122,4.122,4.122,0,0,9.703,71.96,1067.8805394215,12.139108,6,P-GPS,
17100,2025-01-25 03:59:12,37.0153745649261,140.148905697664,12.139108,,,1067.8805394215,10.826772,0,11.0372706944,12.8868770528,20,5,16.518,1069.1928754215,13.451444,1.901399,11.0372706944,0,0,0,298.4, -0.7, -0.6,0,0,1024,1024,1024,1024,0,0,0,0,288.3,0,0,95,4.124,4.122,4.122,4.122,0,0,9.703,71.96,1067.8805394215,12.139108,6,P-GPS,
17300,2025-01-25 03:59:12,37.015374622855,140.148905702191,12.139108,,,1067.8805394215,10.826772,0,11.0579727948,12.9080384708,20,5,16.518,1069.1928754215,13.451444,1.901399,11.0579727948,0,0,0,298.5, -0.6, -0.7,0,0,1024,1024,1187,1024,0,0,25,0,288.3,0,0,95,4.124,4.122,4.122,4.122,0,0,9.703,71.96,1067.8805394215,12.139108,6,P-GPS,
17500,2025-01-25 03:59:12,37.0153746230263,140.148905682173,12.139108,,,1067.8805394215,10.826772,0,11.0564636084,12.913878366,20,5,16.518,1069.1928754215,13.451444,1.901399,11.0579727948,0,0,0,298.7, -0.7, -0.9,0,0,1024,1024,1176,1024,0,0,23,0,288.3,0,0,95,4.124,4.122,4.122,4.122,0,0,9.703,71.96,1067.8805394215,12.139108,6,P-GPS,
17700,2025-01-25 03:59:13,37.0153745847426,140.148905652574,12.139108,,,1067.8805394215,10.826772,0,11.040682768,12.930282566,20,5,16.518,1069.1928754215,13.451444,1.901399,11.0579727948,0,0,-0.447388,298.6, -1.2, -0.5,0,0,1024,1024,1175,1024,0,0,23,0,288.3,0,0,95,4.124,4.122,4.122,4.122,0,0,9.703,71.96,1067.8805394215,12.139108,6,P-GPS,
17900,2025-01-25 03:59:13,37.0153746070605,140.148905605049,12.467192,,,1068.2086234215,10.826772,0,11.0448166264,12.946358682,20,5,16.487,1069.1928754215,13.451444,1.901399,11.0579727948,0,0,-0.671082,298.7, -0.6, -1.7,0,0,1024,1024,1216,1024,0,0,29,0,288.3,0,0,95,4.106,4.11,4.113,4.113,0,0,8.545,72.14,1068.2086234215,12.467192,6,P-GPS,
18100,2025-01-25 03:59:13,37.0153746142435,140.14890554168,12.467192,,,1068.2086234215,11.154856,0,11.0424544216,12.9649938532,20,5,16.487,1069.1928754215,13.451444,1.901399,11.0579727948,0,0,-0.447388,298.5, -0.3, -2.4,0,0,1024,1024,1079,1024,0,0,8,0,288.3,0,0,95,4.106,4.11,4.113,4.113,0,0,8.545,72.14,1068.2086234215,12.467192,6,P-GPS,
18300,2025-01-25 03:59:13,37.0153745349604,140.148905464121,12.795276,,,1068.5367074215,11.154856,0,11.0085633444,13.0017064528,20,5,16.487,1069.1928754215,13.451444,1.901399,11.0579727948,0,0,-0.671082,298.4, -0.5, -2.1,0,0,1024,1024,1024,1024,0,0,0,0,288.3,0,0,95,4.106,4.11,4.113,4.113,0,0,8.545,72.14,1068.5367074215,12.795276,6,P-GPS,
18500,2025-01-25 03:59:13,37.0153744383216,140.148905405148,12.795276,,,1068.5367074215,11.48294,0,10.9700134744,13.0409124908,21,5,16.487,1069.1928754215,13.451444,1.901399,11.0579727948,0,0,-0.223694,298.4, -0.5, -1.5,0,0,1024,1024,1024,1024,0,0,0,0,288.3,0,0,95,4.106,4.11,4.113,4.113,0,0,8.545,72.14,1068.5367074215,12.795276,6,P-GPS,
18700,2025-01-25 03:59:14,37.015374254677,140.148905321103,12.795276,,,1068.5367074215,11.48294,0,10.89895048,13.1122707608,21,5,16.487,1069.1928754215,13.451444,1.901399,11.0579727948,0,0,0,298.6, -0.7, -0.8,0,0,1024,1024,1088,1024,0,0,10,0,288.3,0,0,95,4.106,4.11,4.113,4.113,0,0,8.545,72.14,1068.5367074215,12.795276,6,P-GPS,
18900,2025-01-25 03:59:14,37.0153740707603,140.148905208012,12.795276,,,1068.5367074215,11.48294,0,10.8255580892,13.187008296,22,5,16.487,1069.1928754215,13.451444,1.901399,11.0579727948,0,0,0,298.6, -0.5, -0.9,0,0,1024,1024,1084,1024,0,0,9,0,288.3,0,0,95,4.126,4.125,4.124,4.125,0,0,8.545,72.14,1068.5367074215,12.795276,6,P-GPS,
19100,2025-01-25 03:59:14,37.0153738331681,140.148905139903,12.795276,,,1068.5367074215,11.48294,0,10.7366801336,13.2759518684,20,5,16.487,1069.1928754215,13.451444,1.901399,11.0579727948,0,0,0,298.7, 0, -0.6,0,0,1024,1024,1183,1024,0,0,24,0,288.3,0,0,95,4.126,4.125,4.124,4.125,0,0,8.545,72.14,1068.5367074215,12.795276,6,P-GPS,
19300,2025-01-25 03:59:14,37.0153736269079,140.148905176536,12.795276,,,1068.5367074215,11.48294,0,10.6668966668,13.3519361228,21,5,16.487,1069.1928754215,13.451444,1.901399,11.0579727948,0,0,0,298.4, 0, -1.5,0,0,1024,1024,1193,1024,0,0,26,0,288.3,0,0,95,4.126,4.125,4.124,4.125,0,0,8.545,72.14,1068.5367074215,12.795276,6,P-GPS,
19500,2025-01-25 03:59:15,37.0153734076715,140.148905183757,13.12336,,,1068.8647914215,11.48294,0,10.5903546696,13.4319558104,21,5,16.487,1069.1928754215,13.451444,1.901399,11.0579727948,0,0,-0.447388,298.3, 0.1, -1.9,0,0,1024,1024,1024,1024,0,0,0,0,288.3,0,0,95,4.126,4.125,4.124,4.125,0,0,8.545,72.14,1068.8647914215,13.12336,6,P-GPS,
19700,2025-01-25 03:59:15,37.0153732392003,140.148905167857,13.12336,,,1068.8647914215,11.48294,0,10.5298887884,13.493602794,20,5,16.487,1069.1928754215,13.451444,1.901399,11.0579727948,0,0,-0.447388,298.3, 0.6, -1.2,0,0,1024,1024,1024,1210,0,0,0,28,288.3,0,0,95,4.126,4.125,4.124,4.125,0,0,8.545,72.14,1068.8647914215,13.12336,6,P-GPS,
19900,2025-01-25 03:59:15,37.0153730638524,140.14890517975,13.12336,,,1068.8647914215,11.48294,0,10.4691932484,13.5576775992,20,5,16.454,1069.1928754215,13.451444,1.901399,11.0579727948,0,0,0,298.2, 0.6, -0.8,0,0,1024,1024,1024,1395,0,0,0,56,288.3,0,0,95,4.118,4.121,4.133,4.138,0,0,8.787,72.14,1068.8647914215,13.12336,6,P-GPS,
20100,2025-01-25 03:59:15,37.0153729245394,140.148905201332,13.12336,,,1068.8647914215,11.48294,0,10.4219491524,13.6088915116,20,5,16.454,1069.1928754215,13.451444,1.901399,11.0579727948,0,0,0,298.5, 0.7, -1.4,0,0,1024,1024,1024,1457,0,0,0,66,288.9,0,0,95,4.118,4.121,4.133,4.138,0,0,8.787,72.14,1068.8647914215,13.12336,6,P-GPS,
20300,2025-01-25 03:59:15,37.0153728350708,140.148905202158,13.12336,,,1068.8647914215,11.48294,0,10.3906171304,13.6415358696,21,5,16.454,1069.1928754215,13.451444,1.901399,11.0579727948,0,0,0,301.3, 0.5, -1.3,0,0,1024,1024,1024,1303,0,0,0,42,296.5,0,0,95,4.118,4.121,4.133,4.138,0,0,8.787,72.14,1068.8647914215,13.12336,6,P-GPS,
20500,2025-01-25 03:59:16,37.015372696713,140.148905206723,13.12336,,,1068.8647914215,11.48294,0,10.3424215908,13.6920279972,20,5,16.454,1069.1928754215,13.451444,1.901399,11.0579727948,0,0,0,306, 0.3, -0.1,0,0,1024,1024,1024,1024,0,0,0,0,298.1,0,0,95,4.118,4.121,4.133,4.138,0,0,8.787,72.14,1068.8647914215,13.12336,6,P-GPS,
20700,2025-01-25 03:59:16,37.0153725350822,140.148905194534,13.12336,,,1068.8647914215,11.48294,0,10.2847444236,13.7511159256,20,5,16.454,1069.1928754215,13.451444,1.901399,11.0579727948,0,0,0,308.9, 0, -0.2,0,0,1024,1024,1024,1024,0,0,0,0,298.1,0,0,95,4.118,4.121,4.133,4.138,0,0,8.787,72.14,1068.8647914215,13.12336,6,P-GPS,
20900,2025-01-25 03:59:16,37.0153724925966,140.148905163202,13.12336,,,1068.8647914215,11.48294,0,10.2673231632,13.7690949288,19,5,16.49,1069.1928754215,13.451444,1.901399,11.0579727948,0,0,0,308.6, 0.1, -0.8,0,0,1024,1024,1139,1024,0,0,17,0,298.1,0,0,95,4.122,4.122,4.12,4.122,0,0,8.289,72.32,1068.8647914215,13.12336,6,P-GPS,
21100,2025-01-25 03:59:16,37.0153724914872,140.148905118898,13.12336,,,1068.8647914215,11.48294,0,10.2633861552,13.7820214384,19,5,16.49,1069.1928754215,13.451444,1.901399,11.0579727948,0,0,0,308.6, 0.2, -0.9,0,0,1024,1024,1209,1024,0,0,28,0,298.1,0,0,95,4.122,4.122,4.12,4.122,0,0,8.289,72.32,1068.8647914215,13.12336,6,P-GPS,
21300,2025-01-25 03:59:16,37.0153724935132,140.148905026973,13.12336,,,1068.8647914215,11.48294,0,10.2568244752,13.8087930928,19,5,16.49,1069.1928754215,13.451444,1.901399,11.0579727948,0,0,0,308.2, 0, -0.3,0,0,1024,1024,1223,1024,0,0,30,0,298.1,0,0,95,4.122,4.122,4.12,4.122,0,0,8.289,72.32,1068.8647914215,13.12336,6,P-GPS,
21500,2025-01-25 03:59:17,37.0153725318633,140.148904969144,13.451444,,,1069.1928754215,11.48294,0,10.26574836,13.830709104,19,5,16.49,1069.1928754215,13.451444,1.901399,11.0579727948,0,0,-0.671082,308.1, 0.6, -1,0,0,1024,1024,1024,1024,0,0,0,0,298.1,0,0,95,4.122,4.122,4.12,4.122,0,0,8.289,72.32,1069.1928754215,13.451444,6,P-GPS,
21700,2025-01-25 03:59:17,37.0153725778398,140.148904966201,13.779528,,,1069.5209594215,11.811024,0,10.281660434,13.8475070048,18,5,16.49,1069.5209594215,13.779528,1.901399,11.0579727948,0,0,-0.671082,307.9, 0.7, -1.7,0,0,1024,1024,1024,1024,0,0,0,0,298.1,0,0,95,4.122,4.122,4.12,4.122,0,0,8.289,72.32,1069.5209594215,13.779528,6,P-GPS,
21900,2025-01-25 03:59:17,37.0153726384158,140.148904910822,13.779528,,,1069.5209594215,11.811024,0,10.2986551852,13.8748692104,18,5,16.479,1069.5209594215,13.779528,1.901399,11.0579727948,0,0,0,307.8, 0.9, -0.8,0,0,1024,1165,1024,1024,0,21,0,0,298.1,0,0,95,4.115,4.14,4.15,4.143,0,0,8.266,72.32,1069.5209594215,13.779528,6,P-GPS,
22100,2025-01-25 03:59:17,37.0153727625531,140.148904829602,13.779528,,,1069.5209594215,11.811024,0,10.3360567612,13.9259518892,19,5,16.479,1069.5209594215,13.779528,1.901399,11.0579727948,0,0,0,307.7, 0, -0.1,0,0,1024,1259,1024,1024,0,36,0,0,298.1,0,0,95,4.115,4.14,4.15,4.143,0,0,8.266,72.32,1069.5209594215,13.779528,6,P-GPS,
22300,2025-01-25 03:59:17,37.0153728890869,140.148904800178,13.779528,,,1069.5209594215,11.811024,0,10.3783467888,13.9729007096,18,5,16.479,1069.5209594215,13.779528,1.901399,11.0579727948,0,0,0,307.8, -0.2, 1.6,0,0,1024,1276,1024,1024,0,38,0,0,298.1,0,0,95,4.115,4.14,4.15,4.143,0,0,8.266,72.32,1069.5209594215,13.779528,6,P-GPS,
22500,2025-01-25 03:59:17,37.015373194012,140.148904732176,13.779528,,,1069.5209594215,11.811024,0.223694,10.4806761884,14.0859256476,18,5,16.479,1069.5209594215,13.779528,1.901399,11.0579727948,0,0.223694,0,308, -0.2, 3.1,0,0,1024,1277,1024,1024,0,38,0,0,298.1,0,0,95,4.115,4.14,4.15,4.143,0,0,8.266,72.32,1069.5209594215,13.779528,6,P-GPS,
22700,2025-01-25 03:59:18,37.0153738363741,140.148904849662,13.779528,,,1069.5209594215,11.811024,0.3131716,10.7159780332,14.3227694872,17,5,16.479,1069.5209594215,13.779528,1.901399,11.0579727948,0.223694,0.223694,0,308.3, -0.4, 3.3,0,0,1024,1248,1024,1024,0,34,0,0,298.1,0,0,95,4.115,4.14,4.15,4.143,0,0,8.266,72.32,1069.5209594215,13.779528,6,P-GPS,
22900,2025-01-25 03:59:18,37.0153748170579,140.148905333825,13.779528,,,1069.5209594215,11.811024,0.6263432,11.0979990428,14.707349552,18,5,16.467,1069.5209594215,13.779528,1.901399,11.0979990428,0.447388,0.447388,0,308.4, -0.5, 3.6,0,0,1024,1160,1024,1024,0,21,0,0,298.1,0,0,95,4.118,4.115,4.118,4.118,0,0,8.605,72.5,1069.5209594215,13.779528,6,P-GPS,
23100,2025-01-25 03:59:18,37.0153759567832,140.148906026863,13.779528,,,1069.5209594215,11.811024,0.9395148,11.5522313408,15.169619908,17,5,16.467,1069.5209594215,13.779528,1.901399,11.5522313408,0.671082,0.671082,0,308.5, -0.6, 2.9,0,0,1024,1024,1024,1024,0,0,0,0,298.1,0,0,95,4.118,4.115,4.118,4.118,0,0,8.605,72.5,1069.5209594215,13.779528,6,P-GPS,
23300,2025-01-25 03:59:18,37.0153771553027,140.148906849323,13.779528,,,1069.5209594215,11.811024,1.11847,12.0379925112,15.6682419712,18,5,16.467,1069.5209594215,13.779528,1.901399,12.0379925112,0.894776,0.671082,0,308.6, -0.7, -1,0,0,1024,1024,1024,1024,0,0,0,0,298.1,0,0,95,4.118,4.115,4.118,4.118,0,0,8.605,72.5,1069.5209594215,13.779528,6,P-GPS,
23500,2025-01-25 03:59:18,37.0153781804573,140.148907566018,13.779528,,,1069.5209594215,11.811024,0.8052984,12.4554137844,16.0965884416,18,5,16.467,1069.5209594215,13.779528,1.901399,12.4554137844,0.671082,0.447388,0,308.4, -0.6, -7.2,0,0,1024,1024,1024,1024,0,0,0,0,298.1,0,0,95,4.118,4.115,4.118,4.118,0,0,8.605,72.5,1069.5209594215,13.779528,6,P-GPS,
23700,2025-01-25 03:59:19,37.015378792781,140.148907932471,13.779528,,,1069.5209594215,11.811024,0.3131716,12.6999347896,16.3441934364,18,5,16.467,1069.5209594215,13.779528,1.901399,12.6999347896,0.223694,0.223694,0,307.8, -0.4, -5.2,0,0,1024,1024,1024,1024,0,0,0,0,298.1,0,0,95,4.118,4.115,4.118,4.118,0,0,8.605,72.5,1069.5209594215,13.779528,6,P-GPS,
23900,2025-01-25 03:59:19,37.0153791598197,140.148908021478,13.779528,,,1069.5209594215,11.811024,0,12.8356959488,16.4805779552,17,5,16.483,1069.5209594215,13.779528,1.901399,12.8356959488,0,0,0,307.9, -0.6, -1.8,0,0,1173,1024,1024,1024,23,0,0,0,298.1,0,0,95,4.118,4.117,4.118,4.119,0,0,8.053,72.5,1069.5209594215,13.779528,6,P-GPS,
24100,2025-01-25 03:59:19,37.0153794255551,140.148907967404,13.779528,,,1069.5209594215,11.811024,0,12.924213012,16.5788063048,18,5,16.483,1069.5209594215,13.779528,1.901399,12.924213012,0,0,0,308.2, -0.1, -0.4,0,0,1215,1024,1024,1024,29,0,0,0,298.1,0,0,95,4.118,4.117,4.118,4.119,0,0,8.053,72.5,1069.5209594215,13.779528,6,P-GPS,
24300,2025-01-25 03:59:19,37.0153796283737,140.14890791464,13.779528,,,1069.5209594215,11.811024,0,12.9909452976,16.6543968584,20,5,16.483,1069.5209594215,13.779528,1.901399,12.9909452976,0,0,0,307.5, -1, -0.4,0,0,1212,1024,1024,1024,28,0,0,0,298.1,0,0,95,4.118,4.117,4.118,4.119,0,0,8.053,72.5,1069.5209594215,13.779528,6,P-GPS,
24500,2025-01-25 03:59:20,37.0153797539609,140.148907780921,13.779528,,,1069.5209594215,11.811024,0,13.0242130152,16.7145346556,20,5,16.483,1069.5209594215,13.779528,1.901399,13.0242130152,0,0,0,306.5, -2.4, -0.8,0,0,1195,1024,1024,1024,26,0,0,0,298.1,0,0,95,4.118,4.117,4.118,4.119,0,0,8.053,72.5,1069.5209594215,13.779528,6,P-GPS,
24700,2025-01-25 03:59:20,37.0153798484646,140.148907424871,13.779528,,,1069.5209594215,11.811024,0.3131716,13.0292655088,16.8238522444,20,5,16.483,1069.5209594215,13.779528,1.901399,13.0292655088,0.223694,-0.223694,0,306.2, -2.7, -0.9,0,0,1179,1024,1024,1024,23,0,0,0,298.1,0,0,95,4.118,4.117,4.118,4.119,0,0,8.053,72.5,1069.5209594215,13.779528,6,P-GPS,
25100,2025-01-25 03:59:20,37.0153802663027,140.148906084328,13.779528,,,1069.5209594215,11.811024,0.6263432,13.0786093424,17.2430779796,18,5,16.483,1069.5209594215,13.779528,1.901399,13.0786093424,0.447388,-0.447388,0,306.1, -2, -0.8,0,0,1084,1024,1024,1024,9,0,0,0,298.1,0,0,95,4.118,4.117,4.118,4.119,0,0,8.053,72.5,1069.5209594215,13.779528,6,P-GPS,
25300,2025-01-25 03:59:20,37.0153805541675,140.148905257866,13.779528,,,1069.5209594215,11.811024,0.6263432,13.1263783728,17.50574203,18,5,16.483,1069.5209594215,13.779528,1.901399,13.1263783728,0.447388,-0.447388,0,306.1, -1.6, -0.6,0,0,1024,1024,1024,1024,0,0,0,0,298.1,0,0,95,4.118,4.117,4.118,4.119,0,0,8.053,72.5,1069.5209594215,13.779528,6,P-GPS,
25500,2025-01-25 03:59:21,37.0153808187528,140.148904443417,13.779528,,,1069.5209594215,11.811024,0.6263432,13.171588348,17.7619100172,19,5,16.483,1069.5209594215,13.779528,1.901399,13.171588348,0.447388,-0.447388,0,305.9, 2.4, -1,0,0,1024,1024,1024,1024,0,0,0,0,298.1,0,0,95,4.118,4.117,4.118,4.119,0,0,8.053,72.5,1069.5209594215,13.779528,6,P-GPS,
25700,2025-01-25 03:59:21,37.0153810032798,140.14890382568,13.779528,,,1069.5209594215,11.811024,0.3131716,13.2032812624,17.9540360076,17,5,16.483,1069.5209594215,13.779528,1.901399,13.2032812624,0.223694,-0.223694,0,305.7, 3.4, -1.5,0,0,1024,1024,1024,1024,0,0,0,0,298.1,0,0,95,4.118,4.117,4.118,4.119,0,0,8.053,72.5,1069.5209594215,13.779528,6,P-GPS,
25900,2025-01-25 03:59:21,37.0153810200145,140.148903461315,13.779528,,,1069.5209594215,11.811024,0,13.1901907108,18.060368032,17,5,16.462,1069.5209594215,13.779528,1.901399,13.2032812624,0,0,0,305.7, 1.9, -1.3,0,0,1024,1024,1024,1024,0,0,0,0,298.1,0,0,95,4.117,4.115,4.117,4.116,0,0,8.344,72.86,1069.5209594215,13.779528,6,P-GPS,
26100,2025-01-25 03:59:21,37.0153809447962,140.148903304253,13.779528,,,1069.5209594215,11.811024,0,13.155184148,18.1137144904,17,5,16.462,1069.5209594215,13.779528,1.901399,13.2032812624,0,0,0,305.9, 0.6, -0.8,0,0,1024,1024,1024,1024,0,0,0,0,298.1,0,0,95,4.117,4.115,4.117,4.116,0,0,8.344,72.86,1069.5209594215,13.779528,6,P-GPS,
26300,2025-01-25 03:59:22,37.0153808705417,140.148903233987,13.779528,,,1069.5209594215,12.139108,0,13.1249676116,18.1476711844,16,5,16.462,1069.5209594215,13.779528,1.901399,13.2032812624,0,0,0,306.2, -0.1, -0.5,0,0,1024,1024,1024,1024,0,0,0,0,298.1,0,0,95,4.117,4.115,4.117,4.116,0,0,8.344,72.86,1069.5209594215,13.779528,6,P-GPS,
26700,2025-01-25 03:59:22,37.0153808430496,140.14890333092,13.779528,,,1069.5209594215,12.139108,0,13.1199807348,18.177658062,18,5,16.462,1069.5209594215,13.779528,1.901399,13.2032812624,0,0,0,303.2, -0.5, -0.2,0,0,1024,1024,1024,1024,0,0,0,0,298.1,0,0,95,4.117,4.115,4.117,4.116,0,0,8.344,72.86,1069.5209594215,13.779528,6,P-GPS,
26900,2025-01-25 03:59:22,37.0153808966867,140.148903476572,13.779528,,,1069.5209594215,12.139108,0,13.1466867724,18.2243772236,19,5,16.461,1069.5209594215,13.779528,1.901399,13.2032812624,0,0,0,303.1, -0.2, -1.1,0,0,1024,1024,1024,1024,0,0,0,0,298.1,0,0,95,4.115,4.112,4.112,4.113,0,0,8.364,72.68,1069.5209594215,13.779528,6,P-GPS,
27100,2025-01-25 03:59:22,37.0153809323427,140.148903590402,13.779528,,,1069.5209594215,12.139108,0,13.1653875604,18.260007146,20,5,16.461,1069.5209594215,13.779528,1.901399,13.2032812624,0,0,0,303.1, -0.3, -1.5,0,0,1024,1024,1024,1024,0,0,0,0,298.1,0,0,95,4.115,4.112,4.112,4.113,0,0,8.364,72.68,1069.5209594215,13.779528,6,P-GPS,
27300,2025-01-25 03:59:22,37.0153810023182,140.148903709278,13.779528,,,1069.5209594215,11.811024,0,13.1967523908,18.3030189584,20,5,16.461,1069.5209594215,13.779528,1.901399,13.2032812624,0,0,0,303, -0.5, -1.8,0,0,1024,1024,1024,1024,0,0,0,0,298.1,0,0,95,4.115,4.112,4.112,4.113,0,0,8.364,72.68,1069.5209594215,13.779528,6,P-GPS,
27500,2025-01-25 03:59:22,37.0153809724982,140.148903817232,13.779528,,,1069.5209594215,11.811024,0,13.1917983224,18.336286676,21,5,16.461,1069.5209594215,13.779528,1.901399,13.2032812624,0,0,0,303, -0.5, -2.3,0,0,1024,1024,1024,1024,0,0,0,0,298.1,0,0,95,4.115,4.112,4.112,4.113,0,0,8.364,72.68,1069.5209594215,13.779528,6,P-GPS,
27700,2025-01-25 03:59:23,37.0153809043623,140.148903908753,13.779528,,,1069.5209594215,11.811024,0,13.1723101328,18.3727696168,20,5,16.461,1069.5209594215,13.779528,1.901399,13.2032812624,0,0,0,302.9, -0.4, -1.5,0,0,1024,1024,1024,1024,0,0,0,0,298.1,0,0,95,4.115,4.112,4.112,4.113,0,0,8.364,72.68,1069.5209594215,13.779528,6,P-GPS,
27900,2025-01-25 03:59:23,37.0153807811309,140.148903995538,13.779528,,,1069.5209594215,12.139108,0,13.132874436,18.4243444216,20,5,16.454,1069.5209594215,13.779528,1.901399,13.2032812624,0,0,0,303, -0.4, -0.8,0,0,1024,1024,1024,1024,0,0,0,0,298.1,0,0,95,4.114,4.111,4.112,4.113,0,0,8.313,72.86,1069.5209594215,13.779528,6,P-GPS,
28100,2025-01-25 03:59:23,37.0153806214896,140.148904027169,13.779528,,,1069.5209594215,11.811024,0,13.07742824,18.4833011164,19,5,16.454,1069.5209594215,13.779528,1.901399,13.2032812624,0,0,0,303, 0.2, -0.8,0,0,1024,1024,1024,1024,0,0,0,0,298.1,0,0,95,4.114,4.111,4.112,4.113,0,0,8.313,72.86,1069.5209594215,13.779528,6,P-GPS,
28300,2025-01-25 03:59:23,37.0153804575372,140.148904115785,13.779528,,,1069.5209594215,11.811024,0,13.0236880808,18.5484585988,18,5,16.454,1069.5209594215,13.779528,1.901399,13.2032812624,0,0,0,303, 0.4, -1.3,0,0,1024,1024,1024,1024,0,0,0,0,298.1,0,0,95,4.114,4.111,4.112,4.113,0,0,8.313,72.86,1069.5209594215,13.779528,6,P-GPS,
28500,2025-01-25 03:59:23,37.0153802328033,140.148904177658,13.779528,,,1069.5209594215,11.811024,0,12.9467523828,18.6324152944,18,5,16.454,1069.5209594215,13.779528,1.901399,13.2032812624,0,0,0,303, -0.2, -1.8,0,0,1024,1024,1024,1024,0,0,0,0,298.1,0,0,95,4.114,4.111,4.112,4.113,0,0,8.313,72.86,1069.5209594215,13.779528,6,P-GPS,
28700,2025-01-25 03:59:24,37.0153799943437,140.148904163291,13.779528,,,1069.5209594215,11.811024,0,12.8606303328,18.7195215964,18,5,16.454,1069.5209594215,13.779528,1.901399,13.2032812624,0,0,0,303.1, -0.3, -1.5,0,0,1024,1024,1024,1024,0,0,0,0,298.1,0,0,95,4.114,4.111,4.112,4.113,0,0,8.313,72.86,1069.5209594215,13.779528,6,P-GPS,
28900,2025-01-25 03:59:24,37.0153797014503,140.148904106179,13.779528,,,1069.5209594215,11.811024,0,12.7525594632,18.8276580828,18,5,16.442,1069.5209594215,13.779528,1.901399,13.2032812624,0,0,0,303.2, 0, -1.1,0,0,1024,1024,1024,1024,0,0,0,0,298.1,0,0,95,4.115,4.113,4.115,4.115,0,0,8.498,72.86,1069.5209594215,13.779528,6,P-GPS,
29100,2025-01-25 03:59:24,37.0153793653432,140.148904044543,13.779528,,,1069.5209594215,12.139108,0,12.6288061784,18.951608218,18,5,16.442,1069.5209594215,13.779528,1.901399,13.2032812624,0,0,0,303.5, -0.1, -1.8,0,0,1024,1024,1024,1064,0,0,0,6,298.1,0,0,95,4.115,4.113,4.115,4.115,0,0,8.498,72.86,1069.5209594215,13.779528,6,P-GPS,
29300,2025-01-25 03:59:24,37.0153790103661,140.148903909477,13.779528,,,1069.5209594215,11.811024,0,12.494094888,19.086942868,18,5,16.442,1069.5209594215,13.779528,1.901399,13.2032812624,0,0,0,303.3, 0.1, -2.1,0,0,1024,1024,1039,1298,0,0,2,42,298.5,0,0,95,4.115,4.113,4.115,4.115,0,0,8.498,72.86,1069.5209594215,13.779528,6,P-GPS,
29500,2025-01-25 03:59:25,37.015378692707,140.148903686882,13.779528,,,1069.5209594215,12.139108,0,12.367782548,19.2197512712,18,5,16.442,1069.5209594215,13.779528,1.901399,13.2032812624,0,0,0,303.1, 1, -1.9,0,0,1024,1024,1024,1024,0,0,0,0,299.2,0,0,95,4.115,4.113,4.115,4.115,0,0,8.498,72.86,1069.5209594215,13.779528,6,P-GPS,
29700,2025-01-25 03:59:25,37.0153783201407,140.14890343938,13.779528,,,1069.5209594215,12.139108,0,12.2205712572,19.3736226672,18,5,16.442,1069.5209594215,13.779528,1.901399,13.2032812624,0,0,0,304.3, 1.4, -1.9,0,0,1024,1024,1024,1024,0,0,0,0,299.3,0,0,95,4.115,4.113,4.115,4.115,0,0,8.498,72.86,1069.5209594215,13.779528,6,P-GPS,
29900,2025-01-25 03:59:25,37.0153779373418,140.148903167892,13.779528,,,1069.5209594215,12.139108,0,12.0685371316,19.53412136,18,5,16.457,1069.5209594215,13.779528,1.901399,13.2032812624,0,0,0,303.9, 1.3, -1.1,0,0,1024,1024,1024,1024,0,0,0,0,299.3,0,0,95,4.118,4.116,4.116,4.116,0,0,8.284,72.86,1069.5209594215,13.779528,6,P-GPS,
30100,2025-01-25 03:59:25,37.0153775851553,140.148902954062,13.779528,,,1069.5209594215,12.139108,0,11.93077466,19.6769363252,18,5,16.457,1069.5209594215,13.779528,1.901399,13.2032812624,0,0,0,303.5, 0.7, -1,0,0,1024,1024,1024,1024,0,0,0,0,299.3,0,0,95,4.118,4.116,4.116,4.116,0,0,8.284,72.86,1069.5209594215,13.779528,6,P-GPS,
30300,2025-01-25 03:59:25,37.0153772575826,140.14890278024,13.779528,,,1069.5209594215,12.139108,0,11.8040686192,19.8067263556,18,5,16.457,1069.5209594215,13.779528,1.901399,13.2032812624,0,0,0,303.8, 0.3, -1.8,0,0,1024,1024,1024,1024,0,0,0,0,299.3,0,0,95,4.118,4.116,4.116,4.116,0,0,8.284,72.86,1069.5209594215,13.779528,6,P-GPS,
30500,2025-01-25 03:59:25,37.0153769245872,140.148902624888,13.779528,,,1069.5209594215,12.139108,0,11.6764439432,19.9363851524,18,5,16.457,1069.5209594215,13.779528,1.901399,13.2032812624,0,0,0,303.9, 0.2, -1.7,0,0,1024,1024,1024,1024,0,0,0,0,299.3,0,0,95,4.118,4.116,4.116,4.116,0,0,8.284,72.86,1069.5209594215,13.779528,6,P-GPS,
30700,2025-01-25 03:59:26,37.0153766197949,140.148902474286,13.779528,,,1069.5209594215,12.139108,0,11.55921953,20.055938962,18,5,16.457,1069.5209594215,13.779528,1.901399,13.2032812624,0,0,0,303.8, -0.2, -2.4,0,0,1024,1024,1024,1024,0,0,0,0,299.3,0,0,95,4.118,4.116,4.116,4.116,0,0,8.284,72.86,1069.5209594215,13.779528,6,P-GPS,
30900,2025-01-25 03:59:26,37.0153763198599,140.148902304737,13.779528,,,1069.5209594215,12.139108,0,11.4428481352,20.1759848976,18,5,16.452,1069.5209594215,13.779528,1.901399,13.2032812624,0,0,0,304.3, 0, -1.9,0,0,1024,1024,1024,1301,0,0,0,42,299.3,0,0,95,4.113,4.11,4.107,4.101,0,0,8.202,73.04,1069.5209594215,13.779528,6,P-GPS,
31100,2025-01-25 03:59:26,37.0153760305216,140.148902171798,13.779528,,,1069.5209594215,12.139108,0,11.332185402,20.2884192844,18,5,16.452,1069.5209594215,13.779528,1.901399,13.2032812624,0,0,0,304.2, -0.3, -1.3,0,0,1024,1024,1024,1024,0,0,0,0,299.3,0,0,95,4.113,4.11,4.107,4.101,0,0,8.202,73.04,1069.5209594215,13.779528,6,P-GPS,
31300,2025-01-25 03:59:26,37.015375800318,140.148902051875,13.779528,,,1069.5209594215,12.139108,0,11.24343868,20.3793969776,18,5,16.452,1069.5209594215,13.779528,1.901399,13.2032812624,0,0,0,304.7, -1.2, -1.7,0,0,1024,1024,1024,1024,0,0,0,0,300.2,0,0,95,4.113,4.11,4.107,4.101,0,0,8.202,73.04,1069.5209594215,13.779528,6,P-GPS,
31500,2025-01-25 03:59:27,37.0153756286472,140.148901946914,13.779528,,,1069.5209594215,12.139108,0,11.1765423524,20.4490820192,18,5,16.452,1069.5209594215,13.779528,1.901399,13.2032812624,0,0,0,305.2, -1.3, -2,0,0,1097,1024,1024,1024,11,0,0,0,300.2,0,0,95,4.113,4.11,4.107,4.101,0,0,8.202,73.04,1069.5209594215,13.779528,6,P-GPS,
31700,2025-01-25 03:59:27,37.0153755254443,140.148901775483,13.779528,,,1069.5209594215,11.811024,0,11.1311027184,20.511647638,19,5,16.452,1069.5209594215,13.779528,1.901399,13.2032812624,0,0,0,305.3, -1, -0.1,0,0,1024,1024,1024,1024,0,0,0,0,300.2,0,0,95,4.113,4.11,4.107,4.101,0,0,8.202,73.04,1069.5209594215,13.779528,6,P-GPS,
31900,2025-01-25 03:59:27,37.0153755700094,140.148901622401,13.779528,,,1069.5209594215,11.811024,0.223694,11.1398953696,20.5591213928,16,5,16.457,1069.5209594215,13.779528,1.901399,13.2032812624,0.223694,0,0,305.6, -1.7, -1.2,0,0,1024,1024,1024,1024,0,0,0,0,300.2,0,0,94,4.101,4.098,4.101,4.104,0,0,8.078,73.04,1069.5209594215,13.779528,6,P-GPS,
32100,2025-01-25 03:59:27,37.0153757167795,140.1489014744,13.779528,,,1069.5209594215,12.139108,0.223694,11.1859583632,20.6278549908,16,5,16.457,1069.5209594215,13.779528,1.901399,13.2032812624,0.223694,0,0,305.7, -1, -3.8,0,0,1024,1024,1024,1024,0,0,0,0,300.2,0,0,94,4.101,4.098,4.101,4.104,0,0,8.078,73.04,1069.5209594215,13.779528,6,P-GPS,
32300,2025-01-25 03:59:27,37.0153758942626,140.148901227042,13.779528,,,1069.5209594215,12.139108,0.223694,11.2389767376,20.724738196,16,5,16.457,1069.5209594215,13.779528,1.901399,13.2032812624,0.223694,0,0,305.2, 0.5, -4.9,0,0,1024,1024,1054,1024,0,0,5,0,300.2,0,0,94,4.101,4.098,4.101,4.104,0,0,8.078,73.04,1069.5209594215,13.779528,6,P-GPS,
32500,2025-01-25 03:59:27,37.0153759823821,140.148900961391,13.779528,,,1069.5209594215,11.811024,0,11.2595476044,20.8085308496,17,5,16.457,1069.5209594215,13.779528,1.901399,13.2032812624,0,0,0,304.8, 1.2, -3.7,0,0,1024,1024,1276,1024,0,0,38,0,300.2,0,0,94,4.101,4.098,4.101,4.104,0,0,8.078,73.04,1069.5209594215,13.779528,6,P-GPS,
32700,2025-01-25 03:59:28,37.0153760366852,140.148900707565,13.779528,,,1069.5209594215,12.139108,0,11.2689308068,20.8851056552,17,5,16.457,1069.5209594215,13.779528,1.901399,13.2032812624,0,0,0,304.7, 1.4, -2.8,0,0,1024,1024,1290,1024,0,0,40,0,300.2,0,0,94,4.101,4.098,4.101,4.104,0,0,8.078,73.04,1069.5209594215,13.779528,6,P-GPS,
32900,2025-01-25 03:59:28,37.0153760254438,140.148900483988,14.107612,,,1069.8490434215,12.139108,0,11.2562667644,20.9503615628,17,5,16.435,1069.8490434215,14.107612,1.901399,13.2032812624,0,0,-1.565858,305.1, 1.7, -1.1,0,0,1024,1024,1024,1024,0,0,0,0,300.2,0,0,94,4.112,4.102,4.087,4.068,0,0,8.443,73.22,1069.8490434215,14.107612,6,P-GPS,
33100,2025-01-25 03:59:28,37.0153759678983,140.148900331545,14.76378,,,1070.5052114215,12.795276,0,11.2297903856,20.9994757376,17,5,16.435,1070.5052114215,14.76378,1.901399,13.2032812624,0,0,-1.342164,304.9, 2.2, -0.3,0,0,1024,1024,1024,1024,0,0,0,0,300.2,0,0,94,4.112,4.102,4.087,4.068,0,0,8.443,73.22,1070.5052114215,14.76378,6,P-GPS,
33300,2025-01-25 03:59:28,37.0153759405989,140.148900285731,14.76378,,,1070.5052114215,13.12336,0,11.2182418288,21.0161424048,15,5,16.435,1070.5052114215,14.76378,1.901399,13.2032812624,0,0,-0.223694,305.1, 1.1, -1.3,0,0,1024,1024,868,1024,0,0,-24,0,300.2,0,0,94,4.112,4.102,4.087,4.068,0,0,8.443,73.22,1070.5052114215,14.76378,6,P-GPS,
33500,2025-01-25 03:59:28,37.015375861213,140.148900132199,14.76378,,,1070.5052114215,13.12336,0,11.1839898592,21.0694232464,16,5,16.435,1070.5052114215,14.76378,1.901399,13.2032812624,0,0,0,305, 0.8, -0.7,0,0,1024,1024,1024,1024,0,0,0,0,300.2,0,0,94,4.112,4.102,4.087,4.068,0,0,8.443,73.22,1070.5052114215,14.76378,6,P-GPS,
33700,2025-01-25 03:59:29,37.0153758776672,140.14890013733,14.76378,,,1070.5052114215,12.795276,0,11.19012503,21.075624034,18,5,16.435,1070.5052114215,14.76378,1.901399,13.2032812624,0,0,0.223694,305.1, 0.8, -0.6,0,0,1024,1024,1024,1024,0,0,0,0,300.2,0,0,94,4.112,4.102,4.087,4.068,0,0,8.443,73.22,1070.5052114215,14.76378,6,P-GPS,
33900,2025-01-25 03:59:29,37.0153758525844,140.148900201852,14.76378,,,1070.5052114215,12.795276,0,11.1833336912,21.0965229848,17,5,16.447,1070.5052114215,14.76378,1.901399,13.2032812624,0,0,0,305, -0.4, -0.8,0,0,1024,1024,1024,1024,0,0,0,0,300.2,0,0,94,4.136,4.142,4.116,4.093,0,0,8.503,73.22,1070.5052114215,14.76378,6,P-GPS,
34100,2025-01-25 03:59:29,37.0153758370276,140.148900275749,14.76378,,,1070.5052114215,12.795276,0,11.1803809352,21.11876708,20,5,16.447,1070.5052114215,14.76378,1.901399,13.2032812624,0,0,0,305.1, -0.4, -1.5,0,0,1024,1024,1024,1024,0,0,0,0,300.2,0,0,94,4.136,4.142,4.116,4.093,0,0,8.503,73.22,1070.5052114215,14.76378,6,P-GPS,
34300,2025-01-25 03:59:29,37.0153758018942,140.148900356606,14.76378,,,1070.5052114215,12.795276,0,11.170604032,21.1456043512,20,5,16.447,1070.5052114215,14.76378,1.901399,13.2032812624,0,0,0,304.9, -0.4, -2.2,0,0,1024,1024,1024,1024,0,0,0,0,300.2,0,0,94,4.136,4.142,4.116,4.093,0,0,8.503,73.22,1070.5052114215,14.76378,6,P-GPS,
34500,2025-01-25 03:59:30,37.0153757400825,140.148900418581,14.76378,,,1070.5052114215,12.795276,0,11.1505580996,21.1744757432,19,5,16.447,1070.5052114215,14.76378,1.901399,13.2032812624,0,0,0,305, -1.1, -2.3,0,0,1024,1024,1024,1024,0,0,0,0,300.2,0,0,94,4.136,4.142,4.116,4.093,0,0,8.503,73.22,1070.5052114215,14.76378,6,P-GPS,
34700,2025-01-25 03:59:30,37.0153757083543,140.148900487007,14.76378,,,1070.5052114215,12.795276,0,11.1416670232,21.1975400484,19,5,16.447,1070.5052114215,14.76378,1.901399,13.2032812624,0,0,0,305.2, -1.7, -1.9,0,0,1024,1024,1024,1024,0,0,0,0,300.2,0,0,94,4.136,4.142,4.116,4.093,0,0,8.503,73.22,1070.5052114215,14.76378,6,P-GPS,
34900,2025-01-25 03:59:30,37.0153756986228,140.148900568034,14.435696,,,1070.1771274215,12.795276,0,11.1412733224,21.2213917552,18,5,16.516,1070.5052114215,14.76378,1.901399,13.2032812624,0,0,0,305.1, -1.5, -1.6,0,0,1024,1024,1024,1024,0,0,0,0,300.2,0,0,94,4.109,4.108,4.108,4.108,0,0,8.531,73.4,1070.1771274215,14.435696,6,P-GPS,
35100,2025-01-25 03:59:30,37.0153757328567,140.148900668995,14.435696,,,1070.1771274215,12.795276,0,11.1575790972,21.2533471368,17,5,16.516,1070.5052114215,14.76378,1.901399,13.2032812624,0,0,0,305, -1.8, -2,0,0,1024,1024,1024,1024,0,0,0,0,300.2,0,0,94,4.109,4.108,4.108,4.108,0,0,8.531,73.4,1070.1771274215,14.435696,6,P-GPS,
35300,2025-01-25 03:59:30,37.0153758156756,140.148900666683,14.435696,,,1070.1771274215,12.795276,0,11.1874347412,21.2835964816,18,5,16.516,1070.5052114215,14.76378,1.901399,13.2032812624,0,0,0,304.9, -1.7, -1.1,0,0,1024,1024,1024,1024,0,0,0,0,300.2,0,0,94,4.109,4.108,4.108,4.108,0,0,8.531,73.4,1070.1771274215,14.435696,6,P-GPS,
35500,2025-01-25 03:59:31,37.0153759111708,140.148900593347,14.435696,,,1070.1771274215,12.795276,0,11.2190948472,21.3244429396,17,5,16.516,1070.5052114215,14.76378,1.901399,13.2032812624,0,0,0,304.5, -1.7, -0.5,0,0,1024,1024,1024,1024,0,0,0,0,300.2,0,0,94,4.109,4.108,4.108,4.108,0,0,8.531,73.4,1070.1771274215,14.435696,6,P-GPS,
35700,2025-01-25 03:59:31,37.0153760577331,140.148900454632,14.435696,,,1070.1771274215,12.795276,0,11.2668310692,21.3914705008,17,5,16.516,1070.5052114215,14.76378,1.901399,13.2032812624,0,0,0,304.9, 0.3, -1.6,0,0,1024,1024,1024,1024,0,0,0,0,300.2,0,0,94,4.109,4.108,4.108,4.108,0,0,8.531,73.4,1070.1771274215,14.435696,6,P-GPS,
35900,2025-01-25 03:59:31,37.0153762537371,140.148900262047,14.435696,,,1070.1771274215,12.795276,0,11.3307418324,21.4823825772,17,5,16.44,1070.5052114215,14.76378,1.901399,13.2032812624,0,0,0,304.8, 0.7, -2.3,0,0,1024,1024,1024,1024,0,0,0,0,300.2,0,0,94,4.107,4.107,4.11,4.113,0,0,8.116,73.4,1070.1771274215,14.435696,6,P-GPS,
36100,2025-01-25 03:59:31,37.0153763566102,140.148900115631,14.435696,,,1070.1771274215,12.795276,0,11.362861256,21.539206726,17,5,16.44,1070.5052114215,14.76378,1.901399,13.2032812624,0,0,0,305.1, 0.8, -3.3,0,0,1024,1024,1024,1024,0,0,0,0,300.2,0,0,94,4.107,4.107,4.11,4.113,0,0,8.116,73.4,1070.1771274215,14.435696,6,P-GPS,
36300,2025-01-25 03:59:31,37.0153763426168,140.148899904845,14.435696,,,1070.1771274215,12.795276,0,11.3506565312,21.6008209012,18,5,16.44,1070.5052114215,14.76378,1.901399,13.2032812624,0,0,0,305, 0.8, -1,0,0,1024,1024,1024,1024,0,0,0,0,300.2,0,0,94,4.107,4.107,4.11,4.113,0,0,8.116,73.4,1070.1771274215,14.435696,6,P-GPS,
