time(millisecond),datetime(utc),latitude,longitude,height_above_takeoff(feet),height_above_ground_at_drone_location(feet),ground_elevation_at_drone_location(feet),altitude_above_seaLevel(feet),height_sonar(feet),speed(mph),distance(feet),mileage(feet),satellites,gpslevel,voltage(v),max_altitude(feet),max_ascent(feet),max_speed(mph),max_distance(feet), xSpeed(mph), ySpeed(mph), zSpeed(mph), compass_heading(degrees), pitch(degrees), roll(degrees),isPhoto,isVideo,rc_elevator,rc_aileron,rc_throttle,rc_rudder,rc_elevator(percent),rc_aileron(percent),rc_throttle(percent),rc_rudder(percent),gimbal_heading(degrees),gimbal_pitch(degrees),gimbal_roll(degrees),battery_percent,voltageCell1,voltageCell2,voltageCell3,voltageCell4,voltageCell5,voltageCell6,current(A),battery_temperature(f),altitude(feet),ascent(feet),flycStateRaw,flycState,message
0,2025-03-14 05:24:22,0,0,0,Available with any HD 360 subscription,Available with any HD 360 subscription,1005.3613940482,0.328084,0,0,0,18,2,0,1005.3613940482,0,0,0,0,0,0,303.9, 3.6, 1,0,0,1024,1024,1024,1024,0,0,0,0,310.8,0,0,96,4.226,4.224,4.227,4.225,0,0,0,66.02,1005.3613940482,0,41,Motors_Started,"機体が高度区域 (500 m)にいます。慎重に飛行してください。 (Code: 190001). IMU初期化中。IMUデータを復旧します (Code: 1610001A). 送信機が紐付けされていない／紐付けステータスを確認中 (Code: 16100089). 機体は飛行していません。ビジョンシステムと障害物回避が無効です (Code: 180059). GNSS信号が微弱です。ホバリングが不安定です。慎重に飛行してください (Code: 30008). IMU初期化中。IMUデータを復旧し"
200,2025-03-14 05:24:22,0,0,0,,,1005.3613940482,0.328084,0,0,0,18,2,0,1005.3613940482,0,0,0,0,0,0,303.9, 3.7, 1,0,0,1024,1024,1024,1024,0,0,0,0,310.8,0,0,96,4.226,4.224,4.227,4.225,0,0,0,66.02,1005.3613940482,0,41,Motors_Started,
400,2025-03-14 05:24:22,0,0,-0.656168,,,1004.7052260482,0.328084,0,0,0,18,2,0,1005.3613940482,0,0,0,0,0,0,310.8, 3.8, 0,0,0,1024,1024,1024,1024,0,0,0,0,310.8,0,0,96,4.226,4.224,4.227,4.225,0,0,0,66.02,1004.7052260482,-0.656168,41,Motors_Started,
600,2025-03-14 05:24:22,0,0,-0.656168,,,1004.7052260482,0,0,0,0,18,2,0,1005.3613940482,0,0,0,0,0,0,310.8, 3.7, 0,0,0,1024,1024,1024,1024,0,0,0,0,310.8,0,0,96,4.226,4.224,4.227,4.225,0,0,0,66.02,1004.7052260482,-0.656168,41,Motors_Started,"Setting new Return-To-Home altitude to 100m (328 ft). Data Recorder File Index is 113. Setting new Maximum Flight Altitude to 30m (98 ft)"
800,2025-03-14 05:24:22,0,0,-0.656168,,,1004.7052260482,0,0,0,0,18,2,0,1005.3613940482,0,0,0,0,0,0,310.8, 3.8, 0,0,0,1024,1024,1024,1024,0,0,0,0,310.8,0,0,96,4.226,4.224,4.227,4.225,0,0,0,66.02,1004.7052260482,-0.656168,41,Motors_Started,
1000,2025-03-14 05:24:23,0,0,-0.656168,,,1004.7052260482,0,0,0,0,18,2,0,1005.3613940482,0,0,0,0,0,0,310.8, 3.7, 0,0,0,1024,1024,1024,1024,0,0,0,0,310.8,0,0,96,4.226,4.224,4.227,4.225,0,0,0,66.02,1004.7052260482,-0.656168,41,Motors_Started,"送信機が紐付けされていない／紐付けステータスを確認中 (Code: 16100089). GNSS信号が微弱です。ホバリングが不安定です。慎重に飛行してください (Code: 30002). 機体は飛行していません。ビジョンシステムと障害物回避が無効です (Code: 180059)"
1200,2025-03-14 05:24:23,0,0,-0.656168,,,1004.7052260482,0,0,0,0,18,2,0,1005.3613940482,0,0,0,0,0,0,310.8, 3.7, 0,0,0,1024,1024,1024,1024,0,0,0,0,310.8,0,0,96,4.226,4.224,4.227,4.225,0,0,0,66.02,1004.7052260482,-0.656168,41,Motors_Started,
1400,2025-03-14 05:24:23,0,0,-0.656168,,,1004.7052260482,0,0,0,0,18,2,0,1005.3613940482,0,0,0,0,0,0,310.9, 3.7, 0,0,0,1024,1024,1024,1024,0,0,0,0,310.8,0,0,96,4.226,4.224,4.227,4.225,0,0,0,66.02,1004.7052260482,-0.656168,41,Motors_Started,離陸準備中
1600,2025-03-14 05:24:23,0,0,-0.656168,,,1004.7052260482,0,0,0,0,18,2,16.766,1005.3613940482,0,0,0,0,0,0,310.9, 3.7, 0,0,0,1024,1024,1024,1024,0,0,0,0,310.8,0,0,96,4.226,4.224,4.227,4.225,0,0,4.309,66.02,1004.7052260482,-0.656168,11,AutoTakeoff,
1800,2025-03-14 05:24:23,0,0,-0.656168,,,1004.7052260482,0,0,0,0,18,2,16.766,1005.3613940482,0,0,0,0,0,0,310.9, 3.7, 0,0,0,1024,1024,1024,1024,0,0,0,0,310.8,0,0,96,4.226,4.224,4.227,4.225,0,0,4.309,66.02,1004.7052260482,-0.656168,11,AutoTakeoff,
2000,2025-03-14 05:24:24,0,0,-0.656168,,,1004.7052260482,0,0,0,0,18,2,16.766,1005.3613940482,0,0,0,0,0,0,310.9, 3, -0.1,0,0,1024,1024,1024,1024,0,0,0,0,310.8,0,0,96,4.226,4.224,4.227,4.225,0,0,4.309,66.02,1004.7052260482,-0.656168,11,AutoTakeoff,"送信機が紐付けされていない／紐付けステータスを確認中 (Code: 16100089). 機体は飛行していません。ビジョンシステムと障害物回避が無効です (Code: 180059)"
2200,2025-03-14 05:24:24,0,0,-0.656168,,,1004.7052260482,0,0,0,0,18,2,16.766,1005.3613940482,0,0,0,0,0,-0.223694,311.4, -4.3, 0,0,0,1024,1024,1024,1024,0,0,0,0,310.8,0,0,96,4.226,4.224,4.227,4.225,0,0,4.309,66.02,1004.7052260482,-0.656168,11,AutoTakeoff,"機体は飛行していません。ビジョンシステムと障害物回避が無効です (Code: 180059)"
2400,2025-03-14 05:24:24,0,0,-0.656168,,,1004.7052260482,0.328084,0.447388,0,0,18,2,16.766,1005.3613940482,0,0.447388,0,0,-0.447388,-0.671082,311.4, -0.4, 0.7,0,0,1024,1024,1024,1024,0,0,0,0,310.8,0,0,96,4.226,4.224,4.227,4.225,0,0,4.309,66.02,1004.7052260482,-0.656168,11,AutoTakeoff,
2600,2025-03-14 05:24:24,0,0,-0.328084,,,1005.0333100482,0.328084,0.223694,0,0,18,2,16.811,1005.3613940482,0,0.447388,0,0,-0.223694,-0.894776,311.2, 3.9, 1.2,0,0,1024,1024,1024,1024,0,0,0,0,310.8,0,0,96,4.137,4.13,4.138,4.133,0,0,3.462,66.02,1005.0333100482,-0.328084,11,AutoTakeoff,
2800,2025-03-14 05:24:24,0,0,0,,,1005.3613940482,0.984252,0,0,0,18,2,16.811,1005.3613940482,0,0.447388,0,0,0,-0.894776,311.5, 2.7, 2.2,0,0,1024,1024,1024,1024,0,0,0,0,310.8,0,0,96,4.137,4.13,4.138,4.133,0,0,3.462,66.02,1005.3613940482,0,11,AutoTakeoff,
3000,2025-03-14 05:24:25,0,0,0,,,1005.3613940482,1.312336,0,0,0,16,2,16.811,1005.3613940482,0,0.447388,0,0,0,-0.894776,311.3, 1, 3,0,0,1024,1024,1024,1024,0,0,0,0,310.8,0,0,96,4.137,4.13,4.138,4.133,0,0,3.462,66.02,1005.3613940482,0,11,AutoTakeoff,
3200,2025-03-14 05:24:25,0,0,0.328084,,,1005.6894780482,1.64042,0,0,0,16,2,16.811,1005.6894780482,0.328084,0.447388,0,0,0,-0.894776,307.9, 0, 2,0,0,1024,1024,1024,1024,0,0,0,0,310.8,0,0,96,4.137,4.13,4.138,4.133,0,0,3.462,66.02,1005.6894780482,0.328084,11,AutoTakeoff,
3400,2025-03-14 05:24:25,0,0,0.656168,,,1006.0175620482,1.968504,0,0,0,16,2,16.811,1006.0175620482,0.656168,0.447388,0,0,0,-1.11847,315.3, 0, 1,0,0,1024,1024,1024,1024,0,0,0,0,310.9,0,0,96,4.137,4.13,4.138,4.133,0,0,3.462,66.02,1006.0175620482,0.656168,11,AutoTakeoff,
3600,2025-03-14 05:24:25,0,0,0.984252,,,1006.3456460482,2.296588,0,0,0,16,2,16.488,1006.3456460482,0.984252,0.447388,0,0,0,-1.11847,311.5, -0.1, 0.9,0,0,1024,1024,1024,1024,0,0,0,0,310.9,0,0,96,4.121,4.116,4.118,4.117,0,0,8.184,66.02,1006.3456460482,0.984252,11,AutoTakeoff,
3800,2025-03-14 05:24:26,0,0,1.312336,,,1006.6737300482,2.624672,0,0,0,16,2,16.488,1006.6737300482,1.312336,0.447388,0,0,0,-1.11847,310.1, 0.3, 1.4,0,0,1024,1024,1024,1024,0,0,0,0,310.9,0,0,96,4.121,4.116,4.118,4.117,0,0,8.184,66.02,1006.6737300482,1.312336,11,AutoTakeoff,
4000,2025-03-14 05:24:26,0,0,1.64042,,,1007.0018140482,3.28084,0,0,0,15,2,16.488,1007.0018140482,1.64042,0.447388,0,0,0,-1.11847,310.1, 0, 1.3,0,0,1024,1024,1024,1024,0,0,0,0,310.9,0,0,96,4.121,4.116,4.118,4.117,0,0,8.184,66.02,1007.0018140482,1.64042,11,AutoTakeoff,
4200,2025-03-14 05:24:26,0,0,1.968504,,,1007.3298980482,3.608924,0,0,0,16,2,16.488,1007.3298980482,1.968504,0.447388,0,0,0,-1.11847,311.4, -0.1, 1.9,0,0,1024,1024,1024,1024,0,0,0,0,310.9,0,0,96,4.121,4.116,4.118,4.117,0,0,8.184,66.02,1007.3298980482,1.968504,11,AutoTakeoff,
4400,2025-03-14 05:24:26,0,0,2.296588,,,1007.6579820482,3.937008,0,0,0,15,2,16.488,1007.6579820482,2.296588,0.447388,0,0,0,-0.671082,311.7, 0, 1.9,0,0,1024,1024,1024,1024,0,0,0,0,310.9,0,0,96,4.121,4.116,4.118,4.117,0,0,8.184,66.02,1007.6579820482,2.296588,6,P-GPS,
4600,2025-03-14 05:24:26,0,0,2.624672,,,1007.9860660482,3.937008,0,0,0,14,2,16.474,1007.9860660482,2.624672,0.447388,0,0,0,-0.223694,311.6, 0, 1.5,0,0,1024,1024,1024,1024,0,0,0,0,310.9,0,0,96,4.122,4.118,4.125,4.152,0,0,8.545,66.02,1007.9860660482,2.624672,6,P-GPS,
4800,2025-03-14 05:24:26,0,0,2.624672,,,1007.9860660482,3.937008,0,0,0,15,2,16.474,1007.9860660482,2.624672,0.447388,0,0,0,0,311.4, 0, 1,0,0,1024,1024,1024,1024,0,0,0,0,310.9,0,0,96,4.122,4.118,4.125,4.152,0,0,8.545,66.02,1007.9860660482,2.624672,6,P-GPS,
5000,2025-03-14 05:24:27,0,0,2.624672,,,1007.9860660482,3.937008,0,0,0,16,2,16.474,1007.9860660482,2.624672,0.447388,0,0,0,0,311.3, 0, 0.9,0,0,1024,1024,1024,1024,0,0,0,0,310.9,0,0,96,4.122,4.118,4.125,4.152,0,0,8.545,66.02,1007.9860660482,2.624672,6,P-GPS,
5200,2025-03-14 05:24:27,0,0,2.624672,,,1007.9860660482,3.937008,0,0,0,16,2,16.474,1007.9860660482,2.624672,0.447388,0,0,0,0,311.3, 0, 1.5,0,0,1024,1024,1024,1024,0,0,0,0,310.9,0,0,96,4.122,4.118,4.125,4.152,0,0,8.545,66.02,1007.9860660482,2.624672,6,P-GPS,
5400,2025-03-14 05:24:27,0,0,2.624672,,,1007.9860660482,3.937008,0,0,0,15,2,16.474,1007.9860660482,2.624672,0.447388,0,0,0,0,311.3, 0, 2.1,0,0,1024,1024,1024,1024,0,0,0,0,310.9,0,0,96,4.122,4.118,4.125,4.152,0,0,8.545,66.02,1007.9860660482,2.624672,6,P-GPS,
5600,2025-03-14 05:24:27,0,0,2.624672,,,1007.9860660482,3.937008,0,0,0,15,2,16.498,1007.9860660482,2.624672,0.447388,0,0,0,0,311.5, 0, 2,0,0,1024,1024,1024,1024,0,0,0,0,310.9,0,0,96,4.121,4.118,4.119,4.119,0,0,7.701,66.2,1007.9860660482,2.624672,6,P-GPS,
5800,2025-03-14 05:24:27,0,0,2.624672,,,1007.9860660482,3.937008,0,0,0,15,2,16.498,1007.9860660482,2.624672,0.447388,0,0,0,0,311.3, -0.2, 2.1,0,0,1024,1024,1024,1024,0,0,0,0,310.9,0,0,96,4.121,4.118,4.119,4.119,0,0,7.701,66.2,1007.9860660482,2.624672,6,P-GPS,
6000,2025-03-14 05:24:28,0,0,2.624672,,,1007.9860660482,3.937008,0,0,0,15,2,16.498,1007.9860660482,2.624672,0.447388,0,0,0,0,311.2, -0.6, 1.9,0,0,1024,1024,1028,1024,0,0,1,0,310.9,0,0,96,4.121,4.118,4.119,4.119,0,0,7.701,66.2,1007.9860660482,2.624672,6,P-GPS,
6200,2025-03-14 05:24:28,0,0,2.624672,,,1007.9860660482,3.937008,0,0,0,15,2,16.498,1007.9860660482,2.624672,0.447388,0,0,0,0,311.2, -0.5, 1.7,0,0,1024,1024,1028,1024,0,0,1,0,310.9,0,0,96,4.121,4.118,4.119,4.119,0,0,7.701,66.2,1007.9860660482,2.624672,6,P-GPS,
6400,2025-03-14 05:24:28,0,0,2.624672,,,1007.9860660482,3.937008,0,0,0,16,2,16.498,1007.9860660482,2.624672,0.447388,0,0,0,0,311.2, -0.3, 1.5,0,0,1024,1024,1036,1024,0,0,2,0,310.9,0,0,96,4.121,4.118,4.119,4.119,0,0,7.701,66.2,1007.9860660482,2.624672,6,P-GPS,
6600,2025-03-14 05:24:28,0,0,2.624672,,,1007.9860660482,3.937008,0,0,0,16,2,16.468,1007.9860660482,2.624672,0.447388,0,0,0,0,311.2, -0.2, 1.4,0,0,1024,1024,1050,1024,0,0,4,0,310.9,0,0,96,4.118,4.113,4.115,4.113,0,0,8.183,66.2,1007.9860660482,2.624672,6,P-GPS,
6800,2025-03-14 05:24:28,0,0,2.624672,,,1007.9860660482,3.937008,0,0,0,16,2,16.468,1007.9860660482,2.624672,0.447388,0,0,0,0,311.2, 0, 1.6,0,0,1024,1024,1053,1024,0,0,4,0,310.9,0,0,96,4.118,4.113,4.115,4.113,0,0,8.183,66.2,1007.9860660482,2.624672,6,P-GPS,
7000,2025-03-14 05:24:29,0,0,2.624672,,,1007.9860660482,3.937008,0,0,0,17,2,16.468,1007.9860660482,2.624672,0.447388,0,0,0,0,311.4, -0.1, 1.6,0,0,1024,1024,1055,1024,0,0,5,0,310.9,0,0,96,4.118,4.113,4.115,4.113,0,0,8.183,66.2,1007.9860660482,2.624672,6,P-GPS,
7200,2025-03-14 05:24:29,0,0,2.624672,,,1007.9860660482,3.937008,0,0,0,18,2,16.468,1007.9860660482,2.624672,0.447388,0,0,0,0,311.4, 0, 1.4,0,0,1024,1024,1082,1024,0,0,9,0,310.9,0,0,96,4.118,4.113,4.115,4.113,0,0,8.183,66.2,1007.9860660482,2.624672,6,P-GPS,
7400,2025-03-14 05:24:29,0,0,2.624672,,,1007.9860660482,3.937008,0,0,0,18,2,16.468,1007.9860660482,2.624672,0.447388,0,0,0,0,311.3, 0, 1.7,0,0,1024,1024,1102,1024,0,0,12,0,310.9,0,0,96,4.118,4.113,4.115,4.113,0,0,8.183,66.2,1007.9860660482,2.624672,6,P-GPS,飛行中
7600,2025-03-14 05:24:29,0,0,2.624672,,,1007.9860660482,3.937008,0,0,0,19,2,16.449,1007.9860660482,2.624672,0.447388,0,0,0,0,311.4, 0, 1.7,0,0,1024,1024,1103,1024,0,0,12,0,310.9,0,0,96,4.113,4.11,4.109,4.11,0,0,8.228,66.38,1007.9860660482,2.624672,6,P-GPS,
7800,2025-03-14 05:24:30,0,0,2.624672,,,1007.9860660482,3.937008,0,0,0,19,2,16.449,1007.9860660482,2.624672,0.447388,0,0,0,0,311.3, 0.2, 1.6,0,0,1024,1024,1104,1024,0,0,12,0,310.9,0,0,96,4.113,4.11,4.109,4.11,0,0,8.228,66.38,1007.9860660482,2.624672,6,P-GPS,
8000,2025-03-14 05:24:30,0,0,2.624672,,,1007.9860660482,3.937008,0,0,0,19,2,16.449,1007.9860660482,2.624672,0.447388,0,0,0,0,311.3, 0.2, 1.7,0,0,1024,1024,1113,1024,0,0,13,0,310.9,0,0,96,4.113,4.11,4.109,4.11,0,0,8.228,66.38,1007.9860660482,2.624672,6,P-GPS,
8200,2025-03-14 05:24:30,0,0,2.624672,,,1007.9860660482,3.937008,0,0,0,19,2,16.449,1007.9860660482,2.624672,0.447388,0,0,0,0,311.3, 0, 1.9,0,0,1024,1024,1116,1024,0,0,14,0,310.9,0,0,96,4.113,4.11,4.109,4.11,0,0,8.228,66.38,1007.9860660482,2.624672,6,P-GPS,
8400,2025-03-14 05:24:30,0,0,2.952756,,,1008.3141500482,4.265092,0,0,0,19,2,16.449,1008.3141500482,2.952756,0.447388,0,0,0,-0.223694,311.2, 0, 2,0,0,1024,1024,1135,1024,0,0,17,0,310.9,0,0,96,4.113,4.11,4.109,4.11,0,0,8.228,66.38,1008.3141500482,2.952756,6,P-GPS,
8600,2025-03-14 05:24:30,0,0,2.952756,,,1008.3141500482,4.265092,0,0,0,19,2,16.428,1008.3141500482,2.952756,0.447388,0,0,0,-0.223694,311.2, 0.1, 1.7,0,0,1016,1024,1130,1024,-1,0,16,0,310.9,0,0,96,4.109,4.104,4.108,4.106,0,0,8.404,66.38,1008.3141500482,2.952756,6,P-GPS,
8800,2025-03-14 05:24:30,0,0,2.952756,,,1008.3141500482,4.265092,0,0,0,18,2,16.428,1008.3141500482,2.952756,0.447388,0,0,0,-0.223694,311.3, 0.2, 1.4,0,0,1024,1024,1126,1024,0,0,15,0,310.9,0,0,96,4.109,4.104,4.108,4.106,0,0,8.404,66.38,1008.3141500482,2.952756,6,P-GPS,
9000,2025-03-14 05:24:31,0,0,2.952756,,,1008.3141500482,4.265092,0,0,0,17,2,16.428,1008.3141500482,2.952756,0.447388,0,0,0,-0.223694,311.3, 0.1, 1.2,0,0,1024,1024,1125,1024,0,0,15,0,310.9,0,0,96,4.109,4.104,4.108,4.106,0,0,8.404,66.38,1008.3141500482,2.952756,6,P-GPS,
9200,2025-03-14 05:24:31,0,0,3.28084,,,1008.6422340482,4.593176,0,0,0,16,2,16.428,1008.6422340482,3.28084,0.447388,0,0,0,-0.223694,311.3, 0.4, 1.3,0,0,1024,1024,1118,1024,0,0,14,0,310.9,0,0,96,4.109,4.104,4.108,4.106,0,0,8.404,66.38,1008.6422340482,3.28084,6,P-GPS,
9400,2025-03-14 05:24:31,0,0,3.28084,,,1008.6422340482,4.593176,0,0,0,17,2,16.428,1008.6422340482,3.28084,0.447388,0,0,0,-0.223694,311.3, 0.3, 1.4,0,0,1024,1024,1116,1024,0,0,14,0,310.9,0,0,96,4.109,4.104,4.108,4.106,0,0,8.404,66.38,1008.6422340482,3.28084,6,P-GPS,
9600,2025-03-14 05:24:31,0,0,3.28084,,,1008.6422340482,4.593176,0,0,0,17,2,16.423,1008.6422340482,3.28084,0.447388,0,0,0,-0.223694,311.4, 0, 1.5,0,0,1024,1024,1115,1024,0,0,14,0,310.9,0,0,96,4.108,4.105,4.105,4.104,0,0,8.316,66.56,1008.6422340482,3.28084,6,P-GPS,
9800,2025-03-14 05:24:31,0,0,3.608924,,,1008.9703180482,4.593176,0,0,0,19,2,16.423,1008.9703180482,3.608924,0.447388,0,0,0,-0.223694,311.5, 0.1, 1.3,0,0,1024,1024,1062,1024,0,0,6,0,310.9,0,0,96,4.108,4.105,4.105,4.104,0,0,8.316,66.56,1008.9703180482,3.608924,6,P-GPS,
10000,2025-03-14 05:24:32,0,0,3.608924,,,1008.9703180482,4.92126,0,0,0,19,2,16.423,1008.9703180482,3.608924,0.447388,0,0,0,-0.223694,311.5, 0.2, 1.2,0,0,1024,1024,1024,1024,0,0,0,0,310.9,0,0,96,4.108,4.105,4.105,4.104,0,0,8.316,66.56,1008.9703180482,3.608924,6,P-GPS,
10200,2025-03-14 05:24:32,0,0,3.608924,,,1008.9703180482,4.92126,0,0,0,18,2,16.423,1008.9703180482,3.608924,0.447388,0,0,0,0,311.4, 0.2, 1.3,0,0,1024,1024,1024,1024,0,0,0,0,310.9,0,0,96,4.108,4.105,4.105,4.104,0,0,8.316,66.56,1008.9703180482,3.608924,6,P-GPS,
10400,2025-03-14 05:24:32,0,0,3.608924,,,1008.9703180482,4.92126,0,0,0,18,2,16.423,1008.9703180482,3.608924,0.447388,0,0,0,0,311.4, 0, 1.4,0,0,1024,1024,1024,1024,0,0,0,0,310.9,0,0,96,4.108,4.105,4.105,4.104,0,0,8.316,66.56,1008.9703180482,3.608924,6,P-GPS,
10600,2025-03-14 05:24:32,0,0,3.608924,,,1008.9703180482,4.92126,0,0,0,17,2,16.409,1008.9703180482,3.608924,0.447388,0,0,0,0,311.3, 0, 1.8,0,0,1024,1024,1024,1175,0,0,0,23,310.9,0,0,96,4.108,4.103,4.103,4.105,0,0,8.332,66.56,1008.9703180482,3.608924,6,P-GPS,
10800,2025-03-14 05:24:32,0,0,3.608924,,,1008.9703180482,4.92126,0,0,0,18,2,16.409,1008.9703180482,3.608924,0.447388,0,0,0,0,311.2, 0, 2.1,0,0,1024,1024,1024,1253,0,0,0,35,310.9,0,0,96,4.108,4.103,4.103,4.105,0,0,8.332,66.56,1008.9703180482,3.608924,6,P-GPS,
11000,2025-03-14 05:24:33,0,0,3.608924,,,1008.9703180482,4.92126,0,0,0,18,2,16.409,1008.9703180482,3.608924,0.447388,0,0,0,0,311.5, 0, 2.1,0,0,1024,1024,1024,1273,0,0,0,38,310.9,0,0,96,4.108,4.103,4.103,4.105,0,0,8.332,66.56,1008.9703180482,3.608924,6,P-GPS,
11200,2025-03-14 05:24:33,0,0,3.608924,,,1008.9703180482,4.92126,0,0,0,17,2,16.409,1008.9703180482,3.608924,0.447388,0,0,0,0,312.2, 0, 1.9,0,0,1024,1024,1024,1304,0,0,0,42,312.4,0,0,96,4.108,4.103,4.103,4.105,0,0,8.332,66.56,1008.9703180482,3.608924,6,P-GPS,
11400,2025-03-14 05:24:33,0,0,3.608924,,,1008.9703180482,4.92126,0,0,0,16,2,16.409,1008.9703180482,3.608924,0.447388,0,0,0,0,313.4, 0.2, 1.6,0,0,1024,1024,1024,1312,0,0,0,44,313.7,0,0,96,4.108,4.103,4.103,4.105,0,0,8.332,66.56,1008.9703180482,3.608924,6,P-GPS,
11600,2025-03-14 05:24:33,0,0,3.608924,,,1008.9703180482,4.92126,0,0,0,16,2,16.408,1008.9703180482,3.608924,0.447388,0,0,0,0,315, 0.3, 1.5,0,0,1024,1024,1024,1315,0,0,0,44,313.7,0,0,96,4.105,4.099,4.101,4.101,0,0,8.183,66.74,1008.9703180482,3.608924,6,P-GPS,
11800,2025-03-14 05:24:34,0,0,3.608924,,,1008.9703180482,4.92126,0,0,0,16,2,16.408,1008.9703180482,3.608924,0.447388,0,0,0,0,316.7, 0.3, 1.5,0,0,1024,1024,1024,1316,0,0,0,44,317,0,0,96,4.105,4.099,4.101,4.101,0,0,8.183,66.74,1008.9703180482,3.608924,6,P-GPS,
12000,2025-03-14 05:24:34,0,0,3.608924,,,1008.9703180482,4.593176,0,0,0,16,2,16.408,1008.9703180482,3.608924,0.447388,0,0,0,0,318.4, 0.5, 1.6,0,0,1024,1024,1024,1314,0,0,0,44,317,0,0,96,4.105,4.099,4.101,4.101,0,0,8.183,66.74,1008.9703180482,3.608924,6,P-GPS,
12200,2025-03-14 05:24:34,0,0,3.608924,,,1008.9703180482,4.593176,0,0,0,16,2,16.408,1008.9703180482,3.608924,0.447388,0,0,0,0,320.2, 0.3, 1.7,0,0,1024,1024,1024,1292,0,0,0,41,320.5,0,0,96,4.105,4.099,4.101,4.101,0,0,8.183,66.74,1008.9703180482,3.608924,6,P-GPS,
12400,2025-03-14 05:24:34,0,0,3.608924,,,1008.9703180482,4.593176,0,0,0,16,2,16.408,1008.9703180482,3.608924,0.447388,0,0,0,0,321.9, 0.3, 1.9,0,0,1024,1024,1024,1024,0,0,0,0,322.2,0,0,96,4.105,4.099,4.101,4.101,0,0,8.183,66.74,1008.9703180482,3.608924,6,P-GPS,
12600,2025-03-14 05:24:34,0,0,3.608924,,,1008.9703180482,4.92126,0,0,0,16,2,16.395,1008.9703180482,3.608924,0.447388,0,0,0,0,323.6, 0.3, 1.8,0,0,1024,1024,1024,1024,0,0,0,0,322.2,0,0,96,4.101,4.096,4.096,4.096,0,0,8.265,66.74,1008.9703180482,3.608924,6,P-GPS,
12800,2025-03-14 05:24:35,0,0,3.608924,,,1008.9703180482,4.92126,0,0,0,16,2,16.395,1008.9703180482,3.608924,0.447388,0,0,0,0,323.8, 0.5, 1.9,0,0,1024,1024,1024,1024,0,0,0,0,323.4,0,0,96,4.101,4.096,4.096,4.096,0,0,8.265,66.74,1008.9703180482,3.608924,6,P-GPS,
13000,2025-03-14 05:24:35,0,0,3.608924,,,1008.9703180482,4.92126,0,0,0,16,2,16.395,1008.9703180482,3.608924,0.447388,0,0,0,0,323.8, 0.3, 2.3,0,0,1024,1024,1024,1024,0,0,0,0,323.4,0,0,96,4.101,4.096,4.096,4.096,0,0,8.265,66.74,1008.9703180482,3.608924,6,P-GPS,
13200,2025-03-14 05:24:35,0,0,3.608924,,,1008.9703180482,4.92126,0,0,0,16,2,16.395,1008.9703180482,3.608924,0.447388,0,0,0,0,323.9, 0.3, 2.4,0,0,1024,1024,1024,1024,0,0,0,0,323.4,0,0,96,4.101,4.096,4.096,4.096,0,0,8.265,66.74,1008.9703180482,3.608924,6,P-GPS,
13400,2025-03-14 05:24:35,0,0,3.608924,,,1008.9703180482,4.92126,0,0,0,16,2,16.395,1008.9703180482,3.608924,0.447388,0,0,0,0,323.8, 0.2, 2.4,0,0,1024,1024,1076,1024,0,0,8,0,323.4,0,0,96,4.101,4.096,4.096,4.096,0,0,8.265,66.74,1008.9703180482,3.608924,6,P-GPS,
13800,2025-03-14 05:24:35,0,0,3.608924,,,1008.9703180482,4.92126,0,0,0,16,2,16.386,1008.9703180482,3.608924,0.447388,0,0,0,0,323.7, 0.2, 2.1,0,0,1024,1024,1094,1024,0,0,11,0,323.4,0,0,95,4.1,4.095,4.097,4.097,0,0,8.329,66.92,1008.9703180482,3.608924,6,P-GPS,
14000,2025-03-14 05:24:36,0,0,3.937008,,,1009.2984020482,4.92126,0,0,0,16,2,16.386,1009.2984020482,3.937008,0.447388,0,0,0,0,323.8, 0.5, 1.6,0,0,966,1024,1102,1024,-9,0,12,0,323.4,0,0,95,4.1,4.095,4.097,4.097,0,0,8.329,66.92,1009.2984020482,3.937008,6,P-GPS,
14200,2025-03-14 05:24:36,0,0,3.937008,,,1009.2984020482,4.92126,0,0,0,16,2,16.386,1009.2984020482,3.937008,0.447388,0,0,0,0,323.8, 1.1, 1.9,0,0,919,1024,1103,1024,-16,0,12,0,323.4,0,0,95,4.1,4.095,4.097,4.097,0,0,8.329,66.92,1009.2984020482,3.937008,6,P-GPS,
14400,2025-03-14 05:24:36,0,0,3.937008,,,1009.2984020482,4.92126,0,0,0,16,2,16.386,1009.2984020482,3.937008,0.447388,0,0,0,0,323.7, 0.9, 1.3,0,0,907,1024,1107,1024,-18,0,13,0,323.4,0,0,95,4.1,4.095,4.097,4.097,0,0,8.329,66.92,1009.2984020482,3.937008,6,P-GPS,
14600,2025-03-14 05:24:36,0,0,3.937008,,,1009.2984020482,4.92126,0,0,0,18,2,16.386,1009.2984020482,3.937008,0.447388,0,0,0,0,323.7, 1.7, 2.5,0,0,921,1024,1104,1024,-16,0,12,0,323.4,0,0,95,4.1,4.095,4.097,4.097,0,0,8.329,66.92,1009.2984020482,3.937008,6,P-GPS,
14800,2025-03-14 05:24:36,0,0,3.937008,,,1009.2984020482,4.92126,0,0,0,18,2,16.386,1009.2984020482,3.937008,0.447388,0,0,0,-0.223694,324, 2.3, 3.1,0,0,909,1024,1114,1024,-17,0,14,0,323.4,0,0,95,4.093,4.09,4.091,4.092,0,0,8.329,66.92,1009.2984020482,3.937008,6,P-GPS,
15000,2025-03-14 05:24:37,0,0,4.265092,,,1009.6264860482,4.92126,0,0,0,17,2,16.386,1009.6264860482,4.265092,0.447388,0,0,0,-0.223694,324.1, 2.5, 2.7,0,0,877,1024,1123,1024,-22,0,15,0,323.4,0,0,95,4.093,4.09,4.091,4.092,0,0,8.329,66.92,1009.6264860482,4.265092,6,P-GPS,
15200,2025-03-14 05:24:37,0,0,4.265092,,,1009.6264860482,5.249344,0,0,0,16,2,16.386,1009.6264860482,4.265092,0.447388,0,0,0,-0.223694,324, 2.5, 2.3,0,0,861,1024,1126,1024,-25,0,15,0,323.4,0,0,95,4.093,4.09,4.091,4.092,0,0,8.329,66.92,1009.6264860482,4.265092,6,P-GPS,
15400,2025-03-14 05:24:37,0,0,4.265092,,,1009.6264860482,5.249344,0,0,0,15,2,16.386,1009.6264860482,4.265092,0.447388,0,0,0,-0.223694,324.1, 3.5, 2.1,0,0,830,1024,1132,1024,-29,0,16,0,323.4,0,0,95,4.093,4.09,4.091,4.092,0,0,8.329,66.92,1009.6264860482,4.265092,6,P-GPS,
15600,2025-03-14 05:24:37,0,0,4.265092,,,1009.6264860482,5.249344,0.223694,0,0,15,2,16.386,1009.6264860482,4.265092,0.447388,0,-0.223694,0,-0.223694,324.3, 4.2, 3,0,0,826,1024,1135,1024,-30,0,17,0,323.4,0,0,95,4.093,4.09,4.091,4.092,0,0,8.329,66.92,1009.6264860482,4.265092,6,P-GPS,
15800,2025-03-14 05:24:38,0,0,4.593176,,,1009.9545700482,5.249344,0.4921268,0,0,15,2,16.374,1009.9545700482,4.593176,0.4921268,0,-0.447388,0.223694,-0.223694,324.2, 4.8, 3.4,0,0,824,1024,1153,1024,-30,0,20,0,323.4,0,0,95,4.096,4.092,4.092,4.09,0,0,8.363,67.1,1009.9545700482,4.593176,6,P-GPS,
16200,2025-03-14 05:24:38,0,0,4.593176,,,1009.9545700482,5.577428,1.006623,0,0,16,2,16.374,1009.9545700482,4.593176,1.006623,0,-0.894776,0.447388,-0.223694,324, 4.7, 3.8,0,0,842,1024,1159,1024,-28,0,20,0,323.4,0,0,95,4.096,4.092,4.092,4.09,0,0,8.363,67.1,1009.9545700482,4.593176,6,P-GPS,
16400,2025-03-14 05:24:38,0,0,4.92126,,,1010.2826540482,5.577428,1.006623,0,0,15,2,16.374,1010.2826540482,4.92126,1.006623,0,-0.894776,0.447388,-0.223694,324.1, 3.9, 4.5,0,0,840,1024,1175,1024,-28,0,23,0,323.4,0,0,95,4.096,4.092,4.092,4.09,0,0,8.363,67.1,1010.2826540482,4.92126,6,P-GPS,
16600,2025-03-14 05:24:38,0,0,4.92126,,,1010.2826540482,5.577428,1.2974252,0,0,18,2,16.374,1010.2826540482,4.92126,1.2974252,0,-1.11847,0.671082,-0.447388,324.3, 3.1, 4,0,0,834,1024,1172,1024,-29,0,22,0,323.4,0,0,95,4.096,4.092,4.092,4.09,0,0,8.363,67.1,1010.2826540482,4.92126,6,P-GPS,
16800,2025-03-14 05:24:39,0,0,5.249344,,,1010.6107380482,5.905512,1.4316416,0,0,17,2,16.345,1010.6107380482,5.249344,1.4316416,0,-1.11847,0.894776,-0.447388,324.3, 2.3, 3.7,0,0,830,1024,1168,1024,-29,0,22,0,323.4,0,0,95,4.088,4.086,4.087,4.085,0,0,8.455,67.1,1010.6107380482,5.249344,6,P-GPS,
17000,2025-03-14 05:24:39,0,0,5.249344,,,1010.6107380482,5.905512,1.4316416,0,0,17,2,16.345,1010.6107380482,5.249344,1.4316416,0,-1.11847,0.894776,-0.447388,326.9, 2.6, 3.2,0,0,832,1024,1175,1024,-29,0,23,0,323.4,0,0,95,4.088,4.086,4.087,4.085,0,0,8.455,67.1,1010.6107380482,5.249344,6,P-GPS,
17200,2025-03-14 05:24:39,0,0,5.577428,,,1010.9388220482,6.233596,1.6105968,0,0,18,2,16.345,1010.9388220482,5.577428,1.6105968,0,-1.342164,0.894776,-0.447388,327.4, 2.4, 3.1,0,0,839,1024,1181,1024,-28,0,24,0,323.4,0,0,95,4.088,4.086,4.087,4.085,0,0,8.455,67.1,1010.9388220482,5.577428,6,P-GPS,
17400,2025-03-14 05:24:39,0,0,5.577428,,,1010.9388220482,6.56168,1.6105968,0,0,19,2,16.345,1010.9388220482,5.577428,1.6105968,0,-1.342164,0.894776,-0.447388,327.5, 2.1, 2.3,0,0,839,1024,1204,1024,-28,0,27,0,323.4,0,0,95,4.088,4.086,4.087,4.085,0,0,8.455,67.1,1010.9388220482,5.577428,6,P-GPS,
17600,2025-03-14 05:24:39,0,0,5.905512,,,1011.2669060482,6.56168,1.8119214,0,0,19,2,16.345,1011.2669060482,5.905512,1.8119214,0,-1.565858,0.894776,-0.671082,327.4, 2.2, 2.8,0,0,838,1024,1204,1024,-28,0,27,0,323.4,0,0,95,4.088,4.086,4.087,4.085,0,0,8.455,67.1,1011.2669060482,5.905512,6,P-GPS,
17800,2025-03-14 05:24:39,0,0,5.905512,,,1011.2669060482,6.889764,1.9237684,0,0,17,2,16.332,1011.2669060482,5.905512,1.9237684,0,-1.565858,1.11847,-0.671082,327.4, 1.8, 2.8,0,0,839,1024,1204,1024,-28,0,27,0,323.4,0,0,95,4.084,4.081,4.084,4.084,0,0,8.654,67.28,1011.2669060482,5.905512,6,P-GPS,
18000,2025-03-14 05:24:40,0,0,6.233596,,,1011.5949900482,6.889764,1.9237684,0,0,16,2,16.332,1011.5949900482,6.233596,1.9237684,0,-1.565858,1.11847,-0.894776,327.3, 1.7, 3,0,0,839,1024,1196,1024,-28,0,26,0,323.4,0,0,95,4.084,4.081,4.084,4.084,0,0,8.654,67.28,1011.5949900482,6.233596,6,P-GPS,
18200,2025-03-14 05:24:40,0,0,6.56168,,,1011.9230740482,7.217848,1.9237684,0,0,17,2,16.332,1011.9230740482,6.56168,1.9237684,0,-1.565858,1.11847,-0.894776,327.3, 1.7, 2.5,0,0,839,1024,1194,1024,-28,0,26,0,323.4,0,0,95,4.084,4.081,4.084,4.084,0,0,8.654,67.28,1011.9230740482,6.56168,6,P-GPS,
18400,2025-03-14 05:24:40,0,0,6.889764,,,1012.2511580482,7.545932,1.9237684,0,0,16,2,16.332,1012.2511580482,6.889764,1.9237684,0,-1.565858,1.11847,-0.671082,327.3, 1.7, 2.3,0,0,840,1024,1193,1024,-28,0,26,0,323.4,0,0,95,4.084,4.081,4.084,4.084,0,0,8.654,67.28,1012.2511580482,6.889764,6,P-GPS,
18600,2025-03-14 05:24:40,37.0149983624945,140.150037738105,7.217848,,,1012.5792420482,7.874016,2.1027236,0,0,19,2,16.332,1012.5792420482,7.217848,2.1027236,0,-1.789552,1.11847,-0.671082,327.3, 1.6, 2.1,0,0,839,1024,1195,1024,-28,0,26,0,323.4,0,0,95,4.084,4.081,4.084,4.084,0,0,8.654,67.28,1012.5792420482,7.217848,6,P-GPS,"GNSS信号が微弱です。ホバリングが不安定です。慎重に飛行してください (Code: 30002)"
18800,2025-03-14 05:24:40,37.014998231902,140.150037899414,7.217848,,,1012.5792420482,7.874016,2.1027236,0.066922246236,0.066922246236,18,2,16.332,1012.5792420482,7.217848,2.1027236,0.066922246236,-1.789552,1.11847,-0.671082,327.4, 1.8, 2.1,0,0,834,1024,1192,1024,-29,0,25,0,323.4,0,0,95,4.09,4.084,4.085,4.085,0,0,8.624,67.28,1012.5792420482,7.217848,6,P-GPS,GNSSがありません。慎重に飛行してください
19000,2025-03-14 05:24:41,37.0149980231329,140.150038121134,7.545932,,,1012.9073260482,8.2021,2.1027236,0.166678483024,0.166791672004,19,2,16.332,1012.9073260482,7.545932,2.1027236,0.166678483024,-1.789552,1.11847,-0.671082,327.3, 1.8, 1.7,0,0,838,1024,1191,1024,-28,0,25,0,323.4,0,0,95,4.09,4.084,4.085,4.085,0,0,8.624,67.28,1012.9073260482,7.545932,6,P-GPS,
19200,2025-03-14 05:24:41,37.0149976801232,140.150038440892,7.874016,,,1013.2354100482,8.530184,2.23694,0.32233596832,0.322802175684,18,2,16.332,1013.2354100482,7.874016,2.23694,0.32233596832,-1.789552,1.342164,-0.671082,327.2, 1.5, 1.9,0,0,837,1024,1192,1024,-28,0,25,0,323.4,0,0,95,4.09,4.084,4.085,4.085,0,0,8.624,67.28,1013.2354100482,7.874016,6,P-GPS,
19600,2025-03-14 05:24:41,37.014996211913,140.150039793544,8.2021,,,1013.5634940482,8.858268,2.4158952,0.9870243098,0.98780843056,19,5,16.332,1013.5634940482,8.2021,2.4158952,0.9870243098,-2.013246,1.342164,-0.671082,327.4, 1.8, 2.1,0,0,838,1024,1191,1024,-28,0,25,0,323.4,0,0,95,4.09,4.084,4.085,4.085,0,0,8.624,67.28,1013.5634940482,8.2021,6,P-GPS,"Setting new Maximum Flight Altitude to 150m (492 ft)"
19800,2025-03-14 05:24:41,37.014994883855,140.150041028611,8.530184,,,1013.8915780482,9.186352,2.4158952,1.59051514276,1.59132879108,20,5,16.33,1013.8915780482,8.530184,2.4158952,1.59051514276,-2.013246,1.342164,-0.671082,327.2, 1.6, 2.5,0,0,838,1024,1192,1024,-28,0,25,0,323.4,0,0,95,4.087,4.082,4.083,4.082,0,0,8.388,67.28,1013.8915780482,8.530184,6,P-GPS,
20000,2025-03-14 05:24:42,37.0149931127766,140.150042716099,8.858268,,,1014.2196620482,9.514436,2.4158952,2.40243774092,2.40325467008,20,5,16.33,1014.2196620482,8.858268,2.4158952,2.40243774092,-2.013246,1.342164,-0.671082,327.4, 1.4, 2.5,0,0,838,1024,1192,1024,-28,0,25,0,323.4,0,0,95,4.087,4.082,4.083,4.082,0,0,8.388,67.28,1014.2196620482,8.858268,6,P-GPS,
20200,2025-03-14 05:24:42,37.0149909556793,140.150044818753,8.858268,,,1014.2196620482,9.514436,2.4158952,3.3996720248,3.4005578516,19,5,16.33,1014.2196620482,8.858268,2.4158952,3.3996720248,-2.013246,1.342164,-0.671082,327.4, 1.8, 2.1,0,0,839,1024,1191,1024,-28,0,25,0,323.4,0,0,95,4.087,4.082,4.083,4.082,0,0,8.388,67.28,1014.2196620482,8.858268,6,P-GPS,
20400,2025-03-14 05:24:42,37.0149885639373,140.150047213403,9.186352,,,1014.5477460482,9.84252,2.4158952,4.5166668112,4.5177494884,19,5,16.33,1014.5477460482,9.186352,2.4158952,4.5166668112,-2.013246,1.342164,-0.671082,327.2, 1.8, 2.2,0,0,838,1024,1192,1024,-28,0,25,0,323.4,0,0,95,4.087,4.082,4.083,4.082,0,0,8.388,67.28,1014.5477460482,9.186352,6,P-GPS,
20600,2025-03-14 05:24:42,37.0149859544574,140.150049860119,9.514436,,,1014.8758300482,10.170604,2.4158952,5.7415356168,5.7429135696,19,5,16.33,1014.8758300482,9.514436,2.4158952,5.7415356168,-2.013246,1.342164,-0.671082,327.4, 1.8, 1.8,0,0,837,1024,1193,1024,-28,0,26,0,323.4,0,0,95,4.087,4.082,4.083,4.082,0,0,8.388,67.28,1014.8758300482,9.514436,6,P-GPS,
20800,2025-03-14 05:24:43,37.0149834002082,140.150052427887,9.514436,,,1014.8758300482,10.170604,2.4158952,6.9364503532,6.9378939228,20,5,16.331,1014.8758300482,9.514436,2.4158952,6.9364503532,-2.013246,1.342164,-0.671082,327.3, 2.4, 1.5,0,0,838,1024,1212,1024,-28,0,28,0,323.4,0,0,95,4.086,4.082,4.083,4.082,0,0,8.409,67.64,1014.8758300482,9.514436,6,P-GPS,"ホームポイントを更新 (Code: 3000001)"
21000,2025-03-14 05:24:43,37.0149807202633,140.150054983997,9.84252,,,1015.2039140482,10.498688,2.6172198,8.1654202088,8.1669622036,20,5,16.331,1015.2039140482,9.84252,2.6172198,8.1654202088,-2.23694,1.342164,-0.671082,327.1, 2.6, 2.7,0,0,838,1024,1213,1024,-28,0,29,0,323.4,0,0,95,4.086,4.082,4.083,4.082,0,0,8.409,67.64,1015.2039140482,9.84252,6,P-GPS,
21200,2025-03-14 05:24:43,37.014978076633,140.150057444573,10.170604,,,1015.5319980482,10.826772,2.6172198,9.3668310084,9.3687010872,20,5,16.331,1015.5319980482,10.170604,2.6172198,9.3668310084,-2.23694,1.342164,-0.894776,327.3, 2.7, 2.9,0,0,839,1024,1216,1024,-28,0,29,0,323.4,0,0,95,4.086,4.082,4.083,4.082,0,0,8.409,67.64,1015.5319980482,10.170604,6,P-GPS,
21400,2025-03-14 05:24:43,37.0149755301986,140.150059851667,10.498688,,,1015.8600820482,11.154856,2.6172198,10.5307746152,10.5326775024,20,5,16.331,1015.8600820482,10.498688,2.6172198,10.5307746152,-2.23694,1.342164,-0.894776,327.4, 2.1, 2.9,0,0,839,1024,1222,1024,-28,0,30,0,323.4,0,0,95,4.086,4.082,4.083,4.082,0,0,8.409,67.64,1015.8600820482,10.498688,6,P-GPS,
21600,2025-03-14 05:24:43,37.014973103353,140.150062186908,10.826772,,,1016.1881660482,11.48294,2.6172198,11.6473757008,11.6493113964,20,5,16.331,1016.1881660482,10.826772,2.6172198,11.6473757008,-2.23694,1.342164,-0.894776,327.3, 1.6, 3,0,0,839,1024,1224,1024,-28,0,30,0,323.4,0,0,95,4.086,4.082,4.083,4.082,0,0,8.409,67.64,1016.1881660482,10.826772,6,P-GPS,
21800,2025-03-14 05:24:44,37.014970720126,140.150064471466,11.154856,,,1016.5162500482,11.811024,2.6172198,12.7423560508,12.7442917464,20,5,16.315,1016.5162500482,11.154856,2.6172198,12.7423560508,-2.23694,1.342164,-0.894776,327.3, 1.7, 3.2,0,0,839,1024,1234,1024,-28,0,32,0,323.4,0,0,95,4.08,4.076,4.077,4.077,0,0,8.482,67.64,1016.5162500482,11.154856,6,P-GPS,飛行中
22000,2025-03-14 05:24:44,37.0149684929621,140.150066618751,11.48294,,,1016.8443340482,12.139108,2.6172198,13.7678154012,13.7697839052,20,5,16.315,1016.8443340482,11.48294,2.6172198,13.7678154012,-2.23694,1.342164,-1.11847,327.4, 1.6, 3,0,0,839,1024,1237,1024,-28,0,32,0,323.4,0,0,95,4.08,4.076,4.077,4.077,0,0,8.482,67.64,1016.8443340482,11.48294,6,P-GPS,
22200,2025-03-14 05:24:44,37.0149663941355,140.150068610112,11.811024,,,1017.1724180482,12.467192,2.6172198,14.7284781616,14.730479474,21,5,16.315,1017.1724180482,11.811024,2.6172198,14.7284781616,-2.23694,1.342164,-1.11847,327.3, 1.6, 2.9,0,0,841,1024,1237,1024,-28,0,32,0,323.4,0,0,95,4.08,4.076,4.077,4.077,0,0,8.482,67.64,1017.1724180482,11.811024,6,P-GPS,
22400,2025-03-14 05:24:44,37.0149642993866,140.15007062447,12.139108,,,1017.5005020482,12.795276,2.6172198,15.6920608696,15.694062182,19,5,16.315,1017.5005020482,12.139108,2.6172198,15.6920608696,-2.23694,1.342164,-1.11847,327.5, 2, 2.7,0,0,843,1024,1229,1024,-27,0,31,0,323.4,0,0,95,4.08,4.076,4.077,4.077,0,0,8.482,67.64,1017.5005020482,12.139108,6,P-GPS,
22600,2025-03-14 05:24:44,37.0149624014045,140.150072464641,12.467192,,,1017.8285860482,13.12336,2.6172198,16.5677826824,16.5697839948,19,5,16.315,1017.8285860482,12.467192,2.6172198,16.5677826824,-2.23694,1.342164,-1.11847,327.4, 1.7, 2.4,0,0,845,1024,1224,1024,-27,0,30,0,323.4,0,0,95,4.08,4.076,4.077,4.077,0,0,8.482,67.64,1017.8285860482,12.467192,6,P-GPS,
22800,2025-03-14 05:24:44,37.0149604034575,140.150074325867,12.795276,,,1018.1566700482,13.451444,2.7290668,17.4761488532,17.4782813992,19,5,16.306,1018.1566700482,12.795276,2.7290668,17.4761488532,-2.23694,1.565858,-1.11847,327.2, 1.5, 3,0,0,851,1024,1225,1024,-26,0,30,0,323.4,0,0,95,4.08,4.074,4.076,4.076,0,0,8.615,67.64,1018.1566700482,12.795276,6,P-GPS,
23000,2025-03-14 05:24:45,37.0149585071095,140.150076145045,13.12336,,,1018.4847540482,13.779528,2.7290668,18.3477039992,18.3498037368,19,5,16.306,1018.4847540482,13.12336,2.7290668,18.3477039992,-2.23694,1.565858,-1.11847,327.2, 1.1, 3.1,0,0,883,1024,1226,1024,-21,0,31,0,323.4,0,0,95,4.08,4.074,4.076,4.076,0,0,8.615,67.64,1018.4847540482,13.12336,6,P-GPS,
23200,2025-03-14 05:24:45,37.0149567531801,140.150077900434,13.451444,,,1018.8128380482,14.107612,2.7290668,19.1667000884,19.168963868,19,5,16.306,1018.8128380482,13.451444,2.7290668,19.1667000884,-2.23694,1.565858,-1.11847,327.2, 0.9, 2.6,0,0,896,1024,1229,1024,-19,0,31,0,323.4,0,0,95,4.08,4.074,4.076,4.076,0,0,8.615,67.64,1018.8128380482,13.451444,6,P-GPS,
23400,2025-03-14 05:24:45,37.014955039899,140.150079664277,13.779528,,,1019.1409220482,14.435696,2.6172198,19.9755255736,19.9781502456,19,5,16.306,1019.1409220482,13.779528,2.7290668,19.9755255736,-2.23694,1.342164,-1.11847,327.3, 0.3, 2.7,0,0,896,1024,1237,1024,-19,0,32,0,323.4,0,0,95,4.08,4.074,4.076,4.076,0,0,8.615,67.64,1019.1409220482,13.779528,6,P-GPS,
23600,2025-03-14 05:24:45,37.0149533822446,140.150081343182,14.107612,,,1019.4690060482,14.76378,2.6172198,20.7531502704,20.7559717928,19,5,16.306,1019.4690060482,14.107612,2.7290668,20.7531502704,-2.23694,1.342164,-1.11847,327.3, 0.1, 2.8,0,0,895,1024,1241,1024,-20,0,33,0,323.4,0,0,95,4.08,4.074,4.076,4.076,0,0,8.615,67.64,1019.4690060482,14.107612,6,P-GPS,
23800,2025-03-14 05:24:45,37.0149517070332,140.150082924953,14.435696,,,1019.7970900482,15.091864,2.6172198,21.518537434,21.5214245732,19,5,16.325,1019.7970900482,14.435696,2.7290668,21.518537434,-2.23694,1.342164,-1.11847,327.2, -0.2, 3,0,0,896,1024,1240,1024,-19,0,33,0,323.4,0,0,95,4.081,4.075,4.077,4.077,0,0,8.406,67.82,1019.7970900482,14.435696,6,P-GPS,
24000,2025-03-14 05:24:46,37.0149501750199,140.150084323664,14.76378,,,1020.1251740482,15.419948,2.4158952,22.209974464,22.2131240704,19,5,16.325,1020.1251740482,14.76378,2.7290668,22.209974464,-2.013246,1.342164,-1.11847,326.9, -0.6, 3.4,0,0,903,1024,1240,1024,-18,0,33,0,323.4,0,0,95,4.081,4.075,4.077,4.077,0,0,8.406,67.82,1020.1251740482,14.76378,6,P-GPS,
24200,2025-03-14 05:24:46,37.0149486677682,140.150085727311,15.091864,,,1020.4532580482,16.076116,2.4158952,22.895177898,22.8984259296,18,5,16.325,1020.4532580482,15.091864,2.7290668,22.895177898,-2.013246,1.342164,-1.342164,327, -0.7, 3.2,0,0,893,1024,1239,1024,-20,0,33,0,323.4,0,0,95,4.081,4.075,4.077,4.077,0,0,8.406,67.82,1020.4532580482,15.091864,6,P-GPS,
24400,2025-03-14 05:24:46,37.0149474002852,140.150087015411,15.419948,,,1020.7813420482,16.4042,2.1027236,23.4905191244,23.4939640064,18,5,16.325,1020.7813420482,15.419948,2.7290668,23.4905191244,-1.789552,1.11847,-1.11847,326.9, -0.6, 2.6,0,0,890,1024,1238,1024,-20,0,32,0,323.4,0,0,95,4.081,4.075,4.077,4.077,0,0,8.406,67.82,1020.7813420482,15.419948,6,P-GPS,
24600,2025-03-14 05:24:46,37.0149461889173,140.150088251328,16.076116,,,1021.4375100482,16.732284,2.1027236,24.0604010324,24.0640427648,19,5,16.325,1021.4375100482,16.076116,2.7290668,24.0604010324,-1.789552,1.11847,-1.11847,327, -0.2, 2.2,0,0,890,1024,1238,1024,-20,0,32,0,323.4,0,0,95,4.081,4.075,4.077,4.077,0,0,8.406,67.82,1021.4375100482,16.076116,6,P-GPS,
24800,2025-03-14 05:24:46,37.0149450319469,140.150089399827,16.4042,,,1021.7655940482,17.060368,1.9237684,24.5990165352,24.6026582676,19,5,16.31,1021.7655940482,16.4042,2.7290668,24.5990165352,-1.565858,1.11847,-1.11847,327, 0, 2.1,0,0,890,1024,1237,1024,-20,0,32,0,323.4,0,0,95,4.085,4.078,4.081,4.079,0,0,8.451,67.82,1021.7655940482,16.4042,6,P-GPS,
25000,2025-03-14 05:24:47,37.0149439731361,140.150090498992,16.732284,,,1022.0936780482,17.388452,1.9237684,25.1004929292,25.1044299372,19,5,16.31,1022.0936780482,16.732284,2.7290668,25.1004929292,-1.565858,1.11847,-1.11847,325.5, 0.4, 2.4,0,0,890,1024,1238,1024,-20,0,32,0,323.4,0,0,95,4.085,4.078,4.081,4.079,0,0,8.451,67.82,1022.0936780482,16.732284,6,P-GPS,
25200,2025-03-14 05:24:47,37.0149429330175,140.150091672656,17.060368,,,1022.4217620482,18.04462,1.9237684,25.609908956,25.6152239168,19,5,16.31,1022.4217620482,17.060368,2.7290668,25.609908956,-1.565858,1.11847,-1.11847,324.5, 0.5, 1.9,0,0,892,1024,1236,1024,-20,0,32,0,323.4,0,0,95,4.085,4.078,4.081,4.079,0,0,8.451,67.82,1022.4217620482,17.060368,6,P-GPS,
25400,2025-03-14 05:24:47,37.0149418989598,140.15009276784,17.388452,,,1022.7498460482,18.372704,1.9237684,26.1035769508,26.1093184208,19,5,16.31,1022.7498460482,17.388452,2.7290668,26.1035769508,-1.565858,1.11847,-1.11847,324.5, 0, 1.6,0,0,892,1024,1236,1024,-20,0,32,0,323.4,0,0,95,4.085,4.078,4.081,4.079,0,0,8.451,67.82,1022.7498460482,17.388452,6,P-GPS,
25600,2025-03-14 05:24:47,37.0149408141795,140.150093804435,17.716536,,,1023.0779300482,18.700788,1.7448132,26.6014116124,26.6071530824,20,5,16.31,1023.0779300482,17.716536,2.7290668,26.6014116124,-1.342164,1.11847,-1.11847,324.4, -0.3, 1.1,0,0,888,1024,1241,1024,-21,0,33,0,323.4,0,0,95,4.085,4.078,4.081,4.079,0,0,8.451,67.82,1023.0779300482,17.716536,6,P-GPS,
25800,2025-03-14 05:24:47,37.0149397328345,140.150094713741,18.04462,,,1023.4060140482,19.028872,1.6105968,27.075460184,27.0823827564,20,5,16.301,1023.4060140482,18.04462,2.7290668,27.075460184,-1.342164,0.894776,-1.11847,324.4, 0, 1.8,0,0,888,1024,1244,1024,-21,0,33,0,323.4,0,0,95,4.079,4.072,4.075,4.072,0,0,8.334,68,1023.4060140482,18.04462,6,P-GPS,
26000,2025-03-14 05:24:48,37.0149385800874,140.150095621111,18.372704,,,1023.7340980482,19.356956,1.6105968,27.5698499636,27.5791347408,19,5,16.301,1023.7340980482,18.372704,2.7290668,27.5698499636,-1.342164,0.894776,-1.11847,324.6, 0.3, 2.2,0,0,890,1024,1244,1024,-20,0,33,0,323.4,0,0,95,4.079,4.072,4.075,4.072,0,0,8.334,68,1023.7340980482,18.372704,6,P-GPS,
26200,2025-03-14 05:24:48,37.0149374773945,140.150096490957,18.700788,,,1024.0621820482,19.68504,1.6105968,28.0431767504,28.0545940736,19,5,16.301,1024.0621820482,18.700788,2.7290668,28.0431767504,-1.342164,0.894776,-1.342164,324.8, 0, 1.9,0,0,888,1024,1244,1024,-21,0,33,0,323.4,0,0,95,4.079,4.072,4.075,4.072,0,0,8.334,68,1024.0621820482,18.700788,6,P-GPS,
26400,2025-03-14 05:24:48,37.0149363527928,140.15009734168,19.028872,,,1024.3902660482,20.341208,1.6105968,28.5194891016,28.533957606,20,5,16.301,1024.3902660482,19.028872,2.7290668,28.5194891016,-1.342164,0.894776,-1.342164,324.6, 0.2, 1.3,0,0,886,1024,1244,1024,-21,0,33,0,323.4,0,0,95,4.079,4.072,4.075,4.072,0,0,8.334,68,1024.3902660482,19.028872,6,P-GPS,
26600,2025-03-14 05:24:48,37.0149351614877,140.150098113564,19.356956,,,1024.7183500482,20.669292,1.6105968,29.0013460724,29.0233277004,20,5,16.301,1024.7183500482,19.356956,2.7290668,29.0013460724,-1.342164,0.894776,-1.342164,324.4, 0.5, 1.4,0,0,885,1024,1241,1024,-21,0,33,0,323.4,0,0,95,4.079,4.072,4.075,4.072,0,0,8.334,68,1024.7183500482,19.356956,6,P-GPS,
26800,2025-03-14 05:24:48,37.0149339045287,140.150098895489,19.68504,,,1025.0464340482,20.997376,1.6105968,29.5042988444,29.5353683992,20,5,16.29,1025.0464340482,19.68504,2.7290668,29.5042988444,-1.342164,0.894776,-1.11847,324.6, 0.9, 1.1,0,0,884,1024,1242,1024,-21,0,33,0,323.4,0,0,95,4.076,4.071,4.074,4.072,0,0,8.575,68,1025.0464340482,19.68504,6,P-GPS,
27000,2025-03-14 05:24:49,37.0149325994087,140.150099757788,20.013124,,,1025.3745180482,21.32546,1.6105968,30.0356636908,30.0737542432,22,5,16.29,1025.3745180482,20.013124,2.7290668,30.0356636908,-1.342164,0.894776,-1.11847,324.5, 0.4, 1,0,0,885,1024,1241,1024,-21,0,33,0,323.4,0,0,95,4.076,4.071,4.074,4.072,0,0,8.575,68,1025.3745180482,20.013124,6,P-GPS,
27200,2025-03-14 05:24:49,37.0149313215816,140.150100663398,20.341208,,,1025.7026020482,21.981628,1.6105968,30.5668644952,30.6094497984,22,5,16.29,1025.7026020482,20.341208,2.7290668,30.5668644952,-1.342164,0.894776,-1.11847,324.4, 0.3, 1.4,0,0,882,1024,1241,1024,-22,0,33,0,323.4,0,0,95,4.076,4.071,4.074,4.072,0,0,8.575,68,1025.7026020482,20.341208,6,P-GPS,
27400,2025-03-14 05:24:49,37.0149299839216,140.150101543646,20.669292,,,1026.0306860482,22.309712,1.6105968,31.1113198932,31.160762152,21,5,16.29,1026.0306860482,20.669292,2.7290668,31.1113198932,-1.342164,0.894776,-1.11847,324.5, 0, 1.6,0,0,882,1024,1241,1024,-22,0,33,0,323.4,0,0,95,4.076,4.071,4.074,4.072,0,0,8.575,68,1026.0306860482,20.669292,6,P-GPS,
27600,2025-03-14 05:24:49,37.0149286928292,140.150102415955,20.997376,,,1026.3587700482,22.96588,1.6105968,31.6409787028,31.6959983896,20,5,16.29,1026.3587700482,20.997376,2.7290668,31.6409787028,-1.342164,0.894776,-1.11847,324.6, -0.8, 1.1,0,0,880,1024,1241,1024,-22,0,33,0,323.4,0,0,95,4.076,4.071,4.074,4.072,0,0,8.575,68,1026.3587700482,20.997376,6,P-GPS,
27800,2025-03-14 05:24:49,37.0149274799022,140.150103292995,21.32546,,,1026.6868540482,22.96588,1.4316416,32.1487215012,32.2069892196,21,5,16.294,1026.6868540482,21.32546,2.7290668,32.1487215012,-1.11847,0.894776,-1.11847,324.6, -0.5, 0.6,0,0,880,1024,1241,1024,-22,0,33,0,323.4,0,0,95,4.073,4.07,4.072,4.071,0,0,8.369,68,1026.6868540482,21.32546,6,P-GPS,
28000,2025-03-14 05:24:50,37.0149263628818,140.150104084104,21.653544,,,1027.0149380482,23.293964,1.4316416,32.613518104,32.675197896,21,5,16.294,1027.0149380482,21.653544,2.7290668,32.613518104,-1.11847,0.894776,-1.11847,324.4, 0.1, 0.3,0,0,880,1024,1242,1024,-22,0,33,0,323.4,0,0,95,4.073,4.07,4.072,4.071,0,0,8.369,68,1027.0149380482,21.653544,6,P-GPS,
28200,2025-03-14 05:24:50,37.0149251577675,140.150104901187,21.981628,,,1027.3430220482,23.950132,1.4316416,33.108924944,33.175197912,20,5,16.294,1027.3430220482,21.981628,2.7290668,33.108924944,-1.11847,0.894776,-1.11847,324.5, 0.8, 0.3,0,0,879,1024,1241,1024,-22,0,33,0,323.4,0,0,95,4.073,4.07,4.072,4.071,0,0,8.369,68,1027.3430220482,21.981628,6,P-GPS,
28400,2025-03-14 05:24:50,37.014923999889,140.150105689271,22.309712,,,1027.6711060482,24.278216,1.4316416,33.585302912,33.655840972,21,5,16.294,1027.6711060482,22.309712,2.7290668,33.585302912,-1.11847,0.894776,-1.11847,324.6, 0.9, 0.5,0,0,878,1024,1241,1024,-22,0,33,0,323.4,0,0,95,4.073,4.07,4.072,4.071,0,0,8.369,68,1027.6711060482,22.309712,6,P-GPS,
28600,2025-03-14 05:24:50,37.0149228072904,140.150106559139,22.637796,,,1027.9991900482,24.6063,1.6105968,34.08628718,34.159449912,21,5,16.294,1027.9991900482,22.637796,2.7290668,34.08628718,-1.342164,0.894776,-1.11847,324.5, 0.5, 0.1,0,0,878,1024,1240,1024,-22,0,33,0,323.4,0,0,95,4.073,4.07,4.072,4.071,0,0,8.369,68,1027.9991900482,22.637796,6,P-GPS,
28800,2025-03-14 05:24:50,37.0149215113708,140.15010743273,22.96588,,,1028.3272740482,25.262468,1.6105968,34.618439428,34.69652342,22,5,16.261,1028.3272740482,22.96588,2.7290668,34.618439428,-1.342164,0.894776,-1.11847,324.4, 0.1, 0.4,0,0,880,1024,1239,1024,-22,0,33,0,323.4,0,0,95,4.069,4.062,4.064,4.062,0,0,8.793,68,1028.3272740482,22.96588,6,P-GPS,
29000,2025-03-14 05:24:51,37.0149201332468,140.150108327365,23.293964,,,1028.6553580482,25.918636,1.6105968,35.178478816,35.262796404,22,5,16.261,1028.6553580482,23.293964,2.7290668,35.178478816,-1.342164,0.894776,-1.11847,324.4, -0.7, 0.9,0,0,880,1024,1239,1024,-22,0,33,0,323.4,0,0,95,4.069,4.062,4.064,4.062,0,0,8.793,68,1028.6553580482,23.293964,6,P-GPS,
29200,2025-03-14 05:24:51,37.0149188133751,140.150109181789,23.950132,,,1029.3115260482,25.918636,1.6105968,35.714896156,35.804791172,22,5,16.261,1029.3115260482,23.950132,2.7290668,35.714896156,-1.342164,0.894776,-1.11847,324.5, -0.8, 0.7,0,0,880,1024,1240,1024,-22,0,33,0,323.4,0,0,95,4.069,4.062,4.064,4.062,0,0,8.793,68,1029.3115260482,23.950132,6,P-GPS,
29400,2025-03-14 05:24:51,37.0149175250369,140.150109999607,24.278216,,,1029.6396100482,26.574804,1.6105968,36.235893548,36.33202216,22,5,16.261,1029.6396100482,24.278216,2.7290668,36.235893548,-1.342164,0.894776,-1.11847,324.3, -0.1, 1.3,0,0,881,1024,1239,1024,-22,0,33,0,323.4,0,0,95,4.069,4.062,4.064,4.062,0,0,8.793,68,1029.6396100482,24.278216,6,P-GPS,
29600,2025-03-14 05:24:51,37.0149163129409,140.150110808247,24.6063,,,1029.9676940482,26.902888,1.4316416,36.732612724,36.833006428,22,5,16.261,1029.9676940482,24.6063,2.7290668,36.732612724,-1.11847,0.894776,-1.11847,324.5, -0.1, 0.6,0,0,881,1024,1240,1024,-22,0,33,0,323.4,0,0,95,4.069,4.062,4.064,4.062,0,0,8.793,68,1029.9676940482,24.6063,6,P-GPS,
29800,2025-03-14 05:24:51,37.014915061533,140.150111695184,24.934384,,,1030.2957780482,27.230972,1.4316416,37.254594368,37.357612744,22,5,16.267,1030.2957780482,24.934384,2.7290668,37.254594368,-1.11847,0.894776,-1.11847,324.5, 0.1, 0.3,0,0,883,1024,1239,1024,-21,0,33,0,323.4,0,0,95,4.07,4.063,4.065,4.065,0,0,8.773,68,1030.2957780482,24.934384,6,P-GPS,
30000,2025-03-14 05:24:52,37.0149138311816,140.150112548868,25.262468,,,1030.6238620482,27.88714,1.6105968,37.764764988,37.87073612,22,5,16.267,1030.6238620482,25.262468,2.7290668,37.764764988,-1.342164,0.894776,-1.11847,324.6, -0.1, 0.5,0,0,881,1024,1239,1024,-22,0,33,0,323.4,0,0,95,4.07,4.063,4.065,4.065,0,0,8.773,68,1030.6238620482,25.262468,6,P-GPS,
30200,2025-03-14 05:24:52,37.0149125673352,140.150113435778,25.590552,,,1030.9519460482,28.215224,1.6105968,38.290355556,38.399279444,22,5,16.267,1030.9519460482,25.590552,2.7290668,38.290355556,-1.342164,0.894776,-1.11847,324.5, -0.6, 0.5,0,0,881,1024,1240,1024,-22,0,33,0,323.4,0,0,95,4.07,4.063,4.065,4.065,0,0,8.773,68,1030.9519460482,25.590552,6,P-GPS,
30400,2025-03-14 05:24:52,37.0149113032145,140.150114336474,25.918636,,,1031.2800300482,28.871392,1.6105968,38.818570796,38.929791272,21,5,16.267,1031.2800300482,25.918636,2.7290668,38.818570796,-1.342164,0.894776,-1.11847,324.4, -0.6, 0.5,0,0,882,1024,1239,1024,-22,0,33,0,323.4,0,0,95,4.07,4.063,4.065,4.065,0,0,8.773,68,1031.2800300482,25.918636,6,P-GPS,
30600,2025-03-14 05:24:52,37.0149099673321,140.150115266111,26.24672,,,1031.6081140482,29.199476,1.6105968,39.373032756,39.487534072,21,5,16.267,1031.6081140482,26.24672,2.7290668,39.373032756,-1.342164,0.894776,-1.11847,324.4, -0.4, 0.2,0,0,882,1024,1239,1024,-22,0,33,0,323.4,0,0,95,4.07,4.063,4.065,4.065,0,0,8.773,68,1031.6081140482,26.24672,6,P-GPS,
30800,2025-03-14 05:24:53,37.0149086769465,140.150116198934,26.574804,,,1031.9361980482,29.52756,1.6105968,39.91469944,40.03116926,21,5,16.255,1031.9361980482,26.574804,2.7290668,39.91469944,-1.342164,0.894776,-1.11847,324.4, -0.8, 0.2,0,0,881,1024,1239,1024,-22,0,33,0,323.4,0,0,95,4.065,4.06,4.064,4.063,0,0,8.756,68.18,1031.9361980482,26.574804,6,P-GPS,
31000,2025-03-14 05:24:53,37.014907504068,140.150117136076,26.902888,,,1032.2642820482,30.183728,1.4316416,40.421917304,40.538715208,21,5,16.255,1032.2642820482,26.902888,2.7290668,40.421917304,-1.11847,0.894776,-1.11847,324.4, -1, 0.1,0,0,882,1024,1239,1024,-22,0,33,0,323.4,0,0,95,4.065,4.06,4.064,4.063,0,0,8.756,68.18,1032.2642820482,26.902888,6,P-GPS,
31200,2025-03-14 05:24:53,37.0149062853928,140.150118108294,27.230972,,,1032.5923660482,30.511812,1.6105968,40.948492124,41.065946196,21,5,16.255,1032.5923660482,27.230972,2.7290668,40.948492124,-1.342164,0.894776,-1.11847,324.4, -1.1, 0,0,0,881,1024,1240,1024,-22,0,33,0,323.4,0,0,95,4.065,4.06,4.064,4.063,0,0,8.756,68.18,1032.5923660482,27.230972,6,P-GPS,
31400,2025-03-14 05:24:53,37.0149050676343,140.150119014489,27.559056,,,1032.9204500482,31.16798,1.4316416,41.463912088,41.582678496,20,5,16.255,1032.9204500482,27.559056,2.7290668,41.463912088,-1.11847,0.894776,-1.11847,324.4, -0.9, 0,0,0,880,1024,1240,1024,-22,0,33,0,323.4,0,0,95,4.065,4.06,4.064,4.063,0,0,8.756,68.18,1032.9204500482,27.559056,6,P-GPS,
31600,2025-03-14 05:24:53,37.0149038190619,140.150119968796,27.88714,,,1033.2485340482,31.496064,1.6105968,41.996720504,42.116471164,21,5,16.255,1033.2485340482,27.88714,2.7290668,41.996720504,-1.342164,0.894776,-1.11847,324.4, -1, -0.2,0,0,880,1024,1239,1024,-22,0,33,0,323.4,0,0,95,4.065,4.06,4.064,4.063,0,0,8.756,68.18,1033.2485340482,27.88714,6,P-GPS,
31800,2025-03-14 05:24:53,37.014902616766,140.150120877979,28.215224,,,1033.5766180482,32.152232,1.6105968,42.50820346,42.628938372,21,5,16.255,1033.5766180482,28.215224,2.7290668,42.50820346,-1.342164,0.894776,-1.11847,324.5, -0.6, 0,0,0,878,1024,1239,1024,-22,0,33,0,323.4,0,0,94,4.07,4.062,4.065,4.065,0,0,8.667,68.36,1033.5766180482,28.215224,6,P-GPS,
32000,2025-03-14 05:24:54,37.0149014878938,140.150121787135,28.871392,,,1034.2327860482,32.480316,1.6105968,42.997376704,43.1184397,21,5,16.255,1034.2327860482,28.871392,2.7290668,42.997376704,-1.342164,0.894776,-1.11847,324.6, -0.9, 0.3,0,0,877,1024,1240,1024,-22,0,33,0,323.4,0,0,94,4.07,4.062,4.065,4.065,0,0,8.667,68.36,1034.2327860482,28.871392,6,P-GPS,
32200,2025-03-14 05:24:54,37.0149003399183,140.150122759557,29.199476,,,1034.5608700482,32.8084,1.6105968,43.502954148,43.624017144,20,5,16.255,1034.5608700482,29.199476,2.7290668,43.502954148,-1.342164,0.894776,-1.11847,324.5, -1, 0.2,0,0,878,1024,1239,1024,-22,0,33,0,323.4,0,0,94,4.07,4.062,4.065,4.065,0,0,8.667,68.36,1034.5608700482,29.199476,6,P-GPS,
32400,2025-03-14 05:24:54,37.0148991711946,140.150123752418,29.52756,,,1034.8889540482,31.496064,1.6105968,44.018374112,44.139437108,20,5,16.255,1034.8889540482,29.52756,2.7290668,44.018374112,-1.342164,0.894776,-1.11847,324.3, -1.1, 0,0,0,878,1024,1239,1024,-22,0,33,0,323.4,0,0,94,4.07,4.062,4.065,4.065,0,0,8.667,68.36,1034.8889540482,29.52756,6,P-GPS,
32600,2025-03-14 05:24:54,37.0148980859518,140.150124643196,29.855644,,,1035.2170380482,31.824148,1.6105968,44.49147124,44.61286232,20,5,16.255,1035.2170380482,29.855644,2.7290668,44.49147124,-1.342164,0.894776,-1.11847,324.4, -1, 0.4,0,0,878,1024,1238,1024,-22,0,32,0,323.4,0,0,94,4.07,4.062,4.065,4.065,0,0,8.667,68.36,1035.2170380482,29.855644,6,P-GPS,
32800,2025-03-14 05:24:54,37.0148969530705,140.150125561739,30.183728,,,1035.5451220482,32.152232,1.6105968,44.983925324,45.105316404,19,5,16.258,1035.5451220482,30.183728,2.7290668,44.983925324,-1.342164,0.894776,-1.11847,324.5, -1.2, 0.5,0,0,879,1024,1238,1024,-22,0,32,0,323.4,0,0,94,4.068,4.062,4.066,4.066,0,0,8.649,68.54,1035.5451220482,30.183728,6,P-GPS,
33000,2025-03-14 05:24:55,37.0148957750264,140.150126516052,30.511812,,,1035.8732060482,32.8084,1.6105968,45.49540828,45.617127444,20,5,16.258,1035.8732060482,30.511812,2.7290668,45.49540828,-1.342164,0.894776,-1.11847,324.3, -1.4, 0.7,0,0,883,1024,1238,1024,-21,0,32,0,323.4,0,0,94,4.068,4.062,4.066,4.066,0,0,8.649,68.54,1035.8732060482,30.511812,6,P-GPS,
33200,2025-03-14 05:24:55,37.0148946470537,140.150127324643,30.839896,,,1036.2012900482,33.136484,1.4987498,45.96784924,46.091208824,21,5,16.258,1036.2012900482,30.839896,2.7290668,45.96784924,-1.342164,0.671082,-1.11847,324.4, -1.4, 0.9,0,0,884,1024,1237,1024,-21,0,32,0,323.4,0,0,94,4.068,4.062,4.066,4.066,0,0,8.649,68.54,1036.2012900482,30.839896,6,P-GPS,
33400,2025-03-14 05:24:55,37.0148934637583,140.150128057791,31.16798,,,1036.5293740482,33.464568,1.4987498,46.444555292,46.572836136,20,5,16.258,1036.5293740482,31.16798,2.7290668,46.444555292,-1.342164,0.671082,-1.11847,324.7, -1, 1.7,0,0,883,1024,1234,1024,-21,0,32,0,323.4,0,0,94,4.068,4.062,4.066,4.066,0,0,8.649,68.54,1036.5293740482,31.16798,6,P-GPS,
33600,2025-03-14 05:24:55,37.0148922850546,140.150128863476,31.496064,,,1036.8574580482,34.120736,1.4316416,46.932088116,47.062993632,20,5,16.258,1036.8574580482,31.496064,2.7290668,46.932088116,-1.11847,0.894776,-1.11847,324.6, -1.3, 1.9,0,0,882,1024,1234,1024,-22,0,32,0,323.4,0,0,94,4.068,4.062,4.066,4.066,0,0,8.649,68.54,1036.8574580482,31.496064,6,P-GPS,
33800,2025-03-14 05:24:55,37.0148911870134,140.150129758239,31.824148,,,1037.1855420482,34.44882,1.4316416,47.40977842,47.540683936,19,5,16.261,1037.1855420482,31.824148,2.7290668,47.40977842,-1.11847,0.894776,-1.11847,324.5, -1.1, 1.1,0,0,881,1024,1234,1024,-22,0,32,0,323.4,0,0,94,4.07,4.063,4.065,4.064,0,0,8.476,68.54,1037.1855420482,31.824148,6,P-GPS,
34000,2025-03-14 05:24:56,37.0148901268191,140.150130700541,32.480316,,,1037.8417100482,34.776904,1.4316416,47.884187884,48.0150934,19,5,16.261,1037.8417100482,32.480316,2.7290668,47.884187884,-1.11847,0.894776,-1.11847,324, -0.9, -0.4,0,0,880,1024,1234,1024,-22,0,32,0,323.4,0,0,94,4.07,4.063,4.065,4.064,0,0,8.476,68.54,1037.8417100482,32.480316,6,P-GPS,
34200,2025-03-14 05:24:56,37.0148890939949,140.150131532231,32.8084,,,1038.1697940482,35.104988,1.4316416,48.332022544,48.463256144,19,5,16.261,1038.1697940482,32.8084,2.7290668,48.332022544,-1.11847,0.894776,-1.11847,324.1, -1, -0.6,0,0,880,1024,1235,1024,-22,0,32,0,323.4,0,0,94,4.07,4.063,4.065,4.064,0,0,8.476,68.54,1038.1697940482,32.8084,6,P-GPS,
34400,2025-03-14 05:24:56,37.014887924149,140.15013227202,33.136484,,,1038.4978780482,35.433072,1.6105968,48.80577584,48.941274532,19,5,16.261,1038.4978780482,33.136484,2.7290668,48.80577584,-1.342164,0.894776,-1.11847,324.2, -0.6, 0,0,0,879,1024,1235,1024,-22,0,32,0,323.4,0,0,94,4.07,4.063,4.065,4.064,0,0,8.476,68.54,1038.4978780482,33.136484,6,P-GPS,
34600,2025-03-14 05:24:56,37.0148867023813,140.150132925509,33.464568,,,1038.8259620482,35.761156,1.4987498,49.28149764,49.4258546,19,5,16.261,1038.8259620482,33.464568,2.7290668,49.28149764,-1.342164,0.671082,-1.11847,324.3, -1.1, 1,0,0,879,1024,1235,1024,-22,0,32,0,323.4,0,0,94,4.07,4.063,4.065,4.064,0,0,8.476,68.54,1038.8259620482,33.464568,6,P-GPS,
34800,2025-03-14 05:24:57,37.0148854517873,140.150133558281,33.792652,,,1039.1540460482,36.08924,1.2974252,49.762468784,49.9179806,19,5,16.248,1039.1540460482,33.792652,2.7290668,49.762468784,-1.11847,0.671082,-1.11847,324.4, -0.4, 0.8,0,0,879,1024,1235,1024,-22,0,32,0,323.4,0,0,94,4.066,4.059,4.061,4.062,0,0,8.566,68.54,1039.1540460482,33.792652,6,P-GPS,
35000,2025-03-14 05:24:57,37.014884108846,140.150134164306,34.120736,,,1039.4821300482,36.417324,1.2974252,50.267061976,50.438977992,20,5,16.248,1039.4821300482,34.120736,2.7290668,50.267061976,-1.11847,0.671082,-1.11847,324.4, -0.1, 0.6,0,0,880,1024,1235,1024,-22,0,32,0,323.4,0,0,94,4.066,4.059,4.061,4.062,0,0,8.566,68.54,1039.4821300482,34.120736,6,P-GPS,
35200,2025-03-14 05:24:57,37.01488284416,140.150134683794,34.44882,,,1039.8102140482,36.745408,1.4987498,50.734581676,50.924542312,21,5,16.248,1039.8102140482,34.44882,2.7290668,50.734581676,-1.342164,0.671082,-1.11847,324.4, -0.2, 0.7,0,0,880,1024,1235,1024,-22,0,32,0,323.4,0,0,94,4.066,4.059,4.061,4.062,0,0,8.566,68.54,1039.8102140482,34.44882,6,P-GPS,
35400,2025-03-14 05:24:57,37.0148815155847,140.150135209806,34.776904,,,1040.1382980482,37.073492,1.4987498,51.222770668,51.432744428,21,5,16.248,1040.1382980482,34.776904,2.7290668,51.222770668,-1.342164,0.671082,-1.11847,324.4, -0.7, 1.6,0,0,897,1024,1235,1024,-19,0,32,0,323.4,0,0,94,4.066,4.059,4.061,4.062,0,0,8.566,68.54,1040.1382980482,34.776904,6,P-GPS,
35600,2025-03-14 05:24:57,37.014880221644,140.150135760558,35.104988,,,1040.4663820482,37.401576,1.4316416,51.704726064,51.931432108,21,5,16.248,1040.4663820482,35.104988,2.7290668,51.704726064,-1.11847,0.894776,-1.11847,324.5, -0.2, 1.3,0,0,895,1024,1234,1024,-20,0,32,0,323.4,0,0,94,4.066,4.059,4.061,4.062,0,0,8.566,68.54,1040.4663820482,35.104988,6,P-GPS,
35800,2025-03-14 05:24:57,37.0148789287998,140.150136359985,35.433072,,,1040.7944660482,37.72966,1.4316416,52.194555476,52.43438488,21,5,16.246,1040.7944660482,35.433072,2.7290668,52.194555476,-1.11847,0.894776,-1.11847,324.4, -0.7, 1,0,0,892,1024,1235,1024,-20,0,32,0,323.4,0,0,94,4.066,4.06,4.06,4.061,0,0,8.58,68.72,1040.7944660482,35.433072,6,P-GPS,
36000,2025-03-14 05:24:58,37.0148776384485,140.150137014825,36.08924,,,1041.4506340482,38.057744,1.4316416,52.692586988,52.942586996,21,5,16.246,1041.4506340482,36.08924,2.7290668,52.692586988,-1.11847,0.894776,-1.11847,324.6, -0.9, 0.3,0,0,893,1024,1234,1024,-20,0,32,0,323.4,0,0,94,4.066,4.06,4.06,4.061,0,0,8.58,68.72,1041.4506340482,36.08924,6,P-GPS,
36200,2025-03-14 05:24:58,37.0148764869778,140.150137662745,36.417324,,,1041.7787180482,38.385828,1.4316416,53.147639496,53.402888848,22,5,16.246,1041.7787180482,36.417324,2.7290668,53.147639496,-1.11847,0.894776,-1.11847,324.5, -0.3, 0.2,0,0,908,1042,1235,1024,-18,3,32,0,323.4,0,0,94,4.066,4.06,4.06,4.061,0,0,8.58,68.72,1041.7787180482,36.417324,6,P-GPS,
36400,2025-03-14 05:24:58,37.0148753232741,140.1501383203,36.745408,,,1042.1068020482,38.713912,1.4316416,53.607613264,53.868768128,22,5,16.246,1042.1068020482,36.745408,2.7290668,53.607613264,-1.11847,0.894776,-1.11847,324.6, -0.1, -0.3,0,0,911,1059,1235,1024,-17,5,32,0,323.4,0,0,94,4.066,4.06,4.06,4.061,0,0,8.58,68.72,1042.1068020482,36.745408,6,P-GPS,
36600,2025-03-14 05:24:58,37.0148741151529,140.15013897999,37.073492,,,1042.4348860482,39.041996,1.4316416,54.082022728,54.349739272,22,5,16.246,1042.4348860482,37.073492,2.7290668,54.082022728,-1.11847,0.894776,-1.11847,324.6, -0.3, -0.5,0,0,909,1065,1235,1024,-17,6,32,0,323.4,0,0,94,4.066,4.06,4.06,4.061,0,0,8.58,68.72,1042.4348860482,37.073492,6,P-GPS,
36800,2025-03-14 05:24:58,37.0148728878684,140.150139624423,37.401576,,,1042.7629700482,39.37008,1.4316416,54.559713032,54.835303592,22,5,16.237,1042.7629700482,37.401576,2.7290668,54.559713032,-1.11847,0.894776,-1.11847,324.5, -1, -0.6,0,0,909,1062,1234,1024,-17,6,32,0,323.4,0,0,94,4.064,4.057,4.058,4.06,0,0,8.634,68.72,1042.7629700482,37.401576,6,P-GPS,
37000,2025-03-14 05:24:59,37.0148716879282,140.150140233764,37.72966,,,1043.0910540482,39.698164,1.4316416,55.023623808,55.307744552,21,5,16.237,1043.0910540482,37.72966,2.7290668,55.023623808,-1.11847,0.894776,-1.11847,324.5, -1.2, -0.3,0,0,905,1065,1235,1024,-18,6,32,0,323.4,0,0,94,4.064,4.057,4.058,4.06,0,0,8.634,68.72,1043.0910540482,37.72966,6,P-GPS,
37200,2025-03-14 05:24:59,37.0148705849612,140.150140817248,38.057744,,,1043.4191380482,40.026248,1.2750558,55.454070016,55.744424356,21,5,16.237,1043.4191380482,38.057744,2.7290668,55.454070016,-0.894776,0.894776,-1.11847,324.5, -0.6, -0.2,0,0,906,1074,1234,1024,-18,8,32,0,323.4,0,0,94,4.064,4.057,4.058,4.06,0,0,8.634,68.72,1043.4191380482,38.057744,6,P-GPS,
37400,2025-03-14 05:24:59,37.014869525538,140.150141360705,38.385828,,,1043.7472220482,40.354332,1.2750558,55.864831184,56.162075288,21,5,16.237,1043.7472220482,38.385828,2.7290668,55.864831184,-0.894776,0.894776,-1.11847,324.5, -0.8, -0.5,0,0,906,1078,1234,1024,-18,8,32,0,323.4,0,0,94,4.064,4.057,4.058,4.06,0,0,8.634,68.72,1043.7472220482,38.385828,6,P-GPS,
37600,2025-03-14 05:24:59,37.014868429073,140.150141921659,38.713912,,,1044.0753060482,40.682416,1.11847,56.289699964,56.594161916,21,5,16.237,1044.0753060482,38.713912,2.7290668,56.289699964,-0.894776,0.671082,-1.11847,324.4, -0.9, -0.9,0,0,905,1078,1233,1024,-18,8,32,0,323.4,0,0,94,4.064,4.057,4.058,4.06,0,0,8.634,68.72,1044.0753060482,38.713912,6,P-GPS,
