time(millisecond),datetime(utc),latitude,longitude,height_above_takeoff(feet),height_above_ground_at_drone_location(feet),ground_elevation_at_drone_location(feet),altitude_above_seaLevel(feet),height_sonar(feet),speed(mph),distance(feet),mileage(feet),satellites,gpslevel,voltage(v),max_altitude(feet),max_ascent(feet),max_speed(mph),max_distance(feet), xSpeed(mph), ySpeed(mph), zSpeed(mph), compass_heading(degrees), pitch(degrees), roll(degrees),isPhoto,isVideo,rc_elevator,rc_aileron,rc_throttle,rc_rudder,rc_elevator(percent),rc_aileron(percent),rc_throttle(percent),rc_rudder(percent),gimbal_heading(degrees),gimbal_pitch(degrees),gimbal_roll(degrees),battery_percent,voltageCell1,voltageCell2,voltageCell3,voltageCell4,voltageCell5,voltageCell6,current(A),battery_temperature(f),altitude(feet),ascent(feet),flycStateRaw,flycState,message
100,2025-03-14 05:04:16,37.0150537890237,140.1499987333,0,Available with any HD 360 subscription,Available with any HD 360 subscription,1005.283598114,0,0,0,0,15,5,0,1005.283598114,0,0,0,0,0,0,303.3, 3.6, 0,0,0,1024,1024,1024,1024,0,0,0,0,299.1,0,0,87,4.13,4.13,4.13,4.129,0,0,0,73.94,1005.283598114,0,41,Motors_Started,
300,2025-03-14 05:04:17,37.0150538178779,140.149998545808,0,,,1005.283598114,0,0,0.055626314116,0.055626314116,15,5,0,1005.283598114,0,0,0.055626314116,0,0,0,303.3, 3.5, 0,0,0,1024,1024,1024,1024,0,0,0,0,299.1,0,0,87,4.13,4.13,4.13,4.129,0,0,0,73.94,1005.283598114,0,41,Motors_Started,"飛行中 機体は飛行していません。ビジョンシステムと障害物回避が無効です (Code: 180059)"
500,2025-03-14 05:04:17,37.0150538667521,140.149998326966,0,,,1005.283598114,0,0,0.121724413344,0.121826775552,15,5,0,1005.283598114,0,0,0.121724413344,0,0,0,303.3, 3.5, 0,0,0,1024,1024,1024,1024,0,0,0,0,299.1,0,0,87,4.13,4.13,4.13,4.129,0,0,0,73.94,1005.283598114,0,41,Motors_Started,"Setting new Return-To-Home altitude to 100m (328 ft). Data Recorder File Index is 112. Setting new Maximum Flight Altitude to 150m (492 ft)"
700,2025-03-14 05:04:17,37.0150539322004,140.149998110972,0,,,1005.283598114,0,0,0.188674874804,0.189129599228,15,5,0,1005.283598114,0,0,0.188674874804,0,0,0,303.3, 3.6, 0,0,0,1024,1024,1024,1024,0,0,0,0,299.1,0,0,87,4.13,4.13,4.13,4.129,0,0,0,73.94,1005.283598114,0,41,Motors_Started,
900,2025-03-14 05:04:17,37.0150540091321,140.149997916043,0,,,1005.283598114,0,0,0.251265427988,0.252475073696,15,5,0,1005.283598114,0,0,0.251265427988,0,0,0,303.4, 3.6, 0,0,0,1024,1024,1024,1024,0,0,0,0,299.1,0,0,87,4.13,4.13,4.13,4.129,0,0,0,73.94,1005.283598114,0,41,Motors_Started,
1100,2025-03-14 05:04:17,37.0150540986459,140.149997736744,0,,,1005.283598114,0,0,0.311524288184,0.314078750208,15,5,16.628,1005.283598114,0,0,0.311524288184,0,0,0,303.4, 3.6, 0,0,0,1024,1024,1024,1024,0,0,0,0,299.1,0,0,87,4.13,4.13,4.13,4.129,0,0,1.382,73.94,1005.283598114,0,41,Motors_Started,
1300,2025-03-14 05:04:18,37.0150541965357,140.149997560809,0,,,1005.283598114,0,0,0.37252953948,0.37654856848,15,5,16.628,1005.283598114,0,0,0.37252953948,0,0,0,303.4, 3.6, 0,0,0,1024,1024,1024,1024,0,0,0,0,299.1,0,0,87,4.13,4.13,4.13,4.129,0,0,1.382,73.94,1005.283598114,0,41,Motors_Started,
1700,2025-03-14 05:04:18,37.0150544536322,140.14999731094,0,,,1005.283598114,0,0,0.4801017214,0.49528216808,15,5,16.628,1005.283598114,0,0,0.4801017214,0,0,0,303.4, 3.7, 0,0,0,1024,1024,1024,1024,0,0,0,0,299.1,0,0,87,4.13,4.13,4.13,4.129,0,0,1.382,73.94,1005.283598114,0,11,AutoTakeoff,
1900,2025-03-14 05:04:18,37.0150545946137,140.149997221071,0,,,1005.283598114,0,0,0.52959647364,0.55299870536,15,5,16.628,1005.283598114,0,0,0.52959647364,0,0,0,303.4, 3.7, 0,0,0,1024,1024,1024,1024,0,0,0,0,299.2,0,0,87,4.13,4.13,4.13,4.129,0,0,1.382,73.94,1005.283598114,0,11,AutoTakeoff,
2100,2025-03-14 05:04:18,37.0150547302946,140.149997130822,0,,,1005.283598114,0,0,0.57955054348,0.60905185676,15,5,16.45,1005.283598114,0,0,0.57955054348,0,0,0,303.3, -0.4, 0,0,0,1024,1024,1024,1024,0,0,0,0,299.2,0,0,87,4.117,4.123,4.129,4.132,0,0,4.735,73.76,1005.283598114,0,11,AutoTakeoff,
2300,2025-03-14 05:04:19,37.0150549222813,140.149997028161,0,,,1005.283598114,0.328084,0,0.6463090758,0.68521327652,15,5,16.45,1005.283598114,0,0,0.6463090758,0,0,-0.671082,303.3, -3.1, 0.5,0,0,1024,1024,1024,1024,0,0,0,0,299.2,0,0,87,4.117,4.123,4.129,4.132,0,0,4.735,73.76,1005.283598114,0,11,AutoTakeoff,
2500,2025-03-14 05:04:19,37.0150552555985,140.149996748839,0.328084,,,1005.611682114,0.328084,0,0.78773952652,0.83153874052,15,5,16.45,1005.611682114,0.328084,0,0.78773952652,0,0,-0.894776,303, 1.4, -0.8,0,0,1024,1024,1024,1024,0,0,0,0,299.2,0,0,87,4.117,4.123,4.129,4.132,0,0,4.735,73.76,1005.611682114,0.328084,11,AutoTakeoff,
2700,2025-03-14 05:04:19,37.0150554942662,140.14999644249,0.656168,,,1005.939766114,0.656168,0,0.91239176148,0.95622706472,16,5,16.45,1005.939766114,0.656168,0,0.91239176148,0,0,-0.894776,303.2, 2.2, -0.5,0,0,1024,1024,1024,1024,0,0,0,0,299.2,0,0,87,4.117,4.123,4.129,4.132,0,0,4.735,73.76,1005.939766114,0.656168,11,AutoTakeoff,
2900,2025-03-14 05:04:19,37.0150555832682,140.149996216831,0.656168,,,1005.939766114,0.984252,0,0.98284451964,1.02955055788,16,5,16.45,1005.939766114,0.656168,0,0.98284451964,0,0,-0.671082,303.1, 1, 1.4,0,0,1024,1024,1024,1024,0,0,0,0,299.2,0,0,87,4.117,4.123,4.129,4.132,0,0,4.735,73.76,1005.939766114,0.656168,11,AutoTakeoff,
3100,2025-03-14 05:04:19,37.0150556299279,140.149996149771,0.984252,,,1006.267850114,1.312336,0,1.00875659396,1.0554626322,16,5,16.453,1006.267850114,0.984252,0,1.00875659396,0,0,-0.894776,303.2, 0.3, 1.6,0,0,1024,1024,1024,1024,0,0,0,0,299.2,0,0,87,4.09,4.087,4.084,4.08,0,0,3.647,73.94,1006.267850114,0.984252,11,AutoTakeoff,
3300,2025-03-14 05:04:20,37.0150556956011,140.149996191865,1.312336,,,1006.595934114,1.64042,0,1.0158957018,1.08237864356,15,5,16.453,1006.595934114,1.312336,0,1.0158957018,0,0,-0.894776,303.1, 0.1, 1.3,0,0,1024,1024,1024,1024,0,0,0,0,299.2,0,0,87,4.09,4.087,4.084,4.08,0,0,3.647,73.94,1006.595934114,1.312336,11,AutoTakeoff,
3500,2025-03-14 05:04:20,37.0150558146566,140.149996277836,1.64042,,,1006.924018114,1.64042,0,1.02854334,1.13251972128,15,5,16.453,1006.924018114,1.64042,0,1.02854334,0,0,-0.894776,303.1, 0.1, 1.6,0,0,1024,1024,1024,1024,0,0,0,0,299.2,0,0,87,4.09,4.087,4.084,4.08,0,0,3.647,73.94,1006.924018114,1.64042,11,AutoTakeoff,"ホームポイントを更新 (Code: 3000001)"
3700,2025-03-14 05:04:20,37.0150559937377,140.149996382646,1.968504,,,1007.252102114,2.296588,0,1.05640751412,1.20463914616,15,5,16.453,1007.252102114,1.968504,0,1.05640751412,0,0,-1.11847,303.1, -0.1, 1.2,0,0,1024,1024,1024,1024,0,0,0,0,299.2,0,0,87,4.09,4.087,4.084,4.08,0,0,3.647,73.94,1007.252102114,1.968504,11,AutoTakeoff,
3900,2025-03-14 05:04:20,37.0150562214146,140.149996506511,2.296588,,,1007.580186114,2.624672,0,1.0992782504,1.29520673436,15,5,16.453,1007.580186114,2.296588,0,1.0992782504,0,0,-1.11847,303.1, -0.2, 0.9,0,0,1024,1024,1024,1024,0,0,0,0,299.2,0,0,87,4.09,4.087,4.084,4.08,0,0,3.647,73.94,1007.580186114,2.296588,11,AutoTakeoff,
4100,2025-03-14 05:04:20,37.0150565393678,140.149996672156,2.624672,,,1007.908270114,2.952756,0,1.16939636288,1.420849783,15,5,16.232,1007.908270114,2.624672,0,1.16939636288,0,0,-0.894776,303.1, -0.1, 0.2,0,0,1024,1024,1024,1024,0,0,0,0,299.2,0,0,87,4.054,4.054,4.056,4.055,0,0,8.601,73.76,1007.908270114,2.624672,11,AutoTakeoff,
4300,2025-03-14 05:04:21,37.0150569163036,140.149996795104,2.952756,,,1008.236354114,3.28084,0,1.27305450268,1.56296264844,15,5,16.232,1008.236354114,2.952756,0,1.27305450268,0,0,-1.11847,303.3, 0.2, -0.3,0,0,1024,1024,1024,1024,0,0,0,0,299.2,0,0,87,4.054,4.054,4.056,4.055,0,0,8.601,73.76,1008.236354114,2.952756,11,AutoTakeoff,
4500,2025-03-14 05:04:21,37.0150573108308,140.149996896109,3.28084,,,1008.564438114,3.608924,0,1.39194230176,1.70988194448,15,5,16.232,1008.564438114,3.28084,0,1.39194230176,0,0,-0.894776,303.3, 0.5, -0.5,0,0,1024,1024,1024,1024,0,0,0,0,299.2,0,0,87,4.054,4.054,4.056,4.055,0,0,8.601,73.76,1008.564438114,3.28084,11,AutoTakeoff,
4700,2025-03-14 05:04:21,37.0150576176881,140.149996951208,3.608924,,,1008.892522114,3.937008,0,1.49024282984,1.8229823418,15,5,16.232,1008.892522114,3.608924,0,1.49024282984,0,0,-0.447388,303.4, 0.7, 0,0,0,1024,1024,1024,1024,0,0,0,0,299.2,0,0,87,4.054,4.054,4.056,4.055,0,0,8.601,73.76,1008.892522114,3.608924,6,P-GPS,
4900,2025-03-14 05:04:21,37.0150579305635,140.149997002202,3.608924,,,1008.892522114,3.937008,0,1.59297249192,1.93809717488,15,5,16.232,1008.892522114,3.608924,0,1.59297249192,0,0,0,303.4, 0.3, 0.3,0,0,1024,1024,1024,1024,0,0,0,0,299.2,0,0,87,4.054,4.054,4.056,4.055,0,0,8.601,73.76,1008.892522114,3.608924,6,P-GPS,
5100,2025-03-14 05:04:21,37.0150582226585,140.149997086026,3.608924,,,1008.892522114,3.937008,0,1.68729336108,2.04743116788,15,5,16.208,1008.892522114,3.608924,0,1.68729336108,0,0,0,303.3, -0.1, 0.7,0,0,1024,1024,1024,1024,0,0,0,0,299.2,0,0,87,4.05,4.051,4.052,4.052,0,0,9.204,73.94,1008.892522114,3.608924,6,P-GPS,
5300,2025-03-14 05:04:22,37.0150584830425,140.149997190158,3.608924,,,1008.892522114,3.937008,0,1.77062997792,2.14715886136,15,5,16.208,1008.892522114,3.608924,0,1.77062997792,0,0,0,303.3, 0.2, 0.3,0,0,1024,1024,1024,1024,0,0,0,0,299.2,0,0,87,4.05,4.051,4.052,4.052,0,0,9.204,73.94,1008.892522114,3.608924,6,P-GPS,
5500,2025-03-14 05:04:22,37.0150587071214,140.149997212952,3.608924,,,1008.892522114,3.937008,0,1.84822184392,2.2291831422,16,5,16.208,1008.892522114,3.608924,0,1.84822184392,0,0,0,303.2, 0.3, 0.6,0,0,1024,1024,1024,1024,0,0,0,0,299.2,0,0,87,4.05,4.051,4.052,4.052,0,0,9.204,73.94,1008.892522114,3.608924,6,P-GPS,
5700,2025-03-14 05:04:22,37.0150588597577,140.149997237701,3.608924,,,1008.892522114,3.937008,0,1.90066935216,2.28533799964,15,5,16.208,1008.892522114,3.608924,0,1.90066935216,0,0,0,303.2, 0, 1.1,0,0,1024,1024,1024,1024,0,0,0,0,299.2,0,0,87,4.05,4.051,4.052,4.052,0,0,9.204,73.94,1008.892522114,3.608924,6,P-GPS,
5900,2025-03-14 05:04:22,37.0150590209734,140.149997246449,3.608924,,,1008.892522114,3.937008,0,1.95740163744,2.3442093926,15,5,16.208,1008.892522114,3.608924,0,1.95740163744,0,0,0,303.3, 0.2, 0.7,0,0,1024,1024,1024,1024,0,0,0,0,299.2,0,0,87,4.05,4.051,4.052,4.052,0,0,9.204,73.94,1008.892522114,3.608924,6,P-GPS,
6100,2025-03-14 05:04:22,37.0150591525338,140.149997236199,3.608924,,,1008.892522114,3.937008,0,2.0048885156,2.39230322616,15,5,16.246,1008.892522114,3.608924,0,2.0048885156,0,0,0,303.3, 0, 0.4,0,0,1024,1024,1024,1024,0,0,0,0,299.2,0,0,87,4.052,4.054,4.055,4.052,0,0,8.362,73.94,1008.892522114,3.608924,6,P-GPS,
6300,2025-03-14 05:04:23,37.0150592523018,140.149997196263,3.608924,,,1008.892522114,3.937008,0,2.04294954044,2.43051845048,15,5,16.246,1008.892522114,3.608924,0,2.04294954044,0,0,0,303.3, -0.1, 0.3,0,0,1024,1024,1024,1024,0,0,0,0,299.2,0,0,87,4.052,4.054,4.055,4.052,0,0,8.362,73.94,1008.892522114,3.608924,6,P-GPS,
6500,2025-03-14 05:04:23,37.0150593009661,140.149997154248,3.608924,,,1008.892522114,3.937008,0,2.06297250696,2.4520834118,15,5,16.246,1008.892522114,3.608924,0,2.06297250696,0,0,0,303.3, -0.1, 0.3,0,0,1024,1024,1024,1024,0,0,0,0,299.2,0,0,87,4.052,4.054,4.055,4.052,0,0,8.362,73.94,1008.892522114,3.608924,6,P-GPS,
6700,2025-03-14 05:04:23,37.0150593128436,140.149997041065,3.608924,,,1008.892522114,3.937008,0,2.07478353096,2.48533800604,15,5,16.246,1008.892522114,3.608924,0,2.07478353096,0,0,0,303.2, 0, 0.6,0,0,1024,1024,1024,1024,0,0,0,0,299.2,0,0,87,4.052,4.054,4.055,4.052,0,0,8.362,73.94,1008.892522114,3.608924,6,P-GPS,
6900,2025-03-14 05:04:23,37.0150593152015,140.149996931551,3.608924,,,1008.892522114,3.937008,0,2.08342526352,2.51725401756,15,5,16.246,1008.892522114,3.608924,0,2.08342526352,0,0,0,303.2, -0.2, 0.8,0,0,1024,1024,1024,1024,0,0,0,0,299.2,0,0,87,4.052,4.054,4.055,4.052,0,0,8.362,73.94,1008.892522114,3.608924,6,P-GPS,
7100,2025-03-14 05:04:23,37.015059303112,140.149996793645,3.608924,,,1008.892522114,3.937008,0,2.08966214036,2.55767068552,15,5,16.195,1008.892522114,3.608924,0,2.08966214036,0,0,0,303.2, -0.6, 0.4,0,0,1024,1024,1024,1024,0,0,0,0,299.2,0,0,87,4.046,4.05,4.049,4.048,0,0,8.771,73.94,1008.892522114,3.608924,6,P-GPS,
7300,2025-03-14 05:04:24,37.0150592703022,140.149996577925,3.28084,,,1008.564438114,3.937008,0,2.09610242928,2.62164706552,15,5,16.195,1008.892522114,3.608924,0,2.09610242928,0,0,0,303.1, -0.1, 0.6,0,0,1024,1024,1024,1024,0,0,0,0,299.2,0,0,87,4.046,4.05,4.049,4.048,0,0,8.771,73.94,1008.564438114,3.28084,6,P-GPS,
7500,2025-03-14 05:04:24,37.0150592087752,140.149996327691,3.28084,,,1008.564438114,3.937008,0,2.09791017212,2.69792331468,15,5,16.195,1008.892522114,3.608924,0,2.09791017212,0,0,0,303.3, 0, 0.5,0,0,1024,1024,1024,1024,0,0,0,0,299.2,0,0,87,4.046,4.05,4.049,4.048,0,0,8.771,73.94,1008.564438114,3.28084,6,P-GPS,
7700,2025-03-14 05:04:24,37.015059159402,140.149996091138,3.28084,,,1008.564438114,3.937008,0,2.10514770516,2.76915363192,15,5,16.195,1008.892522114,3.608924,0,2.10514770516,0,0,0,303.3, 0.1, 0.2,0,0,1024,1024,1024,1024,0,0,0,0,299.2,0,0,87,4.046,4.05,4.049,4.048,0,0,8.771,73.94,1008.564438114,3.28084,6,P-GPS,
7900,2025-03-14 05:04:24,37.0150591184133,140.149995853058,3.28084,,,1008.564438114,3.937008,0,2.11774613076,2.84010507776,15,5,16.195,1008.892522114,3.608924,0,2.11774613076,0,0,0,303.2, 0, 0.2,0,0,1024,1024,1024,1024,0,0,0,0,299.2,0,0,87,4.046,4.05,4.049,4.048,0,0,8.771,73.94,1008.564438114,3.28084,6,P-GPS,
8100,2025-03-14 05:04:24,37.0150590915102,140.149995617159,3.28084,,,1008.564438114,3.937008,0,2.13701450408,2.90952437132,15,5,16.192,1008.892522114,3.608924,0,2.13701450408,0,0,0,303.3, 0.2, 0,0,0,1024,1024,1024,1024,0,0,0,0,299.2,0,0,87,4.044,4.049,4.048,4.049,0,0,8.67,74.12,1008.564438114,3.28084,6,P-GPS,
8300,2025-03-14 05:04:25,37.0150590608741,140.149995377271,3.28084,,,1008.564438114,3.937008,0,2.15765426852,2.9802986518,15,5,16.192,1008.892522114,3.608924,0,2.15765426852,0,0,0,303.2, 0, 0,0,0,1024,1024,1024,1024,0,0,0,0,299.2,0,0,87,4.044,4.049,4.048,4.049,0,0,8.67,74.12,1008.564438114,3.28084,6,P-GPS,
8500,2025-03-14 05:04:25,37.015059027409,140.149995124425,3.28084,,,1008.564438114,3.937008,0,2.18130912492,3.05496400852,15,5,16.192,1008.892522114,3.608924,0,2.18130912492,0,0,0,303.2, -0.1, -0.2,0,0,1024,1024,1024,1024,0,0,0,0,299.2,0,0,87,4.044,4.049,4.048,4.049,0,0,8.67,74.12,1008.564438114,3.28084,6,P-GPS,
8700,2025-03-14 05:04:25,37.015059008312,140.149994852946,3.28084,,,1008.564438114,3.937008,0,2.21451450656,3.13435705568,15,5,16.192,1008.892522114,3.608924,0,2.21451450656,0,0,0,303, -0.3, -0.1,0,0,1024,1024,1040,1024,0,0,2,0,299.2,0,0,87,4.044,4.049,4.048,4.049,0,0,8.67,74.12,1008.564438114,3.28084,6,P-GPS,
8900,2025-03-14 05:04:25,37.0150590140709,140.149994561728,3.28084,,,1008.564438114,3.937008,0,2.26077435056,3.21922254396,15,5,16.192,1008.892522114,3.608924,0,2.26077435056,0,0,0,303, 0, -0.4,0,0,1024,1024,1073,1024,0,0,7,0,299.2,0,0,87,4.044,4.049,4.048,4.049,0,0,8.67,74.12,1008.564438114,3.28084,6,P-GPS,
9100,2025-03-14 05:04:26,37.0150590361554,140.149994283983,3.28084,,,1008.564438114,3.937008,0,2.31194561204,3.30052504,15,5,16.184,1008.892522114,3.608924,0,2.31194561204,0,0,0,303, -0.1, -0.3,0,0,1024,1024,1125,1024,0,0,15,0,299.2,0,0,86,4.044,4.046,4.047,4.047,0,0,8.641,74.12,1008.564438114,3.28084,6,P-GPS,
9300,2025-03-14 05:04:26,37.0150590606235,140.149993997785,3.28084,,,1008.564438114,3.937008,0,2.36694889464,3.3843833104,14,5,16.184,1008.892522114,3.608924,0,2.36694889464,0,0,0,303, -0.1, -0.1,0,0,1024,1024,1138,1024,0,0,17,0,299.2,0,0,86,4.044,4.046,4.047,4.047,0,0,8.641,74.12,1008.564438114,3.28084,6,P-GPS,
9500,2025-03-14 05:04:26,37.0150591065037,140.149993747938,3.28084,,,1008.564438114,3.937008,0,2.42347776784,3.4590880372,14,5,16.184,1008.892522114,3.608924,0,2.42347776784,0,0,0,303, -0.1, -0.1,0,0,1024,1024,1168,1024,0,0,22,0,299.2,0,0,86,4.044,4.046,4.047,4.047,0,0,8.641,74.12,1008.564438114,3.28084,6,P-GPS,
9700,2025-03-14 05:04:26,37.0150591884104,140.149993507788,3.608924,,,1008.892522114,3.937008,0,2.48961950224,3.5351379084,15,5,16.184,1008.892522114,3.608924,0,2.48961950224,0,0,-0.223694,303.1, -0.4, -0.3,0,0,1024,1024,1174,1024,0,0,23,0,299.2,0,0,86,4.044,4.046,4.047,4.047,0,0,8.641,74.12,1008.892522114,3.608924,6,P-GPS,
9900,2025-03-14 05:04:26,37.0150592852015,140.149993276287,3.608924,,,1008.892522114,4.265092,0,2.55899942572,3.6112862048,14,5,16.184,1008.892522114,3.608924,0,2.55899942572,0,0,-0.447388,303, 0, -0.4,0,0,1024,1024,1200,1024,0,0,27,0,299.2,0,0,86,4.044,4.046,4.047,4.047,0,0,8.641,74.12,1008.892522114,3.608924,6,P-GPS,
10100,2025-03-14 05:04:26,37.0150593928849,140.149993082111,3.608924,,,1008.892522114,4.265092,0,2.62500336484,3.6801510364,14,5,16.175,1008.892522114,3.608924,0,2.62500336484,0,0,-0.447388,302.9, 0.2, -0.5,0,0,1024,1024,1201,1024,0,0,27,0,299.2,0,0,86,4.038,4.04,4.039,4.038,0,0,8.673,74.12,1008.892522114,3.608924,6,P-GPS,
10300,2025-03-14 05:04:27,37.0150594799187,140.149992945043,3.937008,,,1009.220606114,4.593176,0,2.6748032352,3.7311680984,17,5,16.175,1009.220606114,3.937008,0,2.6748032352,0,0,-0.671082,303, 0.2, -0.3,0,0,1024,1024,1201,1024,0,0,27,0,299.2,0,0,86,4.038,4.04,4.039,4.038,0,0,8.673,74.12,1009.220606114,3.937008,6,P-GPS,
10500,2025-03-14 05:04:27,37.0150596040713,140.149992856754,4.265092,,,1009.548690114,4.92126,0,2.72619431296,3.7832678376,14,5,16.175,1009.548690114,4.265092,0,2.72619431296,0,0,-0.894776,303.1, -0.1, -0.4,0,0,1024,1024,1198,1024,0,0,26,0,299.2,0,0,86,4.038,4.04,4.039,4.038,0,0,8.673,74.12,1009.548690114,4.265092,6,P-GPS,
10700,2025-03-14 05:04:27,37.0150597725899,140.149992839143,4.593176,,,1009.876774114,5.249344,0,2.77748040384,3.8449476296,16,5,16.175,1009.876774114,4.593176,0,2.77748040384,0,0,-0.671082,303.2, -0.4, -0.5,0,0,1024,1024,1190,1024,0,0,25,0,299.2,0,0,86,4.038,4.04,4.039,4.038,0,0,8.673,74.12,1009.876774114,4.593176,6,P-GPS,
10900,2025-03-14 05:04:27,37.015059924815,140.149992868445,4.593176,,,1009.876774114,5.249344,0,2.81615494576,3.9011484188,16,5,16.175,1009.876774114,4.593176,0,2.81615494576,0,0,-0.671082,303.2, -0.5, -0.7,0,0,1024,1024,1163,1024,0,0,21,0,299.2,0,0,86,4.038,4.04,4.039,4.038,0,0,8.673,74.12,1009.876774114,4.593176,6,P-GPS,
11100,2025-03-14 05:04:27,37.0150601081965,140.149992875275,4.92126,,,1010.204858114,5.577428,0,2.86844497368,3.9680775548,15,5,16.135,1010.204858114,4.92126,0,2.86844497368,0,0,-0.671082,303, -0.6, -0.7,0,0,1024,1024,1114,1024,0,0,14,0,299.2,0,0,86,4.035,4.036,4.037,4.033,0,0,9.138,74.3,1010.204858114,4.92126,6,P-GPS,
11300,2025-03-14 05:04:28,37.0150603108656,140.149992887386,5.249344,,,1010.532942114,5.905512,0,2.92615166844,4.0421261136,15,5,16.135,1010.532942114,5.249344,0,2.92615166844,0,0,-0.447388,303, -0.2, -1.1,0,0,1024,1024,1109,1024,0,0,13,0,299.2,0,0,86,4.035,4.036,4.037,4.033,0,0,9.138,74.3,1010.532942114,5.249344,6,P-GPS,
11500,2025-03-14 05:04:28,37.0150604994813,140.149992878118,5.249344,,,1010.532942114,5.905512,0,2.98392398,4.1109909452,15,5,16.135,1010.532942114,5.249344,0,2.98392398,0,0,-0.223694,303, -0.6, -1.2,0,0,1024,1024,1110,1024,0,0,13,0,299.2,0,0,86,4.035,4.036,4.037,4.033,0,0,9.138,74.3,1010.532942114,5.249344,6,P-GPS,
11700,2025-03-14 05:04:28,37.0150606661088,140.149992850759,5.249344,,,1010.532942114,5.905512,0,3.03849419172,4.1723098448,15,5,16.135,1010.532942114,5.249344,0,3.03849419172,0,0,-0.223694,303.1, -0.5, -0.9,0,0,1024,1024,1121,1024,0,0,15,0,299.2,0,0,86,4.035,4.036,4.037,4.033,0,0,9.138,74.3,1010.532942114,5.249344,6,P-GPS,
11900,2025-03-14 05:04:28,37.0150608623958,140.149992830132,5.249344,,,1010.532942114,6.233596,0,3.10122385252,4.2441602408,15,5,16.135,1010.532942114,5.249344,0,3.10122385252,0,0,0,303.2, -0.4, -1,0,0,1024,1024,1140,1024,0,0,18,0,299.2,0,0,86,4.035,4.036,4.037,4.033,0,0,9.138,74.3,1010.532942114,5.249344,6,P-GPS,
12100,2025-03-14 05:04:28,37.0150610483109,140.149992817073,5.577428,,,1010.861026114,6.233596,0,3.15996729272,4.3121064372,15,5,16.156,1010.861026114,5.577428,0,3.15996729272,0,0,-0.223694,303.2, -0.2, -1,0,0,1024,1024,1175,1024,0,0,23,0,299.2,0,0,86,4.036,4.036,4.042,4.04,0,0,8.91,74.3,1010.861026114,5.577428,6,P-GPS,
12300,2025-03-14 05:04:29,37.015061214054,140.149992802108,5.577428,,,1010.861026114,6.233596,0,3.21316283248,4.3727363604,15,5,16.156,1010.861026114,5.577428,0,3.21316283248,0,0,-0.223694,303.1, 0, -1,0,0,1024,1024,1177,1024,0,0,23,0,299.2,0,0,86,4.036,4.036,4.042,4.04,0,0,8.91,74.3,1010.861026114,5.577428,6,P-GPS,
12500,2025-03-14 05:04:29,37.0150613737319,140.149992795642,5.577428,,,1010.861026114,6.56168,0,3.26342858212,4.4310368872,15,5,16.156,1010.861026114,5.577428,0,3.26342858212,0,0,-0.447388,303.1, 0, -0.8,0,0,1024,1024,1182,1024,0,0,24,0,299.2,0,0,86,4.036,4.036,4.042,4.04,0,0,8.91,74.3,1010.861026114,5.577428,6,P-GPS,
12700,2025-03-14 05:04:29,37.0150615106872,140.149992767197,5.905512,,,1011.189110114,6.56168,0,3.3102363264,4.4816602484,15,5,16.156,1011.189110114,5.905512,0,3.3102363264,0,0,-0.447388,303.1, 0.1, -0.9,0,0,1024,1024,1204,1024,0,0,27,0,299.2,0,0,86,4.036,4.036,4.042,4.04,0,0,8.91,74.3,1011.189110114,5.905512,6,P-GPS,
12900,2025-03-14 05:04:29,37.0150616110698,140.14999278203,5.905512,,,1011.189110114,6.889764,0,3.339238952,4.51853689,12,5,16.156,1011.189110114,5.905512,0,3.339238952,0,0,-0.671082,303.1, 0.1, -1.2,0,0,1024,1024,1210,1024,0,0,28,0,299.2,0,0,86,4.036,4.036,4.042,4.04,0,0,8.91,74.3,1011.189110114,5.905512,6,P-GPS,
13100,2025-03-14 05:04:29,37.0150616695792,140.149992827795,6.233596,,,1011.517194114,6.889764,0,3.3506234668,4.5437337412,11,4,16.146,1011.517194114,6.233596,0,3.3506234668,0,0,-0.671082,303.2, 0, -1.5,0,0,1024,1024,1212,1024,0,0,28,0,299.2,0,0,86,4.032,4.036,4.036,4.036,0,0,8.5,74.48,1011.517194114,6.233596,6,P-GPS,
13300,2025-03-14 05:04:30,37.0150617107799,140.14999280083,6.56168,,,1011.845278114,7.217848,0,3.3675526012,4.5606628756,11,4,16.146,1011.845278114,6.56168,0,3.3675526012,0,0,-0.894776,303.1, 0.1, -1.3,0,0,1024,1024,1214,1024,0,0,29,0,299.2,0,0,86,4.032,4.036,4.036,4.036,0,0,8.5,74.48,1011.845278114,6.56168,6,P-GPS,
13500,2025-03-14 05:04:30,37.0150617207642,140.149992735093,6.889764,,,1012.173362114,7.545932,0,3.3805447276,4.5801838736,11,4,16.146,1012.173362114,6.889764,0,3.3805447276,0,0,-0.894776,303, 0, -1.1,0,0,1024,1024,1224,1024,0,0,30,0,299.2,0,0,86,4.032,4.036,4.036,4.036,0,0,8.5,74.48,1012.173362114,6.889764,6,P-GPS,
13700,2025-03-14 05:04:30,37.0150617183548,140.149992710137,7.217848,,,1012.501446114,7.874016,0,3.3835631004,4.5875001468,11,4,16.146,1012.501446114,7.217848,0,3.3835631004,0,0,-0.894776,303.1, -0.1, -1.2,0,0,1024,1024,1227,1024,0,0,31,0,299.2,0,0,86,4.032,4.036,4.036,4.036,0,0,8.5,74.48,1012.501446114,7.217848,6,P-GPS,
13900,2025-03-14 05:04:30,37.0150617035776,140.149992679715,7.545932,,,1012.829530114,8.2021,0,3.3835631004,4.5978676012,9,4,16.146,1012.829530114,7.545932,0,3.3835631004,0,0,-0.894776,303.1, -0.3, -1.2,0,0,1024,1024,1227,1024,0,0,31,0,299.2,0,0,86,4.032,4.036,4.036,4.036,0,0,8.5,74.48,1012.829530114,7.545932,6,P-GPS,
14100,2025-03-14 05:04:30,37.0150616342015,140.149992636965,7.874016,,,1013.157614114,8.530184,0,3.3685368532,4.6260828252,9,4,16.119,1013.157614114,7.874016,0,3.3835631004,0,0,-1.11847,303.1, -0.3, -1.4,0,0,1024,1024,1236,1024,0,0,32,0,299.2,0,0,86,4.026,4.029,4.031,4.03,0,0,9.069,74.48,1013.157614114,7.874016,6,P-GPS,
14300,2025-03-14 05:04:31,37.0150616601645,140.14999257473,8.2021,,,1013.485698114,8.858268,0,3.386154964,4.6465224584,9,4,16.119,1013.485698114,8.2021,0,3.386154964,0,0,-1.11847,303.1, -0.4, -1.5,0,0,1024,1024,1247,1024,0,0,34,0,299.2,0,0,86,4.026,4.029,4.031,4.03,0,0,9.069,74.48,1013.485698114,8.2021,6,P-GPS,
14500,2025-03-14 05:04:31,37.0150616373626,140.149992527516,8.530184,,,1013.813782114,9.186352,0,3.3864174312,4.6625985744,10,4,16.119,1013.813782114,8.530184,0,3.3864174312,0,0,-1.11847,303, -0.3, -1,0,0,1024,1024,1247,1024,0,0,34,0,299.2,0,0,86,4.026,4.029,4.031,4.03,0,0,9.069,74.48,1013.813782114,8.530184,6,P-GPS,
14700,2025-03-14 05:04:31,37.0150615040224,140.149992537667,8.858268,,,1014.141866114,9.514436,0,3.3437993196,4.7113518568,9,4,16.119,1014.141866114,8.858268,0,3.3864174312,0,0,-1.342164,303, -0.1, -0.8,0,0,1024,1024,1252,1024,0,0,35,0,299.2,0,0,86,4.026,4.029,4.031,4.03,0,0,9.069,74.48,1014.141866114,8.858268,6,P-GPS,
14900,2025-03-14 05:04:31,37.0150613909143,140.149992583908,9.186352,,,1014.469950114,9.84252,0,3.3018045676,4.75475737,9,4,16.119,1014.469950114,9.186352,0,3.3864174312,0,0,-1.342164,303.1, 0.2, -1.3,0,0,1024,1024,1259,1024,0,0,36,0,299.2,0,0,86,4.026,4.029,4.031,4.03,0,0,9.069,74.48,1014.469950114,9.186352,6,P-GPS,
15100,2025-03-14 05:04:32,37.0150612224213,140.149992655271,9.514436,,,1014.798034114,10.170604,0,3.23892398816,4.8196523852,11,4,16.116,1014.798034114,9.514436,0,3.3864174312,0,0,-1.342164,303.1, 0.4, -1.1,0,0,1024,1024,1264,1024,0,0,36,0,299.2,0,0,86,4.028,4.03,4.031,4.031,0,0,8.942,74.48,1014.798034114,9.514436,6,P-GPS,
15300,2025-03-14 05:04:32,37.0150610713656,140.149992735438,10.170604,,,1015.454202114,10.826772,0,3.18002634848,4.8795277152,11,4,16.116,1015.454202114,10.170604,0,3.3864174312,0,0,-1.342164,303, 1, -0.7,0,0,1024,1024,1264,1024,0,0,36,0,299.2,0,0,86,4.028,4.03,4.031,4.031,0,0,8.942,74.48,1015.454202114,10.170604,6,P-GPS,
15500,2025-03-14 05:04:32,37.0150609417048,140.149992850224,10.498688,,,1015.782286114,11.154856,0,3.12212608416,4.9374345412,12,4,16.116,1015.782286114,10.498688,0,3.3864174312,0,0,-1.342164,303.2, 0.8, -0.9,0,0,1024,1024,1270,1024,0,0,37,0,299.2,0,0,86,4.028,4.03,4.031,4.031,0,0,8.942,74.48,1015.782286114,10.498688,6,P-GPS,
15700,2025-03-14 05:04:32,37.015060863321,140.149992972496,11.154856,,,1016.438454114,11.48294,0,3.07870088592,4.9831366424,12,4,16.116,1016.438454114,11.154856,0,3.3864174312,0,0,-1.565858,303, 0.2, -1.2,0,0,1024,1024,1270,1024,0,0,37,0,299.2,0,0,86,4.028,4.03,4.031,4.031,0,0,8.942,74.48,1016.438454114,11.154856,6,P-GPS,
15900,2025-03-14 05:04:32,37.0150607932254,140.149993116961,11.48294,,,1016.766538114,12.139108,0,3.03439314172,5.0323820508,12,4,16.116,1016.766538114,11.48294,0,3.3864174312,0,0,-1.565858,303, 0, -0.6,0,0,1024,1024,1269,1024,0,0,37,0,299.2,0,0,86,4.028,4.03,4.031,4.031,0,0,8.942,74.48,1016.766538114,11.48294,6,P-GPS,
16100,2025-03-14 05:04:32,37.0150607818062,140.149993269021,12.139108,,,1017.422706114,12.467192,0,3.0072015398,5.0768702412,12,4,16.102,1017.422706114,12.139108,0,3.3864174312,0,0,-1.565858,303, 0.1, -0.6,0,0,1024,1024,1259,1024,0,0,36,0,299.2,0,0,86,4.021,4.023,4.025,4.021,0,0,9.121,74.66,1017.422706114,12.139108,6,P-GPS,
16300,2025-03-14 05:04:33,37.0150607918291,140.149993362983,12.467192,,,1017.750790114,13.12336,0,2.99591873104,5.104494914,13,4,16.102,1017.750790114,12.467192,0,3.3864174312,0,0,-1.565858,303, -0.1, -1.1,0,0,1024,1024,1256,1024,0,0,35,0,299.2,0,0,86,4.021,4.023,4.025,4.021,0,0,9.121,74.66,1017.750790114,12.467192,6,P-GPS,
16500,2025-03-14 05:04:33,37.0150608373452,140.149993383449,13.12336,,,1018.406958114,13.451444,0,3.00700140856,5.1221130248,13,4,16.102,1018.406958114,13.12336,0,3.3864174312,0,0,-1.565858,303, 0, -1.2,0,0,1024,1024,1256,1024,0,0,35,0,299.2,0,0,86,4.021,4.023,4.025,4.021,0,0,9.121,74.66,1018.406958114,13.12336,6,P-GPS,
16700,2025-03-14 05:04:33,37.0150608529491,140.149993463836,13.451444,,,1018.735042114,13.779528,0,2.9998196498,5.1462271988,14,4,16.102,1018.735042114,13.451444,0,3.3864174312,0,0,-1.342164,303.2, 0, -1.3,0,0,1024,1024,1255,1024,0,0,35,0,299.2,0,0,86,4.021,4.023,4.025,4.021,0,0,9.121,74.66,1018.735042114,13.451444,6,P-GPS,
16900,2025-03-14 05:04:33,37.0150608329141,140.149993574227,14.107612,,,1019.391210114,14.435696,0,2.97717857296,5.1791996408,13,4,16.102,1019.391210114,14.107612,0,3.3864174312,0,0,-1.342164,303.3, 0.1, -1.1,0,0,1024,1024,1255,1024,0,0,35,0,299.2,0,0,86,4.021,4.023,4.025,4.021,0,0,9.121,74.66,1019.391210114,14.107612,6,P-GPS,
17100,2025-03-14 05:04:33,37.0150607734796,140.149993641721,14.435696,,,1019.719294114,14.76378,0,2.9485401206,5.2084647336,14,4,16.072,1019.719294114,14.435696,0,3.3864174312,0,0,-1.342164,303, 0, -0.3,0,0,1024,1024,1256,1024,0,0,35,0,299.2,0,0,86,4.017,4.025,4.025,4.026,0,0,9.543,74.66,1019.719294114,14.435696,6,P-GPS,
17300,2025-03-14 05:04:34,37.0150606686295,140.149993794933,15.091864,,,1020.375462114,15.091864,0,2.89308736292,5.2672573864,14,4,16.072,1020.375462114,15.091864,0,3.3864174312,0,0,-1.342164,303, 0.7, -0.8,0,0,1024,1024,1256,1024,0,0,35,0,299.2,0,0,86,4.017,4.025,4.025,4.026,0,0,9.543,74.66,1020.375462114,15.091864,6,P-GPS,
17500,2025-03-14 05:04:34,37.0150606739408,140.149993894627,15.419948,,,1020.703546114,15.748032,0,2.8804462864,5.2963584372,14,4,16.072,1020.703546114,15.419948,0,3.3864174312,0,0,-1.342164,303.1, 0.6, -1.3,0,0,1024,1024,1261,1024,0,0,36,0,299.2,0,0,86,4.017,4.025,4.025,4.026,0,0,9.543,74.66,1020.703546114,15.419948,6,P-GPS,
17700,2025-03-14 05:04:34,37.0150606803314,140.149993986496,15.748032,,,1021.031630114,16.076116,0,2.86948499996,5.3232285168,14,4,16.072,1021.031630114,15.748032,0,3.3864174312,0,0,-1.342164,303.1, 0.4, -1.7,0,0,1024,1024,1263,1024,0,0,36,0,299.2,0,0,86,4.017,4.025,4.025,4.026,0,0,9.543,74.66,1021.031630114,15.748032,6,P-GPS,
17900,2025-03-14 05:04:34,37.015060716193,140.149994027711,16.4042,,,1021.687798114,16.4042,0,2.8752133466,5.3410106696,14,4,16.072,1021.687798114,16.4042,0,3.3864174312,0,0,-1.342164,303.2, 0.3, -1.9,0,0,1024,1024,1268,1024,0,0,37,0,299.2,0,0,86,4.017,4.025,4.025,4.026,0,0,9.543,74.66,1021.687798114,16.4042,6,P-GPS,
18100,2025-03-14 05:04:34,37.015060735971,140.149994018618,16.732284,,,1022.015882114,17.060368,0,2.88281833372,5.3486878352,14,4,16.095,1022.015882114,16.732284,0,3.3864174312,0,0,-1.565858,303.1, 0.1, -1.8,0,0,1024,1024,1269,1024,0,0,37,0,299.2,0,0,86,4.022,4.023,4.025,4.025,0,0,9.016,74.84,1022.015882114,16.732284,6,P-GPS,
18300,2025-03-14 05:04:35,37.0150607557683,140.149993987492,17.388452,,,1022.672050114,17.388452,0,2.89349418708,5.3602692004,14,4,16.095,1022.672050114,17.388452,0,3.3864174312,0,0,-1.565858,303.1, 0, -1.6,0,0,1024,1024,1271,1024,0,0,37,0,299.2,0,0,86,4.022,4.023,4.025,4.025,0,0,9.016,74.84,1022.672050114,17.388452,6,P-GPS,
18500,2025-03-14 05:04:35,37.0150608148902,140.149993914578,18.04462,,,1023.328218114,18.04462,0,2.9226050804,5.3905513536,14,4,16.095,1023.328218114,18.04462,0,3.3864174312,0,0,-1.565858,303.2, 0.1, -1.9,0,0,1024,1024,1271,1024,0,0,37,0,299.2,0,0,86,4.022,4.023,4.025,4.025,0,0,9.016,74.84,1023.328218114,18.04462,6,P-GPS,
18700,2025-03-14 05:04:35,37.0150608604662,140.149993716545,18.700788,,,1023.984386114,18.700788,0,2.9652067878,5.4505907256,14,4,16.095,1023.984386114,18.700788,0,3.3864174312,0,0,-1.565858,303.1, 0.3, -1.8,0,0,1024,1024,1273,1024,0,0,38,0,299.2,0,0,86,4.022,4.023,4.025,4.025,0,0,9.016,74.84,1023.984386114,18.700788,6,P-GPS,
18900,2025-03-14 05:04:35,37.0150608917233,140.149993577736,19.028872,,,1024.312470114,19.028872,0,2.99520678876,5.492618286,15,4,16.095,1024.312470114,19.028872,0,3.3864174312,0,0,-1.565858,303.1, 0.3, -2.1,0,0,1024,1024,1273,1024,0,0,38,0,299.2,0,0,86,4.022,4.023,4.025,4.025,0,0,9.016,74.84,1024.312470114,19.028872,6,P-GPS,
19100,2025-03-14 05:04:35,37.0150609159002,140.149993479212,19.68504,,,1024.968638114,19.68504,0,3.01729996532,5.522637972,14,4,16.093,1024.968638114,19.68504,0,3.3864174312,0,0,-1.565858,303.2, 0.4, -2.2,0,0,1024,1024,1274,1024,0,0,38,0,299.2,0,0,86,4.02,4.022,4.024,4.023,0,0,8.91,74.84,1024.968638114,19.68504,6,P-GPS,
19300,2025-03-14 05:04:36,37.0150609206097,140.149993378936,20.341208,,,1025.624806114,20.013124,0,3.03369760364,5.5519030648,15,4,16.093,1025.624806114,20.341208,0,3.3864174312,0,0,-1.565858,303.2, 0.3, -2.3,0,0,1024,1024,1276,1024,0,0,38,0,299.2,0,0,86,4.02,4.022,4.024,4.023,0,0,8.91,74.84,1025.624806114,20.341208,6,P-GPS,
19500,2025-03-14 05:04:36,37.0150608904576,140.149993291194,20.997376,,,1026.280974114,20.669292,0,3.03752962476,5.579724588,14,4,16.093,1026.280974114,20.997376,0,3.3864174312,0,0,-1.565858,303.1, 0.5, -2.8,0,0,1024,1024,1277,1024,0,0,38,0,299.2,0,0,86,4.02,4.022,4.024,4.023,0,0,8.91,74.84,1026.280974114,20.997376,6,P-GPS,
19700,2025-03-14 05:04:36,37.0150608284767,140.149993220372,21.653544,,,1026.937142114,20.997376,0,3.02915364024,5.6103348252,14,4,16.093,1026.937142114,21.653544,0,3.3864174312,0,0,-1.565858,303.1, 0.9, -2.4,0,0,1024,1024,1280,1024,0,0,39,0,299.2,0,0,86,4.02,4.022,4.024,4.023,0,0,8.91,74.84,1026.937142114,21.653544,6,P-GPS,
19900,2025-03-14 05:04:36,37.0150607881026,140.149993136715,22.309712,,,1027.593310114,21.653544,0,3.02971794472,5.6388125164,15,4,16.093,1027.593310114,22.309712,0,3.3864174312,0,0,-1.789552,303.1, 0.7, -2.3,0,0,1024,1024,1285,1024,0,0,40,0,299.2,0,0,86,4.02,4.022,4.024,4.023,0,0,8.91,74.84,1027.593310114,22.309712,6,P-GPS,
20100,2025-03-14 05:04:36,37.0150607316749,140.149993043452,22.637796,,,1027.921394114,21.981628,0,3.02717857456,5.672900444,15,4,16.094,1027.921394114,22.637796,0,3.3864174312,0,0,-1.789552,303.1, 0.4, -2,0,0,1024,1024,1294,1024,0,0,41,0,299.2,0,0,86,4.021,4.022,4.023,4.024,0,0,8.878,75.02,1027.921394114,22.637796,6,P-GPS,
20300,2025-03-14 05:04:37,37.0150606926843,140.149992970899,23.293964,,,1028.577562114,22.637796,0,3.02695547744,5.6983925708,15,4,16.094,1028.577562114,23.293964,0,3.3864174312,0,0,-1.789552,303.1, 0, -1.8,0,0,1024,1024,1296,1024,0,0,41,0,299.2,0,0,86,4.021,4.022,4.023,4.024,0,0,8.878,75.02,1028.577562114,23.293964,6,P-GPS,
20500,2025-03-14 05:04:37,37.0150606260774,140.149992912798,23.950132,,,1029.233730114,23.293964,0,3.01624681568,5.7279857476,15,5,16.094,1029.233730114,23.950132,0,3.3864174312,0,0,-2.013246,303, 0, -1.5,0,0,1024,1024,1301,1024,0,0,42,0,299.2,0,0,86,4.021,4.022,4.023,4.024,0,0,8.878,75.02,1029.233730114,23.950132,6,P-GPS,
20700,2025-03-14 05:04:37,37.0150604643564,140.149992917044,24.6063,,,1029.889898114,23.950132,0,2.96692594796,5.7870080592,15,5,16.094,1029.889898114,24.6063,0,3.3864174312,0,0,-2.013246,303.1, 0, -1.4,0,0,1024,1024,1306,1024,0,0,43,0,299.2,0,0,86,4.021,4.022,4.023,4.024,0,0,8.878,75.02,1029.889898114,24.6063,6,P-GPS,
20900,2025-03-14 05:04:37,37.0150603022477,140.149992961671,25.590552,,,1030.874150114,24.6063,0,2.91104340024,5.8475723656,15,5,16.094,1030.874150114,25.590552,0,3.3864174312,0,0,-2.23694,303.1, 0, -1.3,0,0,1024,1024,1306,1024,0,0,43,0,299.2,0,0,86,4.021,4.022,4.023,4.024,0,0,8.878,75.02,1030.874150114,25.590552,6,P-GPS,
21100,2025-03-14 05:04:37,37.0150601951553,140.149993031074,26.24672,,,1031.530318114,25.262468,0,2.86747712588,5.89156843,15,5,16.081,1031.530318114,26.24672,0,3.3864174312,0,0,-2.23694,303.2, 0, -1.5,0,0,1024,1024,1306,1024,0,0,43,0,299.2,0,0,86,4.015,4.016,4.017,4.019,0,0,8.93,75.02,1031.530318114,26.24672,6,P-GPS,
21300,2025-03-14 05:04:38,37.0150601584777,140.149993015693,26.902888,,,1032.186486114,25.590552,0,2.8591864432,5.905676042,14,5,16.081,1032.186486114,26.902888,0,3.3864174312,0,0,-2.23694,303, 0, -1.8,0,0,1024,1024,1306,1024,0,0,43,0,299.2,0,0,86,4.015,4.016,4.017,4.019,0,0,8.93,75.02,1032.186486114,26.902888,6,P-GPS,
21500,2025-03-14 05:04:38,37.0150601381794,140.149993013643,27.559056,,,1032.842654114,26.574804,0,2.85352043252,5.9130907404,14,5,16.081,1032.842654114,27.559056,0,3.3864174312,0,0,-2.23694,303.2, -0.2, -1.8,0,0,1024,1024,1306,1024,0,0,43,0,299.2,0,0,86,4.015,4.016,4.017,4.019,0,0,8.93,75.02,1032.842654114,27.559056,6,P-GPS,
21700,2025-03-14 05:04:38,37.0150601845414,140.149992954622,28.215224,,,1033.498822114,27.230972,0,2.87729339916,5.9372377228,15,5,16.081,1033.498822114,28.215224,0,3.3864174312,0,0,-2.23694,303.2, 0, -1.5,0,0,1024,1024,1302,1024,0,0,42,0,299.2,0,0,86,4.015,4.016,4.017,4.019,0,0,8.93,75.02,1033.498822114,28.215224,6,P-GPS,
21900,2025-03-14 05:04:38,37.0150602362019,140.149992835849,28.871392,,,1034.154990114,28.215224,0,2.91287410896,5.9766406112,14,5,16.081,1034.154990114,28.871392,0,3.3864174312,0,0,-2.23694,303, -0.1, -1.9,0,0,1024,1024,1302,1024,0,0,42,0,299.2,0,0,86,4.015,4.016,4.017,4.019,0,0,8.93,75.02,1034.154990114,28.871392,6,P-GPS,
22300,2025-03-14 05:04:39,37.0150603793036,140.149992663201,30.511812,,,1035.795410114,30.183728,0,2.98471794328,6.0491143668,15,5,16.081,1035.795410114,30.511812,0,3.3864174312,0,0,-2.23694,302.9, 0.2, -2.7,0,0,1024,1024,1303,1024,0,0,42,0,299.2,0,0,86,4.015,4.016,4.017,4.019,0,0,8.93,75.02,1035.795410114,30.511812,6,P-GPS,
22500,2025-03-14 05:04:39,37.0150604032128,140.14999260458,31.496064,,,1036.779662114,30.511812,0,3.00187673648,6.0683072808,16,5,16.088,1036.779662114,31.496064,0,3.3864174312,0,0,-2.23694,303, 0.1, -3,0,0,1024,1024,1303,1024,0,0,42,0,299.2,0,0,86,4.019,4.021,4.022,4.02,0,0,8.67,75.2,1036.779662114,31.496064,6,P-GPS,
22700,2025-03-14 05:04:39,37.0150603354322,140.149992611343,31.824148,,,1037.107746114,31.496064,0,2.98085311376,6.0931104312,16,5,16.088,1037.107746114,31.824148,0,3.3864174312,0,0,-2.23694,303.2, 0.2, -2.7,0,0,1024,1024,1303,1024,0,0,42,0,299.2,0,0,86,4.019,4.021,4.022,4.02,0,0,8.67,75.2,1037.107746114,31.824148,6,P-GPS,
22900,2025-03-14 05:04:39,37.0150602460619,140.149992644835,32.480316,,,1037.763914114,32.152232,0,2.94891085552,6.127132742,16,5,16.088,1037.763914114,32.480316,0,3.3864174312,0,0,-2.23694,303.4, -0.3, -3.6,0,0,1024,1024,1303,1024,0,0,42,0,299.2,0,0,86,4.019,4.021,4.022,4.02,0,0,8.67,75.2,1037.763914114,32.480316,6,P-GPS,
23100,2025-03-14 05:04:39,37.01506011339,140.149992700061,33.136484,,,1038.420082114,32.8084,0,2.90061032904,6.178149804,16,5,16.088,1038.420082114,33.136484,0,3.3864174312,0,0,-2.23694,303, -2, -2.1,0,0,1024,1024,1302,1024,0,0,42,0,299.2,0,0,86,4.019,4.021,4.022,4.02,0,0,8.67,75.2,1038.420082114,33.136484,6,P-GPS,
23300,2025-03-14 05:04:40,37.015059949296,140.149992760821,33.792652,,,1039.076250114,33.464568,0,2.84234589148,6.2405841892,16,5,16.088,1039.076250114,33.792652,0,3.3864174312,0,0,-2.23694,303.1, -2.3, -1.6,0,0,1024,1024,1302,1024,0,0,42,0,299.2,0,0,86,4.019,4.021,4.022,4.02,0,0,8.67,75.2,1039.076250114,33.792652,6,P-GPS,
23500,2025-03-14 05:04:40,37.0150599065575,140.149992757901,34.44882,,,1039.732418114,34.120736,0,2.83055455252,6.2562009876,16,5,16.062,1039.732418114,34.44882,0,3.3864174312,0,0,-2.23694,303.3, -1.4, -2.4,0,0,1024,1024,1302,1024,0,0,42,0,299.2,0,0,86,4.013,4.015,4.018,4.019,0,0,8.862,75.38,1039.732418114,34.44882,6,P-GPS,
23700,2025-03-14 05:04:40,37.0150599340968,140.149992740044,35.104988,,,1040.388586114,34.44882,0,2.84167660012,6.2675198856,16,5,16.062,1040.388586114,35.104988,0,3.3864174312,0,0,-2.23694,302.8, -1.3, -3.9,0,0,1024,1024,1302,1024,0,0,42,0,299.2,0,0,86,4.013,4.015,4.018,4.019,0,0,8.862,75.38,1040.388586114,35.104988,6,P-GPS,
23900,2025-03-14 05:04:40,37.0150599059707,140.149992653233,35.761156,,,1041.044754114,35.104988,0,2.84923893632,6.2948164744,16,5,16.062,1041.044754114,35.761156,0,3.3864174312,0,0,-2.23694,303, -0.3, -3.7,0,0,1024,1024,1301,1024,0,0,42,0,299.2,0,0,86,4.013,4.015,4.018,4.019,0,0,8.862,75.38,1041.044754114,35.761156,6,P-GPS,
24100,2025-03-14 05:04:40,37.0150597423201,140.149992563688,36.417324,,,1041.700922114,35.433072,0,2.8192750246,6.3599739568,17,5,16.062,1041.700922114,36.417324,0,3.3864174312,0,0,-2.013246,303.2, 0.7, -0.5,0,0,1024,1024,1301,1024,0,0,42,0,299.2,0,0,86,4.013,4.015,4.018,4.019,0,0,8.862,75.38,1041.700922114,36.417324,6,P-GPS,
24300,2025-03-14 05:04:41,37.0150595083574,140.149992564924,37.073492,,,1042.357090114,36.08924,0,2.75381570492,6.4453086052,16,5,16.062,1042.357090114,37.073492,0,3.3864174312,0,0,-2.013246,302.9, -1.2, -0.4,0,0,1024,1024,1301,1024,0,0,42,0,299.2,0,0,86,4.013,4.015,4.018,4.019,0,0,8.862,75.38,1042.357090114,37.073492,6,P-GPS,
24500,2025-03-14 05:04:41,37.0150593496154,140.149992592074,37.72966,,,1043.013258114,37.073492,0,2.7049541548,6.503773174,16,5,16.088,1043.013258114,37.72966,0,3.3864174312,0,0,-2.23694,302.8, -1.1, 0,0,0,1024,1024,1298,1024,0,0,42,0,299.2,0,0,86,4.015,4.015,4.017,4.016,0,0,8.674,75.38,1043.013258114,37.72966,6,P-GPS,
24700,2025-03-14 05:04:41,37.015059211917,140.149992574941,38.385828,,,1043.669426114,37.72966,0,2.67083013796,6.5542653016,16,5,16.088,1043.669426114,38.385828,0,3.3864174312,0,0,-2.013246,302.8, -0.6, -0.3,0,0,1024,1024,1297,1024,0,0,41,0,299.2,0,0,86,4.015,4.015,4.017,4.016,0,0,8.674,75.38,1043.669426114,38.385828,6,P-GPS,
24900,2025-03-14 05:04:41,37.0150590165423,140.149992465163,38.713912,,,1043.997510114,38.385828,0.223694,2.64047580628,6.632382102,16,5,16.088,1043.997510114,38.713912,0.223694,3.3864174312,-0.223694,0,-2.013246,302.9, -0.6, 2.2,0,0,1024,1024,1298,1024,0,0,42,0,299.2,0,0,86,4.015,4.015,4.017,4.016,0,0,8.674,75.38,1043.997510114,38.713912,6,P-GPS,
25100,2025-03-14 05:04:42,37.0150588908692,140.149992387731,39.37008,,,1044.653678114,39.041996,0,2.62339575324,6.6834975892,16,5,16.088,1044.653678114,39.37008,0.223694,3.3864174312,0,0,-2.23694,303.1, -0.4, 3.6,0,0,1024,1024,1298,1024,0,0,42,0,299.2,0,0,86,4.015,4.015,4.017,4.016,0,0,8.674,75.38,1044.653678114,39.37008,6,P-GPS,
25300,2025-03-14 05:04:42,37.0150589026439,140.149992466063,40.026248,,,1045.309846114,39.698164,0,2.61043643524,6.7067259364,16,5,16.088,1045.309846114,40.026248,0.223694,3.3864174312,0,0,-2.013246,303.1, -0.3, 3.1,0,0,1024,1024,1299,1024,0,0,42,0,299.2,0,0,86,4.015,4.015,4.017,4.016,0,0,8.674,75.38,1045.309846114,40.026248,6,P-GPS,
25500,2025-03-14 05:04:42,37.0150590232992,140.149992662979,40.682416,,,1045.966014114,40.354332,0,2.60276583132,6.77903565,16,5,16.052,1045.966014114,40.682416,0.223694,3.3864174312,0,0,-2.013246,303.1, -0.9, 1.7,0,0,1024,1024,1300,1024,0,0,42,0,299.2,0,0,86,4.016,4.018,4.019,4.02,0,0,8.899,75.38,1045.966014114,40.682416,6,P-GPS,
25700,2025-03-14 05:04:42,37.0150592192971,140.14999289489,41.0105,,,1046.294098114,41.338584,0,2.61117462424,6.8773952332,16,5,16.052,1046.294098114,41.0105,0.223694,3.3864174312,0,0,-2.013246,302.9, -1.5, 1,0,0,1024,1024,1299,1024,0,0,42,0,299.2,0,0,86,4.016,4.018,4.019,4.02,0,0,8.899,75.38,1046.294098114,41.0105,6,P-GPS,
25900,2025-03-14 05:04:42,37.0150594343705,140.149993082153,41.666668,,,1046.950266114,41.994752,0,2.63680126548,6.9729661024,16,5,16.052,1046.950266114,41.666668,0.223694,3.3864174312,0,0,-2.013246,303.1, -2, 0.3,0,0,1024,1024,1299,1024,0,0,42,0,299.1,0,0,86,4.016,4.018,4.019,4.02,0,0,8.899,75.38,1046.950266114,41.666668,6,P-GPS,
26100,2025-03-14 05:04:42,37.0150596490841,140.149993231641,42.322836,,,1047.606434114,42.65092,0,2.67208998052,7.0625986512,16,5,16.052,1047.606434114,42.322836,0.223694,3.3864174312,0,0,-2.23694,303, -1.1, 1,0,0,1024,1024,1299,1024,0,0,42,0,299.1,0,0,86,4.016,4.018,4.019,4.02,0,0,8.899,75.38,1047.606434114,42.322836,6,P-GPS,
26300,2025-03-14 05:04:43,37.0150598945151,140.149993348694,42.979004,,,1048.262602114,43.635172,0,2.72448827616,7.1584319876,16,5,16.052,1048.262602114,42.979004,0.223694,3.3864174312,0,0,-2.23694,303, -1.5, 0.5,0,0,1024,1024,1299,1024,0,0,42,0,299.1,0,0,86,4.016,4.018,4.019,4.02,0,0,8.899,75.38,1048.262602114,42.979004,6,P-GPS,
26500,2025-03-14 05:04:43,37.0150601129359,140.149993467671,43.635172,,,1048.918770114,44.29134,0,2.77068250336,7.2453086308,16,5,16.042,1048.918770114,43.635172,0.223694,3.3864174312,0,0,-2.23694,303.2, -2.1, 1.8,0,0,1024,1024,1299,1024,0,0,42,0,299.2,0,0,86,4.022,4.024,4.023,4.027,0,0,8.905,75.56,1048.918770114,43.635172,6,P-GPS,
26700,2025-03-14 05:04:43,37.0150603551203,140.149993598144,43.963256,,,1049.246854114,44.947508,0,2.82437016912,7.3415028596,16,5,16.042,1049.246854114,43.963256,0.223694,3.3864174312,0,0,-2.013246,303.1, -2.7, 0.8,0,0,1024,1024,1299,1024,0,0,42,0,299.2,0,0,86,4.022,4.024,4.023,4.027,0,0,8.905,75.56,1049.246854114,43.963256,6,P-GPS,
26900,2025-03-14 05:04:43,37.0150606186867,140.149993721981,44.619424,,,1049.903022114,45.275592,0,2.88797909504,7.44422596,16,5,16.042,1049.903022114,44.619424,0.223694,3.3864174312,0,0,-2.013246,303.1, -3.3, 0.7,0,0,1024,1024,1299,1024,0,0,42,0,299.2,0,0,86,4.022,4.024,4.023,4.027,0,0,8.905,75.56,1049.903022114,44.619424,6,P-GPS,
27100,2025-03-14 05:04:43,37.0150609591077,140.149993772715,45.275592,,,1050.559190114,45.93176,0,2.98862542372,7.5692915808,17,5,16.042,1050.559190114,45.275592,0.223694,3.3864174312,0,0,-2.013246,303, -2.8, 0.6,0,0,1024,1024,1299,1024,0,0,42,0,299.2,0,0,86,4.022,4.024,4.023,4.027,0,0,8.905,75.56,1050.559190114,45.275592,6,P-GPS,
27300,2025-03-14 05:04:44,37.0150613005417,140.149993776507,45.603676,,,1050.887274114,46.587928,0,3.0977363196,7.6938650756,17,5,16.042,1050.887274114,45.603676,0.223694,3.3864174312,0,0,-2.013246,303, -2.6, 0.5,0,0,1024,1024,1299,1024,0,0,42,0,299.2,0,0,86,4.022,4.024,4.023,4.027,0,0,8.905,75.56,1050.887274114,45.603676,6,P-GPS,
27500,2025-03-14 05:04:44,37.0150616326874,140.149993784654,46.259844,,,1051.543442114,46.916012,0,3.20437674296,7.8150921136,17,5,16.09,1051.543442114,46.259844,0.223694,3.3864174312,0,0,-2.013246,302.9, -1.9, 0.4,0,0,1024,1024,1298,1024,0,0,42,0,299.1,0,0,85,4.018,4.02,4.022,4.022,0,0,8.115,75.74,1051.543442114,46.259844,6,P-GPS,
27700,2025-03-14 05:04:44,37.0150619630599,140.149993774294,46.916012,,,1052.199610114,47.57218,0,3.3137796336,7.9356629836,17,5,16.09,1052.199610114,46.916012,0.223694,3.3864174312,0,0,-2.013246,303, -1.6, 0.7,0,0,1024,1024,1298,1024,0,0,42,0,299.1,0,0,85,4.018,4.02,4.022,4.022,0,0,8.115,75.74,1052.199610114,46.916012,6,P-GPS,
27900,2025-03-14 05:04:44,37.0150621999501,140.149993784074,47.244096,,,1052.527694114,48.556432,0,3.3905512896,8.022145926,18,5,16.09,1052.527694114,47.244096,0.223694,3.3905512896,0,0,-2.013246,303, -1.5, 1.1,0,0,1024,1024,1298,1024,0,0,42,0,299.1,0,0,85,4.018,4.02,4.022,4.022,0,0,8.115,75.74,1052.527694114,47.244096,6,P-GPS,
28100,2025-03-14 05:04:44,37.0150623359566,140.14999379486,47.900264,,,1053.183862114,49.2126,0,3.43421927,8.071850652,17,5,16.09,1053.183862114,47.900264,0.223694,3.43421927,0,0,-2.013246,303, -1.9, 1,0,0,1024,1024,1298,1024,0,0,42,0,299.1,0,0,85,4.018,4.02,4.022,4.022,0,0,8.115,75.74,1053.183862114,47.900264,6,P-GPS,
28300,2025-03-14 05:04:45,37.0150624343946,140.14999378895,48.556432,,,1053.840030114,49.868768,0,3.4675854128,8.1078086584,18,5,16.09,1053.840030114,48.556432,0.223694,3.4675854128,0,0,-2.013246,303, -2, 1.6,0,0,1024,1024,1299,1024,0,0,42,0,299.1,0,0,85,4.018,4.02,4.022,4.022,0,0,8.115,75.74,1053.840030114,48.556432,6,P-GPS,
28500,2025-03-14 05:04:45,37.0150625179182,140.149993825892,48.884516,,,1054.168114114,50.196852,0,3.4909121852,8.1401249324,18,5,16.081,1054.168114114,48.884516,0.223694,3.4909121852,0,0,-2.013246,303.1, -1.7, 1.7,0,0,1024,1024,1299,1024,0,0,42,0,299.1,0,0,85,4.015,4.018,4.019,4.02,0,0,8.265,75.74,1054.168114114,48.884516,6,P-GPS,
28700,2025-03-14 05:04:45,37.0150626169559,140.149993838064,49.540684,,,1054.824282114,50.85302,0,3.522473866,8.1764438312,18,5,16.081,1054.824282114,49.540684,0.223694,3.522473866,0,0,-2.013246,303.1, -1.7, 1.1,0,0,1024,1024,1299,1024,0,0,42,0,299.1,0,0,85,4.015,4.018,4.019,4.02,0,0,8.265,75.74,1054.824282114,49.540684,6,P-GPS,
28900,2025-03-14 05:04:45,37.0150626878589,140.149993853467,50.196852,,,1055.480450114,51.509188,0,3.5443242604,8.2026905512,17,5,16.081,1055.480450114,50.196852,0.223694,3.5443242604,0,0,-2.013246,303, -1.7, 1.7,0,0,1024,1024,1300,1024,0,0,42,0,299.1,0,0,85,4.015,4.018,4.019,4.02,0,0,8.265,75.74,1055.480450114,50.196852,6,P-GPS,
29100,2025-03-14 05:04:45,37.0150627745971,140.149993915908,50.524936,,,1055.808534114,52.49344,0,3.5661418464,8.2392063004,17,5,16.081,1055.808534114,50.524936,0.223694,3.5661418464,0,0,-2.013246,303.1, -1.6, 0.8,0,0,1024,1024,1299,1024,0,0,42,0,299.1,0,0,85,4.015,4.018,4.019,4.02,0,0,8.265,75.74,1055.808534114,50.524936,6,P-GPS,
29300,2025-03-14 05:04:46,37.0150628636141,140.149993954278,51.181104,,,1056.464702114,53.477692,0,3.5916667816,8.2735238868,17,5,16.081,1056.464702114,51.181104,0.223694,3.5916667816,0,0,-2.013246,303, -1.7, 0.6,0,0,1024,1024,1299,1024,0,0,42,0,299.1,0,0,85,4.015,4.018,4.019,4.02,0,0,8.265,75.74,1056.464702114,51.181104,6,P-GPS,
29700,2025-03-14 05:04:46,37.0150629061533,140.149993931339,52.49344,,,1057.777038114,54.461944,0,3.6085631076,8.2904530212,16,5,16.081,1057.777038114,52.49344,0.223694,3.6085631076,0,0,-2.013246,303, -2, 1,0,0,1024,1024,1299,1024,0,0,42,0,299.1,0,0,85,4.015,4.018,4.019,4.02,0,0,8.265,75.74,1057.777038114,52.49344,6,P-GPS,
29900,2025-03-14 05:04:46,37.0150629144414,140.149993932149,52.821524,,,1058.105122114,55.118112,0,3.6112533964,8.293471394,17,5,16.081,1058.105122114,52.821524,0.223694,3.6112533964,0,0,-2.013246,303.2, -2.3, 0.5,0,0,1024,1024,1299,1024,0,0,42,0,299.1,0,0,85,4.015,4.018,4.019,4.02,0,0,8.265,75.74,1058.105122114,52.821524,6,P-GPS,
30100,2025-03-14 05:04:46,37.0150629021763,140.149993869042,53.477692,,,1058.761290114,55.77428,0,3.6143045776,8.3124018408,17,5,16.066,1058.761290114,53.477692,0.223694,3.6143045776,0,0,-2.013246,303, -1.9, 0.7,0,0,1024,1024,1299,1024,0,0,42,0,299.1,0,0,85,4.014,4.016,4.017,4.017,0,0,8.45,75.74,1058.761290114,53.477692,6,P-GPS,
30300,2025-03-14 05:04:47,37.0150628174169,140.149993718191,54.13386,,,1059.417458114,56.430448,0,3.6034778056,8.366142,16,5,16.066,1059.417458114,54.13386,0.223694,3.6143045776,0,0,-2.013246,303, -1.4, 1.7,0,0,1024,1024,1299,1024,0,0,42,0,299.1,0,0,85,4.014,4.016,4.017,4.017,0,0,8.45,75.74,1059.417458114,54.13386,6,P-GPS,
30500,2025-03-14 05:04:47,37.0150627027625,140.149993570522,54.790028,,,1060.073626114,57.086616,0,3.5831365976,8.4261157552,16,5,16.066,1060.073626114,54.790028,0.223694,3.6143045776,0,0,-2.013246,303.1, -1.4, 3.2,0,0,1024,1024,1299,1024,0,0,42,0,299.1,0,0,85,4.014,4.016,4.017,4.017,0,0,8.45,75.74,1060.073626114,54.790028,6,P-GPS,
30700,2025-03-14 05:04:47,37.0150625817924,140.149993448295,55.446196,,,1060.729794114,57.4147,0,3.5583662556,8.4828414788,17,5,16.066,1060.729794114,55.446196,0.223694,3.6143045776,0,0,-2.013246,303, -1.3, 1.7,0,0,1024,1024,1299,1024,0,0,42,0,299.1,0,0,85,4.014,4.016,4.017,4.017,0,0,8.45,75.74,1060.729794114,55.446196,6,P-GPS,
30900,2025-03-14 05:04:47,37.0150623968153,140.149993345696,56.102364,,,1061.385962114,58.070868,0,3.5109253092,8.5566603788,17,5,16.066,1061.385962114,56.102364,0.223694,3.6143045776,0,0,-2.23694,302.7, -0.8, 2.8,0,0,1024,1024,1299,1024,0,0,42,0,299.1,0,0,85,4.014,4.016,4.017,4.017,0,0,8.45,75.74,1061.385962114,56.102364,6,P-GPS,
31100,2025-03-14 05:04:47,37.0150621887258,140.149993329024,56.758532,,,1062.042130114,59.05512,0.223694,3.445374126,8.6327430584,17,5,16.056,1062.042130114,56.758532,0.223694,3.6143045776,-0.223694,0,-2.23694,302.7, -1.2, 3.8,0,0,1024,1024,1298,1024,0,0,42,0,299.1,0,0,85,4.011,4.013,4.013,4.012,0,0,8.598,75.74,1062.042130114,56.758532,6,P-GPS,
31300,2025-03-14 05:04:48,37.0150619473745,140.149993442912,57.4147,,,1062.698298114,59.711288,0,3.3519029944,8.7268375496,16,5,16.056,1062.698298114,57.4147,0.223694,3.6143045776,0,0,-2.23694,302.7, -3.7, 2.9,0,0,1024,1024,1298,1024,0,0,42,0,299.1,0,0,85,4.011,4.013,4.013,4.012,0,0,8.598,75.74,1062.698298114,57.4147,6,P-GPS,
31500,2025-03-14 05:04:48,37.0150617880799,140.149993520193,58.070868,,,1063.354466114,60.039372,0,3.2899607352,8.7891407012,16,5,16.056,1063.354466114,58.070868,0.223694,3.6143045776,0,0,-2.23694,303.2, -3.2, 3.9,0,0,1024,1024,1298,1024,0,0,42,0,299.1,0,0,85,4.011,4.013,4.013,4.012,0,0,8.598,75.74,1063.354466114,58.070868,6,P-GPS,
31700,2025-03-14 05:04:48,37.0150616959277,140.149993490235,59.05512,,,1064.338718114,60.69554,0,3.26424223044,8.8238847968,16,5,16.056,1064.338718114,59.05512,0.223694,3.6143045776,0,0,-2.013246,302.8, -2.3, 5.2,0,0,1024,1024,1298,1024,0,0,42,0,299.1,0,0,85,4.011,4.013,4.013,4.012,0,0,8.598,75.74,1064.338718114,59.05512,6,P-GPS,
31900,2025-03-14 05:04:48,37.0150617779929,140.149993448665,59.711288,,,1064.994886114,61.023624,0,3.2963583732,8.8562010708,16,5,16.056,1064.994886114,59.711288,0.223694,3.6143045776,0,0,-2.013246,303.2, -2.3, 2.2,0,0,1024,1024,1298,1024,0,0,42,0,299.1,0,0,85,4.011,4.013,4.013,4.012,0,0,8.598,75.74,1064.994886114,59.711288,6,P-GPS,
32100,2025-03-14 05:04:49,37.0150619202786,140.149993383987,60.367456,,,1065.651054114,61.679792,0,3.3510827844,8.911417608,16,5,16.019,1065.651054114,60.367456,0.223694,3.6143045776,0,0,-2.013246,303.3, -1.1, 0.9,0,0,1024,1024,1298,1024,0,0,42,0,299.1,0,0,85,4.004,4.008,4.012,4.011,0,0,9.233,75.74,1065.651054114,60.367456,6,P-GPS,
32300,2025-03-14 05:04:49,37.0150619546261,140.149993264194,61.023624,,,1066.307222114,62.33596,0,3.3785106068,8.9484911,16,5,16.019,1066.307222114,61.023624,0.223694,3.6143045776,0,0,-2.013246,302.7, -1.9, 2.8,0,0,1024,1024,1299,1024,0,0,42,0,299.1,0,0,85,4.004,4.008,4.012,4.011,0,0,9.233,75.74,1066.307222114,61.023624,6,P-GPS,
32500,2025-03-14 05:04:49,37.0150619902736,140.149993162981,61.679792,,,1066.963390114,62.992128,0,3.4039371168,8.9807089488,17,5,16.019,1066.963390114,61.679792,0.223694,3.6143045776,0,0,-2.013246,303, -1.2, 2.7,0,0,1024,1024,1299,1024,0,0,42,0,299.1,0,0,85,4.004,4.008,4.012,4.011,0,0,9.233,75.74,1066.963390114,61.679792,6,P-GPS,
32700,2025-03-14 05:04:49,37.0150620231348,140.149993066047,62.664044,,,1067.947642114,63.648296,0,3.427985674,9.0114176112,16,5,16.019,1067.947642114,62.664044,0.223694,3.6143045776,0,0,-2.23694,303.3, -1.3, 2.1,0,0,1024,1024,1299,1024,0,0,42,0,299.1,0,0,85,4.004,4.008,4.012,4.011,0,0,9.233,75.74,1067.947642114,62.664044,6,P-GPS,
32900,2025-03-14 05:04:49,37.0150619819748,140.149993011221,63.320212,,,1068.603810114,64.304464,0,3.422572288,9.0333336224,16,5,16.019,1068.603810114,63.320212,0.223694,3.6143045776,0,0,-2.23694,303.2, -1.4, 3.4,0,0,1024,1024,1299,1024,0,0,42,0,299.1,0,0,85,4.004,4.008,4.012,4.011,0,0,9.233,75.74,1068.603810114,63.320212,6,P-GPS,
33100,2025-03-14 05:04:49,37.0150619467877,140.149992964797,63.97638,,,1069.259978114,64.960632,0,3.4180119204,9.0519687936,16,5,16.018,1069.259978114,63.97638,0.223694,3.6143045776,0,0,-2.23694,303.2, -0.8, 3.5,0,0,1024,1024,1298,1024,0,0,42,0,299.2,0,0,85,4.002,4.004,4.005,4.003,0,0,9.125,75.92,1069.259978114,63.97638,6,P-GPS,
33300,2025-03-14 05:04:50,37.0150619543927,140.1499929678,64.632548,,,1069.916146114,65.6168,0,3.4199804244,9.0548887412,16,5,16.018,1069.916146114,64.632548,0.223694,3.6143045776,0,0,-2.23694,303.1, -0.9, 2.6,0,0,1024,1024,1298,1024,0,0,42,0,299.2,0,0,85,4.002,4.004,4.005,4.003,0,0,9.125,75.92,1069.916146114,64.632548,6,P-GPS,
33500,2025-03-14 05:04:50,37.015061940819,140.149993045429,65.6168,,,1070.900398114,65.944884,0,3.4046260932,9.0780186632,17,5,16.018,1070.900398114,65.6168,0.223694,3.6143045776,0,0,-2.23694,303, -1.6, 3.1,0,0,1024,1024,1299,1024,0,0,42,0,299.2,0,0,85,4.002,4.004,4.005,4.003,0,0,9.125,75.92,1070.900398114,65.6168,6,P-GPS,
33700,2025-03-14 05:04:50,37.0150619713437,140.14999313504,66.272968,,,1071.556566114,66.601052,0,3.4017717624,9.1064307376,17,5,16.018,1071.556566114,66.272968,0.223694,3.6143045776,0,0,-2.23694,302.8, -1.1, 2.7,0,0,1024,1024,1298,1024,0,0,42,0,299.1,0,0,85,4.002,4.004,4.005,4.003,0,0,9.125,75.92,1071.556566114,66.272968,6,P-GPS,
33900,2025-03-14 05:04:50,37.015062018935,140.14999321504,66.929136,,,1072.212734114,67.25722,0,3.4059384292,9.1354661716,16,5,16.018,1072.212734114,66.929136,0.223694,3.6143045776,0,0,-2.23694,303.2, -1.4, 1.1,0,0,1024,1024,1298,1024,0,0,42,0,299.2,0,0,85,4.002,4.004,4.005,4.003,0,0,9.125,75.92,1072.212734114,66.929136,6,P-GPS,
34100,2025-03-14 05:04:50,37.0150620305641,140.149993240921,67.585304,,,1072.868902114,67.913388,0,3.4061352796,9.1441275892,16,5,16.02,1072.868902114,67.585304,0.223694,3.6143045776,0,0,-2.013246,303, -1.2, 2.8,0,0,1024,1024,1298,1024,0,0,42,0,299.1,0,0,85,4.007,4.008,4.009,4.011,0,0,9.348,75.92,1072.868902114,67.585304,6,P-GPS,
34300,2025-03-14 05:04:51,37.0150620487508,140.149993275018,68.241472,,,1073.525070114,68.569556,0,3.4073491904,9.1560698468,17,5,16.02,1073.525070114,68.241472,0.223694,3.6143045776,0,0,-2.013246,303.1, -0.5, 2.4,0,0,1024,1024,1298,1024,0,0,42,0,299.1,0,0,85,4.007,4.008,4.009,4.011,0,0,9.348,75.92,1073.525070114,68.241472,6,P-GPS,
34500,2025-03-14 05:04:51,37.0150620966356,140.149993353194,68.89764,,,1074.181238114,68.89764,0,3.4123032588,9.1847771968,18,5,16.02,1074.181238114,68.89764,0.223694,3.6143045776,0,0,-2.013246,303.2, -1.4, 1.1,0,0,1024,1024,1298,1024,0,0,42,0,299.2,0,0,85,4.007,4.008,4.009,4.011,0,0,9.348,75.92,1074.181238114,68.89764,6,P-GPS,
34700,2025-03-14 05:04:51,37.0150620701972,140.149993335895,69.553808,,,1074.837406114,69.553808,0,3.4060368544,9.1956695856,18,5,16.02,1074.837406114,69.553808,0.223694,3.6143045776,0,0,-2.013246,303, -1.1, 2.2,0,0,1024,1024,1298,1024,0,0,42,0,299.2,0,0,85,4.007,4.008,4.009,4.011,0,0,9.348,75.92,1074.837406114,69.553808,6,P-GPS,
34900,2025-03-14 05:04:51,37.015061965405,140.149993170523,70.209976,,,1075.493574114,69.881892,0,3.3949148068,9.2571525272,17,5,16.02,1075.493574114,70.209976,0.223694,3.6143045776,0,0,-2.013246,303.1, -0.5, 4.4,0,0,1024,1024,1298,1024,0,0,42,0,299.2,0,0,85,4.007,4.008,4.009,4.011,0,0,9.348,75.92,1075.493574114,70.209976,6,P-GPS,
35100,2025-03-14 05:04:51,37.0150618418392,140.149992961581,70.866144,,,1076.149742114,70.53806,0,3.385170712,9.3329071228,16,5,16.05,1076.149742114,70.866144,0.223694,3.6143045776,0,0,-2.013246,303, -0.1, 5.8,0,0,1024,1024,1298,1024,0,0,42,0,299.2,0,0,85,4.007,4.007,4.009,4.007,0,0,8.653,76.1,1076.149742114,70.866144,6,P-GPS,
35300,2025-03-14 05:04:52,37.0150618144413,140.149992853947,71.522312,,,1076.805910114,70.866144,0,3.392224518,9.365813948,17,5,16.05,1076.805910114,71.522312,0.223694,3.6143045776,0,0,-2.013246,303.3, -0.2, 4.3,0,0,1024,1024,1298,1024,0,0,42,0,299.2,0,0,85,4.007,4.007,4.009,4.007,0,0,8.653,76.1,1076.805910114,71.522312,6,P-GPS,
35500,2025-03-14 05:04:52,37.0150618122247,140.149992831472,72.506564,,,1077.790162114,71.522312,0,3.39484919,9.3724084364,17,5,16.05,1077.790162114,72.506564,0.223694,3.6143045776,0,0,-2.013246,303.1, -0.3, 4.1,0,0,1024,1024,1298,1024,0,0,42,0,299.2,0,0,85,4.007,4.007,4.009,4.007,0,0,8.653,76.1,1077.790162114,72.506564,6,P-GPS,
35700,2025-03-14 05:04:52,37.0150618106378,140.149992894494,73.162732,,,1078.446330114,71.850396,0,3.3850722868,9.3907811404,17,5,16.05,1078.446330114,73.162732,0.223694,3.6143045776,0,0,-2.013246,303.3, -0.9, 3.8,0,0,1024,1024,1299,1024,0,0,42,0,299.2,0,0,85,4.007,4.007,4.009,4.007,0,0,8.653,76.1,1078.446330114,73.162732,6,P-GPS,
35900,2025-03-14 05:04:52,37.0150618992692,140.149992935914,73.8189,,,1079.102498114,72.506564,0,3.4070867232,9.4252955772,17,5,16.05,1079.102498114,73.8189,0.223694,3.6143045776,0,0,-2.013246,303.4, -0.1, 2.9,0,0,1024,1024,1298,1024,0,0,42,0,299.2,0,0,85,4.007,4.007,4.009,4.007,0,0,8.653,76.1,1079.102498114,73.8189,6,P-GPS,
36100,2025-03-14 05:04:52,37.0150619699088,140.149993012785,74.475068,,,1079.758666114,72.834648,0,3.4185040464,9.4594491216,17,5,16.034,1079.758666114,74.475068,0.223694,3.6143045776,0,0,-2.23694,303.3, -0.2, 1.8,0,0,1024,1024,1298,1024,0,0,42,0,299.2,0,0,85,4.006,4.009,4.009,4.009,0,0,8.787,76.1,1079.758666114,74.475068,6,P-GPS,
36300,2025-03-14 05:04:53,37.015061943828,140.149993022958,75.131236,,,1080.414834114,73.162732,0,3.4087599516,9.4694228752,17,5,16.034,1080.414834114,75.131236,0.223694,3.6143045776,0,0,-2.013246,302.8, -0.2, 2.7,0,0,1024,1024,1298,1024,0,0,42,0,299.2,0,0,85,4.006,4.009,4.009,4.009,0,0,8.787,76.1,1080.414834114,75.131236,6,P-GPS,
36500,2025-03-14 05:04:53,37.0150618350759,140.149992983403,75.787404,,,1081.071002114,73.8189,0,3.3798885596,9.5107286508,18,5,16.034,1081.071002114,75.787404,0.223694,3.6143045776,0,0,-2.013246,303, -0.7, 3.6,0,0,1024,1024,1298,1024,0,0,42,0,299.2,0,0,85,4.006,4.009,4.009,4.009,0,0,8.787,76.1,1081.071002114,75.787404,6,P-GPS,
36700,2025-03-14 05:04:53,37.0150617034255,140.149992987159,76.443572,,,1081.727170114,74.146984,0,3.3376969572,9.5587929568,18,5,16.034,1081.727170114,76.443572,0.223694,3.6143045776,0,0,-2.23694,302.9, -1.5, 4.4,0,0,1024,1024,1298,1024,0,0,42,0,299.2,0,0,85,4.006,4.009,4.009,4.009,0,0,8.787,76.1,1081.727170114,76.443572,6,P-GPS,
36900,2025-03-14 05:04:53,37.015061610378,140.149992966252,77.09974,,,1082.383338114,74.475068,0,3.3114502372,9.5932745852,17,5,16.034,1082.383338114,77.09974,0.223694,3.6143045776,0,0,-2.013246,303, -1.8, 5,0,0,1024,1024,1298,1024,0,0,42,0,299.2,0,0,85,4.006,4.009,4.009,4.009,0,0,8.787,76.1,1082.383338114,77.09974,6,P-GPS,
