time(millisecond),datetime(utc),latitude,longitude,height_above_takeoff(feet),height_above_ground_at_drone_location(feet),ground_elevation_at_drone_location(feet),altitude_above_seaLevel(feet),height_sonar(feet),speed(mph),distance(feet),mileage(feet),satellites,gpslevel,voltage(v),max_altitude(feet),max_ascent(feet),max_speed(mph),max_distance(feet), xSpeed(mph), ySpeed(mph), zSpeed(mph), compass_heading(degrees), pitch(degrees), roll(degrees),isPhoto,isVideo,rc_elevator,rc_aileron,rc_throttle,rc_rudder,rc_elevator(percent),rc_aileron(percent),rc_throttle(percent),rc_rudder(percent),gimbal_heading(degrees),gimbal_pitch(degrees),gimbal_roll(degrees),battery_percent,voltageCell1,voltageCell2,voltageCell3,voltageCell4,voltageCell5,voltageCell6,current(A),battery_temperature(f),altitude(feet),ascent(feet),flycStateRaw,flycState,message
0,2025-03-14 05:44:04,0,0,0,Available with any HD 360 subscription,Available with any HD 360 subscription,1005.3582900455,0.328084,0,0,0,15,2,0,1005.3582900455,0,0,0,0,0,0,324.8, 4.3, 0.2,0,0,1024,1024,1024,1024,0,0,0,0,324.9,0,0,96,4.241,4.241,4.239,4.239,0,0,0,67.1,1005.3582900455,0,6,P-GPS,"機体が高度区域 (500 m)にいます。慎重に飛行してください。 (Code: 190001). 機体は飛行していません。ビジョンシステムと障害物回避が無効です (Code: 180059). GNSS信号が微弱です。ホバリングが不安定です。慎重に飛行してください (Code: 30008). GNSS信号が微弱です。ホバリングが不安定です。慎重に飛行してください (Code: 30002). 機体は飛行していません。ビジョンシステムと障害物回避が無効です (Code: 180059)"
200,2025-03-14 05:44:04,0,0,0,,,1005.3582900455,0.328084,0,0,0,13,2,0,1005.3582900455,0,0,0,0,0,0,324.8, 4.3, 0.2,0,0,1024,1024,1024,1024,0,0,0,0,324.9,0,0,96,4.241,4.241,4.239,4.239,0,0,0,67.1,1005.3582900455,0,41,Motors_Started,GNSSがありません。慎重に飛行してください
400,2025-03-14 05:44:05,0,0,0,,,1005.3582900455,0.328084,0,0,0,13,2,0,1005.3582900455,0,0,0,0,0,0,324.8, 4.3, 0.2,0,0,1024,1024,1024,1024,0,0,0,0,324.9,0,0,96,4.241,4.241,4.239,4.239,0,0,0,67.1,1005.3582900455,0,41,Motors_Started,
600,2025-03-14 05:44:05,0,0,0,,,1005.3582900455,0,0,0,0,13,2,0,1005.3582900455,0,0,0,0,0,0,324.8, 4.3, 0.2,0,0,1024,1024,1024,1024,0,0,0,0,324.9,0,0,96,4.241,4.241,4.239,4.239,0,0,0,67.1,1005.3582900455,0,41,Motors_Started,
800,2025-03-14 05:44:05,0,0,0,,,1005.3582900455,0,0,0,0,13,2,0,1005.3582900455,0,0,0,0,0,0,324.8, 4.3, 0.2,0,0,1024,1024,1024,1024,0,0,0,0,324.9,0,0,96,4.241,4.241,4.239,4.239,0,0,0,67.1,1005.3582900455,0,41,Motors_Started,"Setting new Return-To-Home altitude to 100m (328 ft). Data Recorder File Index is 114. Setting new Maximum Flight Altitude to 30m (98 ft)"
1000,2025-03-14 05:44:05,0,0,0,,,1005.3582900455,0,0,0,0,12,2,17.152,1005.3582900455,0,0,0,0,0,0,324.8, 4.3, 0.2,0,0,1024,1024,1024,1024,0,0,0,0,324.9,0,0,96,4.241,4.241,4.239,4.239,0,0,1.538,67.1,1005.3582900455,0,41,Motors_Started,
1200,2025-03-14 05:44:06,0,0,0,,,1005.3582900455,0,0,0,0,12,2,17.152,1005.3582900455,0,0,0,0,0,0,324.9, 4.3, 0.2,0,0,1024,1024,1024,1024,0,0,0,0,324.9,0,0,96,4.241,4.241,4.239,4.239,0,0,1.538,67.1,1005.3582900455,0,41,Motors_Started,
1400,2025-03-14 05:44:06,0,0,0,,,1005.3582900455,0,0,0,0,13,2,17.152,1005.3582900455,0,0,0,0,0,0,324.9, 4.3, 0.2,0,0,1024,1024,1024,1024,0,0,0,0,324.9,0,0,96,4.241,4.241,4.239,4.239,0,0,1.538,67.1,1005.3582900455,0,41,Motors_Started,
1600,2025-03-14 05:44:06,0,0,0,,,1005.3582900455,0,0,0,0,14,2,17.152,1005.3582900455,0,0,0,0,0,0,324.9, 4.3, 0.2,0,0,1024,1024,1024,1024,0,0,0,0,324.9,0,0,96,4.241,4.241,4.239,4.239,0,0,1.538,67.1,1005.3582900455,0,11,AutoTakeoff,
1800,2025-03-14 05:44:06,0,0,0,,,1005.3582900455,0,0,0,0,14,2,17.152,1005.3582900455,0,0,0,0,0,0,324.9, 4.3, 0.3,0,0,1024,1024,1024,1024,0,0,0,0,324.9,0,0,96,4.241,4.241,4.239,4.239,0,0,1.538,67.1,1005.3582900455,0,11,AutoTakeoff,"機体は飛行していません。ビジョンシステムと障害物回避が無効です (Code: 180059)"
2200,2025-03-14 05:44:07,0,0,0,,,1005.3582900455,0,0,0,0,14,2,17.152,1005.3582900455,0,0,0,0,0,-0.223694,324.9, -3.9, -0.3,0,0,1024,1024,1024,1024,0,0,0,0,324.9,0,0,96,4.241,4.241,4.239,4.239,0,0,1.538,67.1,1005.3582900455,0,11,AutoTakeoff,
2400,2025-03-14 05:44:07,0,0,0,,,1005.3582900455,0.328084,0,0,0,14,2,17.152,1005.3582900455,0,0,0,0,0,-0.671082,325, -1.1, -1.3,0,0,1024,1024,1024,1024,0,0,0,0,324.9,0,0,96,4.241,4.241,4.239,4.239,0,0,1.538,67.1,1005.3582900455,0,11,AutoTakeoff,
2600,2025-03-14 05:44:07,0,0,0.328084,,,1005.6863740455,0.328084,0,0,0,14,2,17.152,1005.6863740455,0.328084,0,0,0,0,-0.894776,324.8, 1.6, -1,0,0,1024,1024,1024,1024,0,0,0,0,324.9,0,0,96,4.241,4.241,4.239,4.239,0,0,1.538,67.1,1005.6863740455,0.328084,11,AutoTakeoff,
2800,2025-03-14 05:44:07,0,0,0.656168,,,1006.0144580455,0.656168,0,0,0,15,2,16.86,1006.0144580455,0.656168,0,0,0,0,-0.894776,325.2, 0.8, -1.3,0,0,1024,1024,1024,1024,0,0,0,0,324.9,0,0,96,4.181,4.181,4.18,4.176,0,0,4.178,67.28,1006.0144580455,0.656168,11,AutoTakeoff,
3000,2025-03-14 05:44:07,0,0,0.984252,,,1006.3425420455,0.984252,0.223694,0,0,14,2,16.86,1006.3425420455,0.984252,0.223694,0,0,0.223694,-0.894776,324.9, -0.8, -1.8,0,0,1024,1024,1024,1024,0,0,0,0,324.9,0,0,96,4.181,4.181,4.18,4.176,0,0,4.178,67.28,1006.3425420455,0.984252,11,AutoTakeoff,
3200,2025-03-14 05:44:07,0,0,1.312336,,,1006.6706260455,1.312336,0.223694,0,0,14,2,16.86,1006.6706260455,1.312336,0.223694,0,0,0.223694,-0.894776,325.2, -1.5, -2.9,0,0,1024,1024,1024,1024,0,0,0,0,324.9,0,0,96,4.181,4.181,4.18,4.176,0,0,4.178,67.28,1006.6706260455,1.312336,11,AutoTakeoff,飛行中
3400,2025-03-14 05:44:08,0,0,1.312336,,,1006.6706260455,1.64042,0,0,0,13,2,16.86,1006.6706260455,1.312336,0.223694,0,0,0,-1.11847,325.3, -2.1, -3.2,0,0,1024,1024,1024,1024,0,0,0,0,324.9,0,0,96,4.181,4.181,4.18,4.176,0,0,4.178,67.28,1006.6706260455,1.312336,11,AutoTakeoff,
3600,2025-03-14 05:44:08,0,0,1.64042,,,1006.9987100455,1.64042,0,0,0,14,2,16.86,1006.9987100455,1.64042,0.223694,0,0,0,-0.894776,325, -1.9, -3.1,0,0,1024,1024,1024,1024,0,0,0,0,324.9,0,0,96,4.181,4.181,4.18,4.176,0,0,4.178,67.28,1006.9987100455,1.64042,11,AutoTakeoff,
3800,2025-03-14 05:44:08,0,0,1.968504,,,1007.3267940455,2.296588,0,0,0,13,2,16.663,1007.3267940455,1.968504,0.223694,0,0,0,-0.894776,325.1, -1.3, -2.1,0,0,1024,1024,1024,1024,0,0,0,0,324.9,0,0,96,4.16,4.164,4.16,4.16,0,0,8.597,67.28,1007.3267940455,1.968504,11,AutoTakeoff,
4000,2025-03-14 05:44:08,0,0,2.296588,,,1007.6548780455,2.296588,0,0,0,13,2,16.663,1007.6548780455,2.296588,0.223694,0,0,0,-0.894776,325, -0.5, -0.3,0,0,1024,1024,1024,1024,0,0,0,0,324.9,0,0,96,4.16,4.164,4.16,4.16,0,0,8.597,67.28,1007.6548780455,2.296588,11,AutoTakeoff,
4200,2025-03-14 05:44:08,0,0,2.624672,,,1007.9829620455,2.624672,0,0,0,11,2,16.663,1007.9829620455,2.624672,0.223694,0,0,0,-1.11847,325.1, -0.9, -0.5,0,0,1024,1024,1024,1024,0,0,0,0,324.9,0,0,96,4.16,4.164,4.16,4.16,0,0,8.597,67.28,1007.9829620455,2.624672,11,AutoTakeoff,
4400,2025-03-14 05:44:09,0,0,2.952756,,,1008.3110460455,3.28084,0,0,0,10,2,16.663,1008.3110460455,2.952756,0.223694,0,0,0,-1.11847,324.9, -1.1, -0.5,0,0,1024,1024,1024,1024,0,0,0,0,324.9,0,0,96,4.16,4.164,4.16,4.16,0,0,8.597,67.28,1008.3110460455,2.952756,11,AutoTakeoff,
4600,2025-03-14 05:44:09,0,0,3.28084,,,1008.6391300455,3.608924,0,0,0,10,2,16.663,1008.6391300455,3.28084,0.223694,0,0,0,-1.11847,324.7, -1.7, -0.3,0,0,1024,1024,1024,1024,0,0,0,0,324.9,0,0,96,4.16,4.164,4.16,4.16,0,0,8.597,67.28,1008.6391300455,3.28084,11,AutoTakeoff,
4800,2025-03-14 05:44:09,0,0,3.608924,,,1008.9672140455,3.937008,0,0,0,13,2,16.633,1008.9672140455,3.608924,0.223694,0,0,0,-0.894776,324.5, -0.9, -0.2,0,0,1024,1024,1024,1024,0,0,0,0,324.9,0,0,96,4.162,4.165,4.162,4.164,0,0,9.077,67.28,1008.9672140455,3.608924,6,P-GPS,
5000,2025-03-14 05:44:09,0,0,3.608924,,,1008.9672140455,3.937008,0,0,0,17,2,16.633,1008.9672140455,3.608924,0.223694,0,0,0,0,324.7, 0.3, 0,0,0,1024,1024,1024,1024,0,0,0,0,324.9,0,0,96,4.162,4.165,4.162,4.164,0,0,9.077,67.28,1008.9672140455,3.608924,6,P-GPS,
5200,2025-03-14 05:44:10,0,0,3.608924,,,1008.9672140455,3.937008,0.223694,0,0,18,2,16.633,1008.9672140455,3.608924,0.223694,0,0.223694,0,0,324.9, 1.4, -1.7,0,0,1024,1024,1024,1024,0,0,0,0,324.9,0,0,96,4.162,4.165,4.162,4.164,0,0,9.077,67.28,1008.9672140455,3.608924,6,P-GPS,
5400,2025-03-14 05:44:10,0,0,3.608924,,,1008.9672140455,3.937008,0,0,0,18,2,16.633,1008.9672140455,3.608924,0.223694,0,0,0,0,324.9, 2.1, -1.1,0,0,1024,1024,1024,1024,0,0,0,0,324.9,0,0,96,4.162,4.165,4.162,4.164,0,0,9.077,67.28,1008.9672140455,3.608924,6,P-GPS,
5600,2025-03-14 05:44:10,0,0,3.608924,,,1008.9672140455,3.937008,0,0,0,18,2,16.633,1008.9672140455,3.608924,0.223694,0,0,0,0,324.8, 2, -0.9,0,0,1024,1024,1024,1024,0,0,0,0,324.9,0,0,96,4.162,4.165,4.162,4.164,0,0,9.077,67.28,1008.9672140455,3.608924,6,P-GPS,
5800,2025-03-14 05:44:10,0,0,3.608924,,,1008.9672140455,3.937008,0,0,0,18,2,16.689,1008.9672140455,3.608924,0.223694,0,0,0,0,325.1, 0.9, -1.1,0,0,1024,1024,1024,1024,0,0,0,0,324.9,0,0,96,4.153,4.156,4.154,4.155,0,0,8.172,67.28,1008.9672140455,3.608924,6,P-GPS,
6000,2025-03-14 05:44:10,0,0,3.608924,,,1008.9672140455,3.937008,0,0,0,18,2,16.689,1008.9672140455,3.608924,0.223694,0,0,0,0,325.3, 0.4, -0.5,0,0,1024,1024,1024,1024,0,0,0,0,324.9,0,0,96,4.153,4.156,4.154,4.155,0,0,8.172,67.28,1008.9672140455,3.608924,6,P-GPS,
6200,2025-03-14 05:44:11,0,0,3.608924,,,1008.9672140455,3.937008,0,0,0,18,2,16.689,1008.9672140455,3.608924,0.223694,0,0,0,0,325, 1.2, -1.2,0,0,1024,1024,1024,1024,0,0,0,0,324.9,0,0,96,4.153,4.156,4.154,4.155,0,0,8.172,67.28,1008.9672140455,3.608924,6,P-GPS,
6400,2025-03-14 05:44:11,0,0,3.608924,,,1008.9672140455,3.937008,0,0,0,18,2,16.689,1008.9672140455,3.608924,0.223694,0,0,0,0,324.8, 0.9, -1.8,0,0,1024,1024,1024,1024,0,0,0,0,324.9,0,0,96,4.153,4.156,4.154,4.155,0,0,8.172,67.28,1008.9672140455,3.608924,6,P-GPS,
6600,2025-03-14 05:44:11,0,0,3.937008,,,1009.2952980455,3.608924,0,0,0,19,2,16.689,1009.2952980455,3.937008,0.223694,0,0,0,0,325, 1.1, -1.9,0,0,1024,1024,1024,1024,0,0,0,0,324.9,0,0,96,4.153,4.156,4.154,4.155,0,0,8.172,67.28,1009.2952980455,3.937008,6,P-GPS,
6800,2025-03-14 05:44:11,0,0,3.937008,,,1009.2952980455,3.608924,0,0,0,19,2,16.689,1009.2952980455,3.937008,0.223694,0,0,0,0,324.6, 1.4, -1.3,0,0,1024,1024,1024,1024,0,0,0,0,324.9,0,0,96,4.153,4.156,4.154,4.155,0,0,8.172,67.28,1009.2952980455,3.937008,6,P-GPS,
7000,2025-03-14 05:44:11,0,0,3.937008,,,1009.2952980455,3.608924,0,0,0,18,2,16.689,1009.2952980455,3.937008,0.223694,0,0,0,0,324.8, 1.2, -1.1,0,0,1024,1024,1024,1024,0,0,0,0,324.9,0,0,96,4.164,4.158,4.162,4.159,0,0,8.172,67.28,1009.2952980455,3.937008,6,P-GPS,
7200,2025-03-14 05:44:11,0,0,3.937008,,,1009.2952980455,3.608924,0,0,0,18,2,16.689,1009.2952980455,3.937008,0.223694,0,0,0,0,324.8, 1.4, -2.3,0,0,1024,1024,1024,1024,0,0,0,0,324.9,0,0,96,4.164,4.158,4.162,4.159,0,0,8.172,67.28,1009.2952980455,3.937008,6,P-GPS,
7400,2025-03-14 05:44:12,0,0,3.937008,,,1009.2952980455,3.608924,0,0,0,18,2,16.689,1009.2952980455,3.937008,0.223694,0,0,0,0,324.4, 1.4, -1.7,0,0,1024,1024,1024,1024,0,0,0,0,324.9,0,0,96,4.164,4.158,4.162,4.159,0,0,8.172,67.28,1009.2952980455,3.937008,6,P-GPS,
7600,2025-03-14 05:44:12,0,0,3.937008,,,1009.2952980455,3.608924,0,0,0,18,2,16.689,1009.2952980455,3.937008,0.223694,0,0,0,0,324.8, 0.6, -2.4,0,0,1024,1024,1024,1024,0,0,0,0,324.9,0,0,96,4.164,4.158,4.162,4.159,0,0,8.172,67.28,1009.2952980455,3.937008,6,P-GPS,
7800,2025-03-14 05:44:12,0,0,3.937008,,,1009.2952980455,3.608924,0,0,0,19,2,16.689,1009.2952980455,3.937008,0.223694,0,0,0,0,325.1, 0.4, -4.7,0,0,1024,1024,1024,1024,0,0,0,0,324.9,0,0,96,4.164,4.158,4.162,4.159,0,0,8.172,67.28,1009.2952980455,3.937008,6,P-GPS,
8000,2025-03-14 05:44:12,0,0,3.937008,,,1009.2952980455,3.608924,0,0,0,19,2,16.628,1009.2952980455,3.937008,0.223694,0,0,0,0,325, -0.1, -4.4,0,0,1024,1024,1025,1024,0,0,0,0,324.9,0,0,96,4.155,4.153,4.154,4.151,0,0,8.491,67.64,1009.2952980455,3.937008,6,P-GPS,
8200,2025-03-14 05:44:12,0,0,3.937008,,,1009.2952980455,3.608924,0,0,0,19,2,16.628,1009.2952980455,3.937008,0.223694,0,0,0,0,325.1, 0, -3,0,0,1024,1024,1041,1024,0,0,3,0,324.9,0,0,96,4.155,4.153,4.154,4.151,0,0,8.491,67.64,1009.2952980455,3.937008,6,P-GPS,
8400,2025-03-14 05:44:13,0,0,3.937008,,,1009.2952980455,3.608924,0,0,0,19,2,16.628,1009.2952980455,3.937008,0.223694,0,0,0,0,325.3, 0.6, -2.2,0,0,1024,1024,1070,1024,0,0,7,0,324.9,0,0,96,4.155,4.153,4.154,4.151,0,0,8.491,67.64,1009.2952980455,3.937008,6,P-GPS,
8600,2025-03-14 05:44:13,0,0,3.937008,,,1009.2952980455,3.608924,0,0,0,19,2,16.628,1009.2952980455,3.937008,0.223694,0,0,0,0,325, 0.6, -1.8,0,0,1024,1024,1070,1024,0,0,7,0,324.9,0,0,96,4.155,4.153,4.154,4.151,0,0,8.491,67.64,1009.2952980455,3.937008,6,P-GPS,
8800,2025-03-14 05:44:13,0,0,3.937008,,,1009.2952980455,3.608924,0,0,0,19,2,16.628,1009.2952980455,3.937008,0.223694,0,0,0,0,325, 1.1, -1.9,0,0,1024,1024,1086,1024,0,0,9,0,324.9,0,0,96,4.155,4.153,4.154,4.151,0,0,8.491,67.64,1009.2952980455,3.937008,6,P-GPS,
9000,2025-03-14 05:44:13,0,0,3.937008,,,1009.2952980455,3.608924,0,0,0,19,2,16.629,1009.2952980455,3.937008,0.223694,0,0,0,0,324.9, 0.5, -2.2,0,0,1024,1024,1098,1024,0,0,11,0,324.9,0,0,95,4.155,4.158,4.154,4.155,0,0,8.569,67.64,1009.2952980455,3.937008,6,P-GPS,
9200,2025-03-14 05:44:13,0,0,3.937008,,,1009.2952980455,3.608924,0,0,0,19,2,16.629,1009.2952980455,3.937008,0.223694,0,0,0,0,325.1, 0.9, -2.3,0,0,1024,1024,1108,1024,0,0,13,0,324.9,0,0,95,4.155,4.158,4.154,4.155,0,0,8.569,67.64,1009.2952980455,3.937008,6,P-GPS,
9400,2025-03-14 05:44:14,0,0,3.937008,,,1009.2952980455,3.608924,0,0,0,18,2,16.629,1009.2952980455,3.937008,0.223694,0,0,0,0,324.9, 0.4, -2.5,0,0,1024,1024,1113,1024,0,0,13,0,324.9,0,0,95,4.155,4.158,4.154,4.155,0,0,8.569,67.64,1009.2952980455,3.937008,6,P-GPS,
9600,2025-03-14 05:44:14,0,0,3.937008,,,1009.2952980455,3.608924,0,0,0,18,2,16.629,1009.2952980455,3.937008,0.223694,0,0,0,0,324.9, 0, -2.4,0,0,1024,1024,1118,1024,0,0,14,0,324.9,0,0,95,4.155,4.158,4.154,4.155,0,0,8.569,67.64,1009.2952980455,3.937008,6,P-GPS,
9800,2025-03-14 05:44:14,0,0,3.937008,,,1009.2952980455,3.608924,0,0,0,18,2,16.629,1009.2952980455,3.937008,0.223694,0,0,0,-0.223694,324.9, -0.6, -2.4,0,0,1024,1024,1117,1024,0,0,14,0,324.9,0,0,95,4.155,4.158,4.154,4.155,0,0,8.569,67.64,1009.2952980455,3.937008,6,P-GPS,
10000,2025-03-14 05:44:14,0,0,3.937008,,,1009.2952980455,3.608924,0,0,0,18,2,16.615,1009.2952980455,3.937008,0.223694,0,0,0,-0.223694,324.7, -0.5, -2.4,0,0,1024,1024,1134,1024,0,0,17,0,324.9,0,0,95,4.155,4.152,4.155,4.152,0,0,8.476,67.82,1009.2952980455,3.937008,6,P-GPS,
10200,2025-03-14 05:44:15,0,0,3.937008,,,1009.2952980455,3.937008,0,0,0,17,2,16.615,1009.2952980455,3.937008,0.223694,0,0,0,-0.223694,325, -0.9, -2,0,0,1024,1024,1137,1024,0,0,17,0,324.9,0,0,95,4.155,4.152,4.155,4.152,0,0,8.476,67.82,1009.2952980455,3.937008,6,P-GPS,
10400,2025-03-14 05:44:15,37.0150047090782,140.149968120605,3.937008,,,1009.2952980455,3.937008,0,0,0,17,2,16.615,1009.2952980455,3.937008,0.223694,0,0,0,-0.223694,325.1, -1.4, -2.2,0,0,1024,1024,1135,1024,0,0,17,0,324.9,0,0,95,4.155,4.152,4.155,4.152,0,0,8.476,67.82,1009.2952980455,3.937008,6,P-GPS,"GNSSがありません。慎重に飛行してください GNSS信号が微弱です。ホバリングが不安定です。慎重に飛行してください (Code: 30002)"
10600,2025-03-14 05:44:15,37.0150048078886,140.149968100784,4.265092,,,1009.6233820455,3.937008,0,0.036510499856,0.036510499856,17,2,16.615,1009.6233820455,4.265092,0.223694,0.036510499856,0,0,-0.223694,325, -1.6, -2.7,0,0,1024,1024,1159,1024,0,0,20,0,324.9,0,0,95,4.155,4.152,4.155,4.152,0,0,8.476,67.82,1009.6233820455,4.265092,6,P-GPS,
10800,2025-03-14 05:44:15,37.0150049395873,140.149968050705,4.265092,,,1009.6233820455,3.937008,0,0.086531498832,0.086726708812,18,2,16.615,1009.6233820455,4.265092,0.223694,0.086531498832,0,0,-0.223694,325.2, -0.9, -3.1,0,0,1024,1024,1169,1024,0,0,22,0,324.9,0,0,95,4.155,4.152,4.155,4.152,0,0,8.476,67.82,1009.6233820455,4.265092,6,P-GPS,
11000,2025-03-14 05:44:15,37.0150050645331,140.149967937128,4.265092,,,1009.6233820455,3.937008,0,0.140271001864,0.143055450772,20,2,16.616,1009.6233820455,4.265092,0.223694,0.140271001864,0,0,-0.223694,324.8, -0.6, -3.2,0,0,1024,1024,1190,1024,0,0,25,0,324.9,0,0,95,4.152,4.156,4.153,4.152,0,0,8.424,68,1009.6233820455,4.265092,6,P-GPS,
11200,2025-03-14 05:44:16,37.0150050989181,140.149967727316,4.265092,,,1009.6233820455,4.265092,0,0.182640425792,0.20545276248,19,2,16.616,1009.6233820455,4.265092,0.223694,0.182640425792,0,0,-0.447388,324.9, -0.3, -2.7,0,0,1024,1024,1173,1024,0,0,23,0,324.9,0,0,95,4.152,4.156,4.153,4.152,0,0,8.424,68,1009.6233820455,4.265092,6,P-GPS,
11400,2025-03-14 05:44:16,37.0150050256756,140.149967470988,4.593176,,,1009.9514660455,4.265092,0,0.22171588636,0.284764772892,18,5,16.616,1009.9514660455,4.593176,0.223694,0.22171588636,0,0,-0.671082,325.1, -1, -1.6,0,0,1024,1024,1173,1024,0,0,23,0,324.9,0,0,95,4.152,4.156,4.153,4.152,0,0,8.424,68,1009.9514660455,4.593176,6,P-GPS,
11600,2025-03-14 05:44:16,37.0150049237927,140.149967200242,4.593176,,,1009.9514660455,4.593176,0,0.27933399844,0.37195867332,18,5,16.616,1009.9514660455,4.593176,0.223694,0.27933399844,0,0,-0.447388,325.1, -1, -1.5,0,0,1024,1024,1162,1024,0,0,21,0,324.9,0,0,95,4.152,4.156,4.153,4.152,0,0,8.424,68,1009.9514660455,4.593176,6,P-GPS,
11800,2025-03-14 05:44:16,37.0150048261951,140.149966941478,4.92126,,,1010.2795500455,4.593176,0,0.34615486672,0.4553313794,18,5,16.616,1010.2795500455,4.92126,0.223694,0.34615486672,0,0,-0.447388,325.1, -1.2, -2,0,0,1042,1024,1176,1024,3,0,23,0,324.9,0,0,95,4.152,4.156,4.153,4.152,0,0,8.424,68,1010.2795500455,4.92126,6,P-GPS,"Setting new Maximum Flight Altitude to 150m (492 ft)"
12000,2025-03-14 05:44:16,37.0150047621771,140.149966677863,4.92126,,,1010.2795500455,4.92126,0,0.4207513258,0.53560041084,18,5,16.597,1010.2795500455,4.92126,0.223694,0.4207513258,0,0,-0.447388,324.9, -1.4, -1.7,0,0,1062,1024,1181,1024,6,0,24,0,324.9,0,0,95,4.151,4.153,4.15,4.15,0,0,8.558,68,1010.2795500455,4.92126,6,P-GPS,
12200,2025-03-14 05:44:16,37.0150047276889,140.149966388886,5.249344,,,1010.6076340455,4.92126,0,0.50453741772,0.62072180464,18,5,16.597,1010.6076340455,5.249344,0.223694,0.50453741772,0,0,-0.447388,324.9, -1.3, -1.9,0,0,1075,1024,1180,1024,8,0,24,0,324.9,0,0,95,4.151,4.153,4.15,4.15,0,0,8.558,68,1010.6076340455,5.249344,6,P-GPS,
12400,2025-03-14 05:44:17,37.015004699439,140.14996611664,5.249344,,,1010.6076340455,5.249344,0,0.58381563548,0.70070212216,17,5,16.597,1010.6076340455,5.249344,0.223694,0.58381563548,0,0,-0.447388,325, -0.7, -1.7,0,0,1087,1024,1181,1024,10,0,24,0,324.9,0,0,95,4.151,4.153,4.15,4.15,0,0,8.558,68,1010.6076340455,5.249344,6,P-GPS,
12600,2025-03-14 05:44:17,37.0150046317368,140.14996591629,5.577428,,,1010.9357180455,5.249344,0,0.64278873448,0.76408138928,18,5,16.597,1010.9357180455,5.577428,0.223694,0.64278873448,0,0,-0.671082,325.1, -0.9, -1.8,0,0,1089,1024,1185,1024,10,0,24,0,324.9,0,0,95,4.151,4.153,4.15,4.15,0,0,8.558,68,1010.9357180455,5.577428,6,P-GPS,
12800,2025-03-14 05:44:17,37.0150046188006,140.149965820278,5.577428,,,1010.9357180455,5.577428,0,0.67095146504,0.79244753192,18,5,16.597,1010.9357180455,5.577428,0.223694,0.67095146504,0,0,-0.671082,325, -1, -2.3,0,0,1093,1024,1186,1024,10,0,25,0,324.9,0,0,95,4.151,4.153,4.15,4.15,0,0,8.558,68,1010.9357180455,5.577428,6,P-GPS,"ホームポイントを更新 (Code: 3000001)"
13000,2025-03-14 05:44:17,37.0150046475826,140.149965751524,5.905512,,,1011.2638020455,5.577428,0,0.690534799,0.81506236204,18,5,16.595,1011.2638020455,5.905512,0.223694,0.690534799,0,0,-0.671082,325, -1, -2.5,0,0,1103,1024,1185,1024,12,0,24,0,324.9,0,0,95,4.151,4.155,4.15,4.15,0,0,8.401,68,1011.2638020455,5.905512,6,P-GPS,
13200,2025-03-14 05:44:17,37.0150047381758,140.149965661773,5.905512,,,1011.2638020455,5.905512,0,0.71639437988,0.85720475184,18,5,16.595,1011.2638020455,5.905512,0.223694,0.71639437988,0,0,-0.671082,325, -1.4, -2.2,0,0,1136,1024,1185,1024,17,0,24,0,324.9,0,0,95,4.151,4.155,4.15,4.15,0,0,8.401,68,1011.2638020455,5.905512,6,P-GPS,
13400,2025-03-14 05:44:18,37.0150048682603,140.149965580177,6.233596,,,1011.5918860455,6.233596,0,0.74236222848,0.91028874304,18,5,16.595,1011.5918860455,6.233596,0.223694,0.74236222848,0,0,-0.671082,325, -1.6, -2.4,0,0,1137,1024,1192,1024,17,0,25,0,324.9,0,0,95,4.151,4.155,4.15,4.15,0,0,8.401,68,1011.5918860455,6.233596,6,P-GPS,
13600,2025-03-14 05:44:18,37.0150050319396,140.149965496497,6.233596,,,1011.5918860455,6.233596,0,0.77348755756,0.97479005744,18,5,16.595,1011.5918860455,6.233596,0.223694,0.77348755756,0,0,-0.671082,325, -1.8, -3.1,0,0,1137,1024,1192,1024,17,0,25,0,324.9,0,0,95,4.151,4.155,4.15,4.15,0,0,8.401,68,1011.5918860455,6.233596,6,P-GPS,飛行中
13800,2025-03-14 05:44:18,37.0150052402861,140.149965350183,6.56168,,,1011.9199700455,6.56168,0,0.8300361158,1.06193901036,17,5,16.595,1011.9199700455,6.56168,0.223694,0.8300361158,0,0,-0.671082,325.2, -2.1, -2.7,0,0,1141,1024,1191,1024,18,0,25,0,324.9,0,0,95,4.151,4.155,4.15,4.15,0,0,8.401,68,1011.9199700455,6.56168,6,P-GPS,
14000,2025-03-14 05:44:18,37.0150055048344,140.149965122514,6.889764,,,1012.2480540455,6.889764,0.223694,0.9204068536,1.179051875,18,5,16.605,1012.2480540455,6.889764,0.223694,0.9204068536,0.223694,0,-0.671082,325, -2.1, -3,0,0,1145,1024,1189,1024,18,0,25,0,324.9,0,0,95,4.153,4.148,4.148,4.144,0,0,8.321,68,1012.2480540455,6.889764,6,P-GPS,
14200,2025-03-14 05:44:18,37.0150058496752,140.149964749291,6.889764,,,1012.2480540455,6.889764,0.223694,1.06666998164,1.34533796956,17,5,16.605,1012.2480540455,6.889764,0.223694,1.06666998164,0,-0.223694,-0.671082,324.8, -2.1, -1.8,0,0,1144,1024,1189,1024,18,0,25,0,324.9,0,0,95,4.153,4.148,4.148,4.144,0,0,8.321,68,1012.2480540455,6.889764,6,P-GPS,
14400,2025-03-14 05:44:19,37.0150061652746,140.149964322404,7.217848,,,1012.5761380455,7.217848,0.3131716,1.22744754584,1.51482288312,17,5,16.605,1012.5761380455,7.217848,0.3131716,1.22744754584,0.223694,-0.223694,-0.671082,325, -2.1, -0.9,0,0,1142,1024,1191,1024,18,0,25,0,324.9,0,0,95,4.153,4.148,4.148,4.144,0,0,8.321,68,1012.5761380455,7.217848,6,P-GPS,
14600,2025-03-14 05:44:19,37.0150065066546,140.149963877057,7.217848,,,1012.5761380455,7.217848,0.3131716,1.399442302,1.69467197024,15,5,16.605,1012.5761380455,7.217848,0.3131716,1.399442302,0.223694,-0.223694,-0.671082,325, -2.3, -0.8,0,0,1142,1024,1201,1024,18,0,27,0,324.9,0,0,95,4.153,4.148,4.148,4.144,0,0,8.321,68,1012.5761380455,7.217848,6,P-GPS,
14800,2025-03-14 05:44:19,37.0150068849474,140.149963372107,7.545932,,,1012.9042220455,7.545932,0.3131716,1.59495740012,1.89638785596,16,5,16.605,1012.9042220455,7.545932,0.3131716,1.59495740012,0.223694,-0.223694,-0.671082,325, -2.3, -0.3,0,0,1142,1024,1196,1024,18,0,26,0,324.9,0,0,95,4.153,4.148,4.148,4.144,0,0,8.321,68,1012.9042220455,7.545932,6,P-GPS,
15000,2025-03-14 05:44:19,37.0150072219427,140.14996287455,7.874016,,,1013.2323060455,7.874016,0.3131716,1.78220806228,2.08646004052,15,5,16.597,1013.2323060455,7.874016,0.3131716,1.78220806228,0.223694,-0.223694,-0.671082,324.9, -2.7, 0.1,0,0,1142,1024,1194,1024,18,0,26,0,324.9,0,0,95,4.152,4.152,4.151,4.148,0,0,8.326,68.18,1013.2323060455,7.874016,6,P-GPS,
15200,2025-03-14 05:44:19,37.0150076342245,140.149962399886,7.874016,,,1013.2323060455,7.874016,0.3131716,1.97901581136,2.29078419404,15,5,16.597,1013.2323060455,7.874016,0.3131716,1.97901581136,0.223694,-0.223694,-0.671082,325, -2.6, -0.8,0,0,1142,1024,1199,1024,18,0,27,0,324.9,0,0,95,4.152,4.152,4.151,4.148,0,0,8.326,68.18,1013.2323060455,7.874016,6,P-GPS,
15400,2025-03-14 05:44:20,37.0150080258156,140.149961972145,8.2021,,,1013.5603900455,8.2021,0.3131716,2.16165361248,2.4803642526,13,5,16.597,1013.5603900455,8.2021,0.3131716,2.16165361248,0.223694,-0.223694,-0.671082,324.9, -3.1, 0.1,0,0,1142,1024,1195,1024,18,0,26,0,324.9,0,0,95,4.152,4.152,4.151,4.148,0,0,8.326,68.18,1013.5603900455,8.2021,6,P-GPS,
15600,2025-03-14 05:44:20,37.015008437515,140.149961528525,8.2021,,,1013.5603900455,8.530184,0.4921268,2.35340558712,2.67851714608,12,5,16.597,1013.5603900455,8.2021,0.4921268,2.35340558712,0.447388,-0.223694,-0.671082,325, -3, -0.2,0,0,1142,1024,1197,1024,18,0,26,0,324.9,0,0,95,4.152,4.152,4.151,4.148,0,0,8.326,68.18,1013.5603900455,8.2021,6,P-GPS,
15800,2025-03-14 05:44:20,37.0150088195498,140.149961106886,8.530184,,,1013.8884740455,8.530184,0.4921268,2.53457029108,2.86430127276,12,5,16.597,1013.8884740455,8.530184,0.4921268,2.53457029108,0.447388,-0.223694,-0.671082,325, -2.6, -0.6,0,0,1140,1024,1198,1024,18,0,26,0,324.9,0,0,95,4.152,4.152,4.151,4.148,0,0,8.326,68.18,1013.8884740455,8.530184,6,P-GPS,
16000,2025-03-14 05:44:20,37.0150092107832,140.149960708553,8.858268,,,1014.2165580455,8.858268,0.6263432,2.7129758086,3.04826453324,10,4,16.593,1014.2165580455,8.858268,0.6263432,2.7129758086,0.447388,-0.447388,-0.671082,324.9, -2.6, -0.2,0,0,1140,1024,1198,1024,18,0,26,0,324.9,0,0,95,4.143,4.146,4.144,4.142,0,0,8.226,68.18,1014.2165580455,8.858268,6,P-GPS,
16200,2025-03-14 05:44:21,37.0150096421316,140.149960266483,8.858268,,,1014.2165580455,9.186352,0.6263432,2.91114182544,3.25161755812,12,4,16.593,1014.2165580455,8.858268,0.6263432,2.91114182544,0.447388,-0.447388,-0.671082,325, -2.3, -0.4,0,0,1140,1024,1199,1024,18,0,27,0,324.9,0,0,95,4.143,4.146,4.144,4.142,0,0,8.226,68.18,1014.2165580455,8.858268,6,P-GPS,
16400,2025-03-14 05:44:21,37.0150100574421,140.149959815696,9.186352,,,1014.5446420455,9.186352,0.7158208,3.10827109684,3.4521326564,13,4,16.593,1014.5446420455,9.186352,0.7158208,3.10827109684,0.671082,-0.223694,-0.671082,324.8, -2.1, 1,0,0,1140,1024,1197,1024,18,0,26,0,324.9,0,0,95,4.143,4.146,4.144,4.142,0,0,8.226,68.18,1014.5446420455,9.186352,6,P-GPS,
16600,2025-03-14 05:44:21,37.0150105692776,140.149959477651,9.514436,,,1014.8727260455,9.514436,0.7158208,3.3032153288,3.6632547104,13,4,16.593,1014.8727260455,9.514436,0.7158208,3.3032153288,0.671082,-0.223694,-0.894776,325, -1.7, -1.7,0,0,1140,1024,1196,1024,18,0,26,0,324.9,0,0,95,4.143,4.146,4.144,4.142,0,0,8.226,68.18,1014.8727260455,9.514436,6,P-GPS,
16800,2025-03-14 05:44:21,37.0150111113947,140.149959085923,9.84252,,,1015.2008100455,9.84252,0.7158208,3.5190617924,3.8916011744,13,4,16.593,1015.2008100455,9.84252,0.7158208,3.5190617924,0.671082,-0.223694,-0.894776,325, -1.5, -2.6,0,0,1141,1024,1191,1024,18,0,25,0,324.9,0,0,95,4.143,4.146,4.144,4.142,0,0,8.226,68.18,1015.2008100455,9.84252,6,P-GPS,
17000,2025-03-14 05:44:21,37.0150115868407,140.149958638887,9.84252,,,1015.2008100455,9.84252,0.8052984,3.7318570748,4.1085303152,12,4,16.554,1015.2008100455,9.84252,0.8052984,3.7318570748,0.671082,-0.447388,-0.671082,325, -1.7, -1.4,0,0,1141,1024,1191,1024,18,0,25,0,324.9,0,0,95,4.139,4.145,4.145,4.145,0,0,8.601,68.54,1015.2008100455,9.84252,6,P-GPS,
17200,2025-03-14 05:44:21,37.0150120616645,140.149958176082,10.170604,,,1015.5288940455,10.170604,0.6263432,3.948326898,4.3280513196,11,4,16.554,1015.5288940455,10.170604,0.8052984,3.948326898,0.447388,-0.447388,-0.671082,324.9, -1.8, -1,0,0,1141,1024,1191,1024,18,0,25,0,324.9,0,0,95,4.139,4.145,4.145,4.145,0,0,8.601,68.54,1015.5288940455,10.170604,6,P-GPS,
17400,2025-03-14 05:44:22,37.0150126086838,140.149957743444,10.498688,,,1015.8569780455,10.170604,0.8052984,4.1768702124,4.5640749492,11,4,16.554,1015.8569780455,10.498688,0.8052984,4.1768702124,0.671082,-0.447388,-0.671082,325.2, -2, -0.6,0,0,1141,1024,1190,1024,18,0,25,0,324.9,0,0,95,4.139,4.145,4.145,4.145,0,0,8.601,68.54,1015.8569780455,10.498688,6,P-GPS,
17600,2025-03-14 05:44:22,37.0150132186356,140.149957302755,10.498688,,,1015.8569780455,10.498688,0.8052984,4.4239174644,4.8209975296,12,4,16.554,1015.8569780455,10.498688,0.8052984,4.4239174644,0.671082,-0.447388,-0.671082,325.1, -1.6, -0.6,0,0,1141,1024,1189,1024,18,0,25,0,324.9,0,0,95,4.139,4.145,4.145,4.145,0,0,8.601,68.54,1015.8569780455,10.498688,6,P-GPS,
17800,2025-03-14 05:44:22,37.015013817853,140.149956876291,10.826772,,,1016.1850620455,10.826772,0.8052984,4.6663715404,5.0724739156,12,4,16.554,1016.1850620455,10.826772,0.8052984,4.6663715404,0.671082,-0.447388,-0.671082,325.3, -1.3, -0.7,0,0,1142,1024,1189,1024,18,0,25,0,324.9,0,0,95,4.139,4.145,4.145,4.145,0,0,8.601,68.54,1016.1850620455,10.826772,6,P-GPS,
18000,2025-03-14 05:44:22,37.0150144285854,140.149956515255,11.154856,,,1016.5131460455,10.826772,0.7158208,4.8995736476,5.3188649996,11,4,16.596,1016.5131460455,11.154856,0.8052984,4.8995736476,0.671082,-0.223694,-0.671082,325.2, -1.2, -1.3,0,0,1142,1024,1189,1024,18,0,25,0,324.9,0,0,95,4.145,4.147,4.14,4.141,0,0,8.195,68.54,1016.5131460455,11.154856,6,P-GPS,
18200,2025-03-14 05:44:22,37.0150150632211,140.149956185318,11.154856,,,1016.5131460455,11.154856,0.7158208,5.1342849412,5.569553984,11,4,16.596,1016.5131460455,11.154856,0.8052984,5.1342849412,0.671082,-0.223694,-0.671082,325.2, -1, -2.2,0,0,1142,1024,1189,1024,18,0,25,0,324.9,0,0,95,4.145,4.147,4.14,4.141,0,0,8.195,68.54,1016.5131460455,11.154856,6,P-GPS,
18400,2025-03-14 05:44:23,37.0150156760743,140.149955820437,11.48294,,,1016.8412300455,11.154856,0.8052984,5.3712928228,5.8171589788,12,4,16.596,1016.8412300455,11.48294,0.8052984,5.3712928228,0.671082,-0.447388,-0.671082,324.9, -1, -2.6,0,0,1143,1024,1189,1024,18,0,25,0,324.9,0,0,95,4.145,4.147,4.14,4.141,0,0,8.195,68.54,1016.8412300455,11.48294,6,P-GPS,
18600,2025-03-14 05:44:23,37.0150162612447,140.149955398471,11.811024,,,1017.1693140455,11.48294,0.8052984,5.6125657964,6.0635172544,12,4,16.596,1017.1693140455,11.811024,0.8052984,5.6125657964,0.671082,-0.447388,-0.671082,324.9, -1, -2.3,0,0,1143,1024,1188,1024,18,0,25,0,324.9,0,0,95,4.145,4.147,4.14,4.141,0,0,8.195,68.54,1017.1693140455,11.811024,6,P-GPS,
18800,2025-03-14 05:44:23,37.0150168883312,140.14995496173,11.811024,,,1017.1693140455,11.811024,0.8052984,5.8686681668,6.325295478,13,4,16.596,1017.1693140455,11.811024,0.8052984,5.8686681668,0.671082,-0.447388,-0.671082,325, -0.2, -1.8,0,0,1147,1024,1186,1024,19,0,25,0,324.9,0,0,95,4.145,4.147,4.14,4.141,0,0,8.195,68.54,1017.1693140455,11.811024,6,P-GPS,
19000,2025-03-14 05:44:23,37.0150174740702,140.149954521485,12.139108,,,1017.4973980455,11.811024,0.8052984,6.1144030828,6.5745408928,14,4,16.577,1017.4973980455,12.139108,0.8052984,6.1144030828,0.671082,-0.447388,-0.671082,325, -0.4, -1.2,0,0,1147,1024,1186,1024,19,0,25,0,324.9,0,0,95,4.145,4.146,4.144,4.145,0,0,8.292,68.54,1017.4973980455,12.139108,6,P-GPS,
19200,2025-03-14 05:44:23,37.015018048208,140.149954001912,12.467192,,,1017.8254820455,12.139108,0.8052984,6.3720802564,6.8329726596,13,4,16.577,1017.8254820455,12.467192,0.8052984,6.3720802564,0.671082,-0.447388,-0.671082,325, -0.5, -0.7,0,0,1147,1024,1185,1024,19,0,24,0,324.9,0,0,95,4.145,4.146,4.144,4.145,0,0,8.292,68.54,1017.8254820455,12.467192,6,P-GPS,
19400,2025-03-14 05:44:24,37.0150186794267,140.149953475435,12.467192,,,1017.8254820455,12.467192,0.8052984,6.6470474568,7.1096787052,12,4,16.577,1017.8254820455,12.467192,0.8052984,6.6470474568,0.671082,-0.447388,-0.671082,325.1, -0.5, -0.5,0,0,1147,1024,1187,1024,19,0,25,0,324.9,0,0,95,4.145,4.146,4.144,4.145,0,0,8.292,68.54,1017.8254820455,12.467192,6,P-GPS,
19600,2025-03-14 05:44:24,37.0150193414411,140.149952948664,12.795276,,,1018.1535660455,12.467192,0.8052984,6.9308401168,7.39583357,12,4,16.577,1018.1535660455,12.795276,0.8052984,6.9308401168,0.671082,-0.447388,-0.671082,325.1, -0.5, -0.6,0,0,1147,1024,1188,1024,19,0,25,0,324.9,0,0,95,4.145,4.146,4.144,4.145,0,0,8.292,68.54,1018.1535660455,12.795276,6,P-GPS,
19800,2025-03-14 05:44:24,37.0150200046633,140.149952438663,12.795276,,,1018.1535660455,12.795276,0.8052984,7.21210653,7.679790272,12,4,16.577,1018.1535660455,12.795276,0.8052984,7.21210653,0.671082,-0.447388,-0.671082,325, -0.2, -1,0,0,1147,1024,1188,1024,19,0,25,0,324.9,0,0,95,4.145,4.146,4.144,4.145,0,0,8.292,68.54,1018.1535660455,12.795276,6,P-GPS,
20000,2025-03-14 05:44:24,37.0150207148142,140.149951881769,13.12336,,,1018.4816500455,12.795276,0.8052984,7.5154529964,7.9854989432,13,4,16.589,1018.4816500455,13.12336,0.8052984,7.5154529964,0.671082,-0.447388,-0.671082,325, -0.3, -1.3,0,0,1146,1024,1188,1024,18,0,25,0,324.9,0,0,95,4.144,4.146,4.141,4.143,0,0,8.064,68.72,1018.4816500455,13.12336,6,P-GPS,
20200,2025-03-14 05:44:25,37.0150213719242,140.149951308138,13.451444,,,1018.8097340455,13.12336,0.8052984,7.8069556304,8.277723362,12,4,16.589,1018.8097340455,13.451444,0.8052984,7.8069556304,0.671082,-0.447388,-0.671082,324.8, -0.1, -1.4,0,0,1145,1024,1188,1024,18,0,25,0,324.9,0,0,95,4.144,4.146,4.141,4.143,0,0,8.064,68.72,1018.8097340455,13.451444,6,P-GPS,
20400,2025-03-14 05:44:25,37.0150219460534,140.14995070619,13.451444,,,1018.8097340455,13.12336,0.8052984,8.0800855604,8.5509189088,12,4,16.589,1018.8097340455,13.451444,0.8052984,8.0800855604,0.671082,-0.447388,-0.671082,324.8, -0.4, -1.4,0,0,1144,1024,1188,1024,18,0,25,0,324.9,0,0,95,4.144,4.146,4.141,4.143,0,0,8.064,68.72,1018.8097340455,13.451444,6,P-GPS,
20600,2025-03-14 05:44:25,37.015022482916,140.149950024122,13.779528,,,1019.1378180455,13.451444,0.8052984,8.3573821572,8.8299215424,13,4,16.589,1019.1378180455,13.779528,0.8052984,8.3573821572,0.671082,-0.447388,-0.671082,324.9, -0.4, -1.1,0,0,1142,1024,1188,1024,18,0,25,0,324.9,0,0,95,4.144,4.146,4.141,4.143,0,0,8.064,68.72,1019.1378180455,13.779528,6,P-GPS,
20800,2025-03-14 05:44:25,37.0150230405836,140.149949359106,13.779528,,,1019.1378180455,13.451444,0.8052984,8.6375002764,9.1108598716,13,4,16.589,1019.1378180455,13.779528,0.8052984,8.6375002764,0.671082,-0.447388,-0.671082,324.8, -0.3, -1,0,0,1142,1024,1189,1024,18,0,25,0,324.9,0,0,95,4.144,4.146,4.141,4.143,0,0,8.064,68.72,1019.1378180455,13.779528,6,P-GPS,
21000,2025-03-14 05:44:25,37.0150236395236,140.149948683961,14.107612,,,1019.4659020455,13.779528,0.8052984,8.9311682648,9.4048887524,14,4,16.574,1019.4659020455,14.107612,0.8052984,8.9311682648,0.671082,-0.447388,-0.671082,324.9, -0.3, -0.8,0,0,1142,1024,1188,1024,18,0,25,0,324.9,0,0,95,4.14,4.146,4.141,4.144,0,0,8.167,68.72,1019.4659020455,14.107612,6,P-GPS,
21200,2025-03-14 05:44:26,37.0150241816847,140.149948018843,14.435696,,,1019.7939860455,14.107612,0.8052984,9.207021292,9.68175884,11,4,16.574,1019.7939860455,14.435696,0.8052984,9.207021292,0.671082,-0.447388,-0.671082,324.9, -0.4, -0.6,0,0,1142,1024,1187,1024,18,0,25,0,324.9,0,0,95,4.14,4.146,4.141,4.144,0,0,8.167,68.72,1019.7939860455,14.435696,6,P-GPS,
21400,2025-03-14 05:44:26,37.0150246780362,140.14994736586,14.435696,,,1019.7939860455,14.435696,0.8052984,9.4678152636,9.9444228904,7,3,16.574,1019.7939860455,14.435696,0.8052984,9.4678152636,0.671082,-0.447388,-0.671082,325, -0.3, -0.5,0,0,1143,1024,1187,1024,18,0,25,0,324.9,0,0,95,4.14,4.146,4.141,4.144,0,0,8.167,68.72,1019.7939860455,14.435696,6,P-GPS,
21600,2025-03-14 05:44:26,37.0150251992842,140.149946672588,14.76378,,,1020.1220700455,14.435696,0.8052984,9.7431761648,10.2218179124,5,2,16.574,1020.1220700455,14.76378,0.8052984,9.7431761648,0.671082,-0.447388,-0.671082,324.9, -1.2, -0.7,0,0,1143,1024,1187,1024,18,0,25,0,324.9,0,0,95,4.14,4.146,4.141,4.144,0,0,8.167,68.72,1020.1220700455,14.76378,6,P-GPS,"GNSSがありません。慎重に飛行してください GNSS信号が微弱です。ホバリングが不安定です。慎重に飛行してください (Code: 30002)"
21800,2025-03-14 05:44:26,37.0150257732271,140.149946024642,15.091864,,,1020.4501540455,14.76378,0.8052984,10.024934704,10.5037404936,4,1,16.574,1020.4501540455,15.091864,0.8052984,10.024934704,0.671082,-0.447388,-0.671082,324.9, -1.3, -1,0,0,1143,1024,1187,1024,18,0,25,0,324.9,0,0,95,4.14,4.146,4.141,4.144,0,0,8.167,68.72,1020.4501540455,15.091864,6,P-GPS,
22000,2025-03-14 05:44:26,37.0150263736663,140.149945440819,15.091864,,,1020.4501540455,15.091864,0.8052984,10.3020672588,10.7811027072,3,0,16.571,1020.4501540455,15.091864,0.8052984,10.3020672588,0.671082,-0.447388,-0.671082,324.9, -0.8, -0.5,0,0,1144,1024,1187,1024,18,0,25,0,324.9,0,0,95,4.144,4.144,4.143,4.143,0,0,8.135,68.9,1020.4501540455,15.091864,6,P-GPS,
22200,2025-03-14 05:44:26,37.015026983807,140.149944878909,15.419948,,,1020.7782380455,15.091864,0.8052984,10.5778874776,11.057415052,3,0,16.571,1020.7782380455,15.419948,0.8052984,10.5778874776,0.671082,-0.447388,-0.671082,325, -1.2, -0.2,0,0,1144,1024,1185,1024,18,0,24,0,324.9,0,0,95,4.144,4.144,4.143,4.143,0,0,8.135,68.9,1020.7782380455,15.419948,6,P-GPS,
22400,2025-03-14 05:44:27,37.0150275965778,140.149944338655,15.419948,,,1020.7782380455,15.419948,0.8052984,10.8504268564,11.3308402576,3,0,16.571,1020.7782380455,15.419948,0.8052984,10.8504268564,0.671082,-0.447388,-0.671082,324.9, -1.5, -0.9,0,0,1144,1024,1186,1024,18,0,25,0,324.9,0,0,95,4.144,4.144,4.143,4.143,0,0,8.135,68.9,1020.7782380455,15.419948,6,P-GPS,
22600,2025-03-14 05:44:27,37.0150282160347,140.149943763584,15.748032,,,1021.1063220455,15.419948,0.8052984,11.1313323772,11.6121722876,4,0,16.571,1021.1063220455,15.748032,0.8052984,11.1313323772,0.671082,-0.447388,-0.671082,325.1, -1.5, -0.3,0,0,1145,1024,1186,1024,18,0,25,0,324.9,0,0,95,4.144,4.144,4.143,4.143,0,0,8.135,68.9,1021.1063220455,15.748032,6,P-GPS,
22800,2025-03-14 05:44:27,37.0150288699462,140.149943169591,16.076116,,,1021.4344060455,15.748032,0.8052984,11.4254924916,11.9068901448,6,0,16.571,1021.4344060455,16.076116,0.8052984,11.4254924916,0.671082,-0.447388,-0.671082,325.1, -1.4, -0.3,0,0,1146,1024,1186,1024,18,0,25,0,324.9,0,0,95,4.144,4.144,4.143,4.143,0,0,8.135,68.9,1021.4344060455,16.076116,6,P-GPS,
23000,2025-03-14 05:44:27,37.015029508273,140.149942613169,16.076116,,,1021.4344060455,16.076116,0.8052984,11.7083008996,12.1906499964,12,0,16.565,1021.4344060455,16.076116,0.8052984,11.7083008996,0.671082,-0.447388,-0.671082,324.9, -1.7, -0.8,0,0,1145,1024,1188,1024,18,0,25,0,324.9,0,0,95,4.142,4.143,4.144,4.143,0,0,8.09,68.9,1021.4344060455,16.076116,6,P-GPS,
23200,2025-03-14 05:44:27,37.01503032766,140.149937819729,16.4042,,,1021.7624900455,16.076116,0.8052984,12.8564308576,13.6187340316,13,0,16.565,1021.7624900455,16.4042,0.8052984,12.8564308576,0.671082,-0.447388,-0.671082,325.1, -1.3, -0.5,0,0,1146,1024,1187,1024,18,0,25,0,324.9,0,0,95,4.142,4.143,4.144,4.143,0,0,8.09,68.9,1021.7624900455,16.4042,6,P-GPS,
23400,2025-03-14 05:44:28,37.01503091541,140.149937190769,16.4042,,,1021.7624900455,16.076116,0.8052984,13.1381565884,13.9007878464,14,0,16.565,1021.7624900455,16.4042,0.8052984,13.1381565884,0.671082,-0.447388,-0.671082,325.3, -1.1, 0,0,0,1145,1024,1187,1024,18,0,25,0,324.9,0,0,95,4.142,4.143,4.144,4.143,0,0,8.09,68.9,1021.7624900455,16.4042,6,P-GPS,
23600,2025-03-14 05:44:28,37.0150315266858,140.149936539123,16.732284,,,1022.0905740455,16.4042,0.8052984,13.4306434744,14.1936684332,13,0,16.565,1022.0905740455,16.732284,0.8052984,13.4306434744,0.671082,-0.447388,-0.671082,325.3, -0.6, 0,0,0,1145,1024,1186,1024,18,0,25,0,324.9,0,0,95,4.142,4.143,4.144,4.143,0,0,8.09,68.9,1022.0905740455,16.732284,6,P-GPS,
23800,2025-03-14 05:44:28,37.0150321217388,140.149935981711,17.060368,,,1022.4186580455,16.732284,0.8052984,13.7000988636,14.4647970508,16,0,16.565,1022.4186580455,17.060368,0.8052984,13.7000988636,0.671082,-0.447388,-0.671082,325.2, -0.9, -0.1,0,0,1145,1024,1186,1024,18,0,25,0,324.9,0,0,95,4.142,4.143,4.144,4.143,0,0,8.09,68.9,1022.4186580455,17.060368,6,P-GPS,
24000,2025-03-14 05:44:28,37.0150327821716,140.149935444416,17.060368,,,1022.4186580455,16.732284,0.8052984,13.9830713136,14.752133018,17,0,16.565,1022.4186580455,17.060368,0.8052984,13.9830713136,0.671082,-0.447388,-0.671082,325.2, -1.3, -0.5,0,0,1145,1024,1185,1024,18,0,24,0,324.9,0,0,95,4.139,4.141,4.14,4.139,0,0,8.146,68.9,1022.4186580455,17.060368,6,P-GPS,
24200,2025-03-14 05:44:28,37.0150334540343,140.149934925153,17.388452,,,1022.7467420455,17.060368,1.006623,14.2657156796,15.0401579616,16,2,16.565,1022.7467420455,17.388452,1.006623,14.2657156796,0.894776,-0.447388,-0.671082,324.9, -0.7, -1.2,0,0,1145,1024,1185,1024,18,0,24,0,324.9,0,0,95,4.139,4.141,4.14,4.139,0,0,8.146,68.9,1022.7467420455,17.388452,6,P-GPS,
24400,2025-03-14 05:44:29,37.0150341288032,140.149934312765,17.388452,,,1022.7467420455,17.060368,0.8052984,14.5676841932,15.3441934044,12,2,16.565,1022.7467420455,17.388452,1.006623,14.5676841932,0.671082,-0.447388,-0.671082,325, -0.9, -0.1,0,0,1145,1024,1185,1024,18,0,24,0,324.9,0,0,95,4.139,4.141,4.14,4.139,0,0,8.146,68.9,1022.7467420455,17.388452,6,P-GPS,
24600,2025-03-14 05:44:29,37.0150347888526,140.149933694986,17.716536,,,1023.0748260455,17.388452,0.9395148,14.8668311844,15.644849582,10,2,16.565,1023.0748260455,17.716536,1.006623,14.8668311844,0.671082,-0.671082,-0.671082,324.9, -0.8, 0.4,0,0,1144,1024,1183,1024,18,0,24,0,324.9,0,0,95,4.139,4.141,4.14,4.139,0,0,8.146,68.9,1023.0748260455,17.716536,6,P-GPS,
24800,2025-03-14 05:44:29,37.0150354541661,140.149933137752,17.716536,,,1023.0748260455,17.388452,0.8052984,15.1555779128,15.936844342,9,2,16.565,1023.0748260455,17.716536,1.006623,15.1555779128,0.671082,-0.447388,-0.671082,324.8, -0.8, 0.5,0,0,1142,1024,1181,1024,18,0,24,0,324.9,0,0,95,4.139,4.141,4.14,4.139,0,0,8.146,68.9,1023.0748260455,17.716536,6,P-GPS,
25000,2025-03-14 05:44:29,37.0150362139793,140.149932715108,18.04462,,,1023.4029100455,17.716536,0.9395148,15.4438653236,16.2401908084,8,2,16.557,1023.4029100455,18.04462,1.006623,15.4438653236,0.671082,-0.671082,-0.671082,324.8, -0.4, 0.2,0,0,1142,1024,1182,1024,18,0,24,0,324.9,0,0,95,4.139,4.141,4.139,4.137,0,0,8.123,69.08,1023.4029100455,18.04462,6,P-GPS,
25200,2025-03-14 05:44:29,37.0150369761547,140.149932362365,18.04462,,,1023.4029100455,18.04462,0.9395148,15.7198495844,16.5366475108,7,2,16.557,1023.4029100455,18.04462,1.006623,15.7198495844,0.671082,-0.671082,-0.671082,324.7, -0.8, 1.2,0,0,1141,1024,1182,1024,18,0,24,0,324.9,0,0,95,4.139,4.141,4.139,4.137,0,0,8.123,69.08,1023.4029100455,18.04462,6,P-GPS,
25400,2025-03-14 05:44:30,37.0150376722007,140.14993190754,18.372704,,,1023.7309940455,18.04462,0.9395148,15.9979991996,16.8230976512,6,2,16.557,1023.7309940455,18.372704,1.006623,15.9979991996,0.671082,-0.671082,-0.447388,324.8, -0.4, 1.7,0,0,1141,1024,1182,1024,18,0,24,0,324.9,0,0,95,4.139,4.141,4.139,4.137,0,0,8.123,69.08,1023.7309940455,18.372704,6,P-GPS,
25600,2025-03-14 05:44:30,37.0150383047408,140.149931477029,18.372704,,,1023.7309940455,18.372704,0.9395148,16.2542984204,17.0857617016,6,2,16.557,1023.7309940455,18.372704,1.006623,16.2542984204,0.671082,-0.671082,-0.671082,324.8, -0.3, 2.2,0,0,1142,1024,1182,1024,18,0,24,0,324.9,0,0,95,4.139,4.141,4.139,4.137,0,0,8.123,69.08,1023.7309940455,18.372704,6,P-GPS,
25800,2025-03-14 05:44:30,37.0150389397117,140.149931170194,18.700788,,,1024.0590780455,18.372704,0.8052984,16.4879270368,17.3340556728,7,2,16.557,1024.0590780455,18.700788,1.006623,16.4879270368,0.671082,-0.447388,-0.447388,324.9, -0.5, 2.4,0,0,1142,1024,1182,1024,18,0,24,0,324.9,0,0,95,4.139,4.141,4.139,4.137,0,0,8.123,69.08,1024.0590780455,18.700788,6,P-GPS,
26000,2025-03-14 05:44:30,37.0150395928544,140.149931024707,18.700788,,,1024.0590780455,18.700788,0.8052984,16.6965556524,17.576116048,7,3,16.555,1024.0590780455,18.700788,1.006623,16.6965556524,0.671082,-0.447388,-0.671082,324.8, -0.9, 2.3,0,0,1143,1024,1182,1024,18,0,24,0,324.9,0,0,95,4.138,4.138,4.134,4.136,0,0,8.231,69.08,1024.0590780455,18.700788,6,P-GPS,"機体のGNSS干渉 機体のGNSS干渉。機体は安定した状態で飛行できません。着陸するか、速やかに帰還してください (Code: 30245). GNSS信号が微弱です。ホバリングが不安定です。慎重に飛行してください (Code: 30002). 機体のGNSS干渉。機体は安定した状態で飛行できません。着陸するか、RTHをリクエストしてください (Code: 30245)"
26200,2025-03-14 05:44:31,37.0150402774641,140.149930977225,19.028872,,,1024.3871620455,18.700788,1.006623,16.8965556588,17.826280098,7,3,16.555,1024.3871620455,19.028872,1.006623,16.8965556588,0.894776,-0.447388,-0.671082,324.9, -0.7, 1,0,0,1145,1024,1182,1024,18,0,24,0,324.9,0,0,95,4.138,4.138,4.134,4.136,0,0,8.231,69.08,1024.3871620455,19.028872,6,P-GPS,
26400,2025-03-14 05:44:31,37.0150408592389,140.149930828116,19.356956,,,1024.7152460455,19.028872,0.8052984,17.0877302056,18.0429139632,7,3,16.555,1024.7152460455,19.356956,1.006623,17.0877302056,0.671082,-0.447388,-0.671082,324.8, -0.6, 0.8,0,0,1146,1024,1180,1024,18,0,24,0,324.9,0,0,95,4.138,4.138,4.134,4.136,0,0,8.231,69.08,1024.7152460455,19.356956,6,P-GPS,
26600,2025-03-14 05:44:31,37.0150413386972,140.149930577966,19.356956,,,1024.7152460455,19.028872,0.8052984,17.2691606576,18.2324152816,7,3,16.555,1024.7152460455,19.356956,1.006623,17.2691606576,0.671082,-0.447388,-0.671082,324.9, -0.6, 0.8,0,0,1147,1024,1181,1024,19,0,24,0,324.9,0,0,95,4.138,4.138,4.134,4.136,0,0,8.231,69.08,1024.7152460455,19.356956,6,P-GPS,
26800,2025-03-14 05:44:31,37.0150417365357,140.149930307305,19.68504,,,1025.0433300455,19.356956,0.8052984,17.4314638124,18.3976055756,6,3,16.555,1025.0433300455,19.68504,1.006623,17.4314638124,0.671082,-0.447388,-0.671082,325.1, -1.5, 1.1,0,0,1147,1024,1180,1024,19,0,24,0,324.9,0,0,95,4.138,4.138,4.134,4.136,0,0,8.231,69.08,1025.0433300455,19.68504,6,P-GPS,
27000,2025-03-14 05:44:31,37.0150421208433,140.149930013881,19.68504,,,1025.0433300455,19.356956,0.9395148,17.594160668,18.561844426,3,1,16.549,1025.0433300455,19.68504,1.006623,17.594160668,0.671082,-0.671082,-0.447388,325.2, -1.3, 1.2,0,0,1148,1024,1180,1024,19,0,24,0,324.9,0,0,95,4.134,4.137,4.133,4.136,0,0,8.307,69.26,1025.0433300455,19.68504,6,P-GPS,"機体のGNSS干渉。機体は安定した状態で飛行できません。着陸するか、速やかに帰還してください (Code: 30245). GNSS信号が微弱です。ホバリングが不安定です。慎重に飛行してください (Code: 30002)"
27200,2025-03-14 05:44:31,37.0150426032335,140.149929576209,20.013124,,,1025.3714140455,19.68504,0.9395148,17.8111554256,18.561844426,0,0,16.549,1025.3714140455,20.013124,1.006623,17.8111554256,0.671082,-0.671082,-0.671082,325.1, -0.9, 2.4,0,0,1148,1024,1180,1024,19,0,24,0,324.9,0,0,95,4.134,4.137,4.133,4.136,0,0,8.307,69.26,1025.3714140455,20.013124,6,P-GPS,
27400,2025-03-14 05:44:32,37.015043184413,140.149929056334,20.013124,,,1025.3714140455,20.013124,0.9395148,18.0712276124,18.561844426,0,0,16.549,1025.3714140455,20.013124,1.006623,18.0712276124,0.671082,-0.671082,-0.447388,325, -0.1, 3.2,0,0,1149,1024,1181,1024,19,0,24,0,324.9,0,0,95,4.134,4.137,4.133,4.136,0,0,8.307,69.26,1025.3714140455,20.013124,6,P-GPS,
27600,2025-03-14 05:44:32,37.0150438261707,140.149928561172,20.341208,,,1025.6994980455,20.013124,1.11847,18.34399665,18.561844426,0,0,16.549,1025.6994980455,20.341208,1.006623,18.34399665,0.894776,-0.671082,-0.447388,325.1, 0.3, 3.2,0,0,1149,1024,1180,1024,19,0,24,0,324.9,0,0,95,4.134,4.137,4.133,4.136,0,0,8.307,69.26,1025.6994980455,20.341208,6,P-GPS,
27800,2025-03-14 05:44:32,37.0150445269476,140.149928039095,20.669292,,,1026.0275820455,20.341208,1.006623,18.6385176568,18.561844426,0,0,16.549,1026.0275820455,20.669292,1.006623,18.6385176568,0.894776,-0.447388,-0.447388,325, 0.3, 2.9,0,0,1149,1024,1179,1024,19,0,23,0,324.9,0,0,95,4.134,4.137,4.133,4.136,0,0,8.307,69.26,1026.0275820455,20.669292,6,P-GPS,
28000,2025-03-14 05:44:32,37.0150452807599,140.149927460967,20.669292,,,1026.0275820455,20.341208,1.006623,18.9584323652,18.561844426,0,0,16.549,1026.0275820455,20.669292,1.006623,18.9584323652,0.894776,-0.447388,-0.447388,324.7, 0.8, 2.5,0,0,1148,1024,1179,1024,19,0,23,0,324.9,0,0,95,4.137,4.138,4.135,4.135,0,0,8.307,69.26,1026.0275820455,20.669292,6,P-GPS,
28200,2025-03-14 05:44:32,37.0150460844123,140.1499268991,20.997376,,,1026.3556660455,20.669292,1.006623,19.2897315884,18.561844426,0,0,16.549,1026.3556660455,20.997376,1.006623,19.2897315884,0.894776,-0.447388,-0.447388,324.8, 0.7, 2,0,0,1149,1024,1179,1024,19,0,23,0,324.9,0,0,95,4.137,4.138,4.135,4.135,0,0,8.307,69.26,1026.3556660455,20.997376,6,P-GPS,
28400,2025-03-14 05:44:33,37.0150469183346,140.149926336971,20.997376,,,1026.3556660455,20.669292,1.006623,19.6298890796,20.6139442292,3,0,16.549,1026.3556660455,20.997376,1.006623,19.6298890796,0.894776,-0.447388,-0.447388,324.7, 1.3, 1.3,0,0,1149,1024,1180,1024,19,0,24,0,324.9,0,0,95,4.137,4.138,4.135,4.135,0,0,8.307,69.26,1026.3556660455,20.997376,6,P-GPS,
28600,2025-03-14 05:44:33,37.0150477699082,140.149925774962,21.32546,,,1026.6837500455,20.669292,1.006623,19.9752631064,20.9651581512,3,0,16.549,1026.6837500455,21.32546,1.006623,19.9752631064,0.894776,-0.447388,-0.671082,324.8, 1, 1.3,0,0,1149,1024,1179,1024,19,0,23,0,324.9,0,0,95,4.137,4.138,4.135,4.135,0,0,8.307,69.26,1026.6837500455,21.32546,6,P-GPS,
28800,2025-03-14 05:44:33,37.0150486750526,140.149925221002,21.653544,,,1027.0118340455,20.997376,1.006623,20.334810362,21.3327106564,3,0,16.549,1027.0118340455,21.653544,1.006623,20.334810362,0.894776,-0.447388,-0.671082,325, 1.8, 0,0,0,1148,1024,1180,1024,19,0,24,0,324.9,0,0,95,4.137,4.138,4.135,4.135,0,0,8.307,69.26,1027.0118340455,21.653544,6,P-GPS,
29000,2025-03-14 05:44:33,37.0150495554355,140.149924660941,21.981628,,,1027.3399180455,21.32546,1.006623,20.6885833392,21.6929796968,3,0,16.529,1027.3399180455,21.981628,1.006623,20.6885833392,0.894776,-0.447388,-0.671082,324.8, 1.8, 0,0,0,1148,1024,1181,1024,19,0,24,0,324.9,0,0,94,4.128,4.13,4.127,4.13,0,0,8.449,69.26,1027.3399180455,21.981628,6,P-GPS,
29200,2025-03-14 05:44:33,37.0150504240393,140.149924120813,21.981628,,,1027.3399180455,21.32546,1.006623,21.0356305944,22.0468182908,3,0,16.529,1027.3399180455,21.981628,1.006623,21.0356305944,0.894776,-0.447388,-0.671082,325.1, 2.1, -0.6,0,0,1147,1024,1181,1024,19,0,24,0,324.9,0,0,94,4.128,4.13,4.127,4.13,0,0,8.449,69.26,1027.3399180455,21.981628,6,P-GPS,
29400,2025-03-14 05:44:34,37.0150512490267,140.1499235678,22.309712,,,1027.6680020455,21.653544,1.006623,21.372540054,22.0468182908,0,0,16.529,1027.6680020455,22.309712,1.006623,21.372540054,0.894776,-0.447388,-0.671082,324.7, 1.5, -1.3,0,0,1148,1024,1181,1024,19,0,24,0,324.9,0,0,94,4.128,4.13,4.127,4.13,0,0,8.449,69.26,1027.6680020455,22.309712,6,P-GPS,
29600,2025-03-14 05:44:34,37.0150520034386,140.149922985088,22.309712,,,1027.6680020455,21.653544,0.8052984,21.6943248412,22.0468182908,0,0,16.529,1027.6680020455,22.309712,1.006623,21.6943248412,0.671082,-0.447388,-0.447388,324.4, 1, -0.6,0,0,1147,1024,1181,1024,19,0,24,0,324.9,0,0,94,4.128,4.13,4.127,4.13,0,0,8.449,69.26,1027.6680020455,22.309712,6,P-GPS,
29800,2025-03-14 05:44:34,37.0150527321895,140.149922360819,22.637796,,,1027.9960860455,21.981628,0.8052984,22.0160440116,22.0468182908,0,0,16.529,1027.9960860455,22.637796,1.006623,22.0160440116,0.671082,-0.447388,-0.671082,324.5, 0.8, 0.2,0,0,1147,1024,1181,1024,19,0,24,0,324.9,0,0,94,4.128,4.13,4.127,4.13,0,0,8.449,69.26,1027.9960860455,22.637796,6,P-GPS,
30000,2025-03-14 05:44:34,37.0150534364616,140.149921776942,22.96588,,,1028.3241700455,22.309712,1.006623,22.3235571448,22.0468182908,0,0,16.537,1028.3241700455,22.96588,1.006623,22.3235571448,0.894776,-0.447388,-0.671082,325.3, 1, 0,0,0,1148,1024,1181,1024,19,0,24,0,324.9,0,0,94,4.131,4.132,4.132,4.133,0,0,8.438,69.44,1028.3241700455,22.96588,6,P-GPS,
30200,2025-03-14 05:44:35,37.0150541617987,140.149921172682,23.293964,,,1028.6522540455,22.637796,0.8052984,22.6407815644,22.0468182908,0,0,16.537,1028.6522540455,23.293964,1.006623,22.6407815644,0.671082,-0.447388,-0.671082,325.2, 1, 0.1,0,0,1148,1024,1180,1024,19,0,24,0,324.9,0,0,94,4.131,4.132,4.132,4.133,0,0,8.438,69.44,1028.6522540455,23.293964,6,P-GPS,
30400,2025-03-14 05:44:35,37.015054890314,140.149920584493,23.293964,,,1028.6522540455,22.637796,1.006623,22.9561030968,22.0468182908,0,0,16.537,1028.6522540455,23.293964,1.006623,22.9561030968,0.894776,-0.447388,-0.671082,325.3, 0.9, -0.2,0,0,1148,1024,1178,1024,19,0,23,0,324.9,0,0,94,4.131,4.132,4.132,4.133,0,0,8.438,69.44,1028.6522540455,23.293964,6,P-GPS,
30600,2025-03-14 05:44:35,37.0150556150258,140.149919992945,23.622048,,,1028.9803380455,22.96588,0.8052984,23.2709653116,22.0468182908,0,0,16.537,1028.9803380455,23.622048,1.006623,23.2709653116,0.671082,-0.447388,-0.447388,325.2, 0.8, -0.6,0,0,1148,1024,1178,1024,19,0,23,0,324.9,0,0,94,4.131,4.132,4.132,4.133,0,0,8.438,69.44,1028.9803380455,23.622048,6,P-GPS,
30800,2025-03-14 05:44:35,37.0150563413609,140.149919351618,23.622048,,,1028.9803380455,22.96588,0.8052984,23.5950466868,22.0468182908,0,0,16.537,1028.9803380455,23.622048,1.006623,23.5950466868,0.671082,-0.447388,-0.671082,324.8, 1.2, 0.2,0,0,1148,1024,1179,1024,19,0,23,0,324.9,0,0,94,4.131,4.132,4.132,4.133,0,0,8.438,69.44,1028.9803380455,23.622048,6,P-GPS,
31000,2025-03-14 05:44:35,37.0150570383814,140.149918765553,23.950132,,,1029.3084220455,23.293964,0.8052984,23.9008865916,22.0468182908,0,0,16.54,1029.3084220455,23.950132,1.006623,23.9008865916,0.671082,-0.447388,-0.671082,324.5, 1.5, -0.4,0,0,1148,1024,1179,1024,19,0,23,0,324.9,0,0,94,4.135,4.138,4.136,4.135,0,0,8.241,69.44,1029.3084220455,23.950132,6,P-GPS,
31200,2025-03-14 05:44:35,37.0150577480632,140.14991820396,24.278216,,,1029.6365060455,23.293964,0.8052984,24.2061687536,22.0468182908,0,0,16.54,1029.6365060455,24.278216,1.006623,24.2061687536,0.671082,-0.447388,-0.447388,324.5, 0.9, -0.7,0,0,1148,1024,1179,1024,19,0,23,0,324.9,0,0,94,4.135,4.138,4.136,4.135,0,0,8.241,69.44,1029.6365060455,24.278216,6,P-GPS,
31400,2025-03-14 05:44:36,37.0150584632276,140.149917687159,24.278216,,,1029.6365060455,23.622048,1.006623,24.5052173196,22.0468182908,0,0,16.54,1029.6365060455,24.278216,1.006623,24.5052173196,0.894776,-0.447388,-0.447388,325, 0.2, -1.1,0,0,1148,1024,1178,1024,19,0,23,0,324.9,0,0,94,4.135,4.138,4.136,4.135,0,0,8.241,69.44,1029.6365060455,24.278216,6,P-GPS,
31600,2025-03-14 05:44:36,37.0150591852794,140.149917140339,24.6063,,,1029.9645900455,23.622048,0.8052984,24.8115821588,25.8353682808,3,0,16.54,1029.9645900455,24.6063,1.006623,24.8115821588,0.671082,-0.447388,-0.671082,324.5, 1.2, -1.9,0,0,1148,1024,1178,1024,19,0,23,0,324.9,0,0,94,4.135,4.138,4.136,4.135,0,0,8.241,69.44,1029.9645900455,24.6063,6,P-GPS,
31800,2025-03-14 05:44:36,37.01505987716,140.149916539517,24.6063,,,1029.9645900455,23.622048,0.8052984,25.1185703576,26.14255333,3,0,16.54,1029.9645900455,24.6063,1.006623,25.1185703576,0.671082,-0.447388,-0.447388,323.8, 0.8, -0.3,0,0,1149,1024,1178,1024,19,0,23,0,324.9,0,0,94,4.135,4.138,4.136,4.135,0,0,8.241,69.44,1029.9645900455,24.6063,6,P-GPS,
32000,2025-03-14 05:44:36,37.0150605356524,140.149915993759,24.934384,,,1030.2926740455,23.950132,0.8052984,25.4062344088,26.4306438904,4,0,16.534,1030.2926740455,24.934384,1.006623,25.4062344088,0.671082,-0.447388,-0.447388,323.5, 0, -0.9,0,0,1149,1024,1178,1024,19,0,23,0,324.9,0,0,94,4.133,4.135,4.134,4.134,0,0,8.171,69.62,1030.2926740455,24.934384,6,P-GPS,
32200,2025-03-14 05:44:36,37.0150611826486,140.149915444649,25.262468,,,1030.6207580455,24.278216,0.8052984,25.6910769376,26.7158145032,4,0,16.534,1030.6207580455,25.262468,1.006623,25.6910769376,0.671082,-0.447388,-0.447388,323.4, -0.2, -0.1,0,0,1149,1024,1177,1024,19,0,23,0,324.9,0,0,94,4.133,4.135,4.134,4.134,0,0,8.171,69.62,1030.6207580455,25.262468,6,P-GPS,
32400,2025-03-14 05:44:37,37.0150618220591,140.149914901171,25.590552,,,1030.9488420455,24.6063,0.8052984,25.97276986,26.9977370844,5,0,16.534,1030.9488420455,25.590552,1.006623,25.97276986,0.671082,-0.447388,-0.447388,324.4, -1.2, -1.5,0,0,1150,1024,1177,1024,19,0,23,0,324.9,0,0,94,4.133,4.135,4.134,4.134,0,0,8.171,69.62,1030.9488420455,25.590552,6,P-GPS,
32600,2025-03-14 05:44:37,37.0150624308314,140.149914299641,25.918636,,,1031.2769260455,24.934384,0.8052984,26.255578268,27.2806439176,6,0,16.534,1031.2769260455,25.918636,1.006623,26.255578268,0.671082,-0.447388,-0.447388,324.6, 0.1, -2.1,0,0,1149,1024,1178,1024,19,0,23,0,324.9,0,0,94,4.133,4.135,4.134,4.134,0,0,8.171,69.62,1031.2769260455,25.918636,6,P-GPS,
32800,2025-03-14 05:44:37,37.0150630014269,140.149913581979,25.918636,,,1031.2769260455,24.934384,0.8052984,26.5474417944,27.5756898588,7,0,16.534,1031.2769260455,25.918636,1.006623,26.5474417944,0.447388,-0.671082,-0.671082,324.7, -0.8, -1.8,0,0,1151,1024,1177,1024,19,0,23,0,324.9,0,0,94,4.133,4.135,4.134,4.134,0,0,8.171,69.62,1031.2769260455,25.918636,6,P-GPS,
33000,2025-03-14 05:44:37,37.0150634964698,140.149912790065,26.24672,,,1031.6050100455,25.262468,0.8052984,26.8303158192,27.8687016792,8,0,16.491,1031.6050100455,26.24672,1.006623,26.8303158192,0.447388,-0.671082,-0.671082,325.4, -0.7, -0.8,0,0,1151,1024,1177,1024,19,0,23,0,324.9,0,0,94,4.121,4.123,4.122,4.125,0,0,8.638,69.62,1031.6050100455,26.24672,6,P-GPS,
33200,2025-03-14 05:44:37,37.0150639827792,140.149912032713,26.24672,,,1031.6050100455,25.590552,0.8052984,27.1047908936,28.1518381712,8,0,16.491,1031.6050100455,26.24672,1.006623,27.1047908936,0.447388,-0.671082,-0.671082,325.5, -0.8, 0.8,0,0,1151,1024,1177,1024,19,0,23,0,324.9,0,0,94,4.121,4.123,4.122,4.125,0,0,8.638,69.62,1031.6050100455,26.24672,6,P-GPS,
33400,2025-03-14 05:44:38,37.0150645238288,140.14991127432,26.24672,,,1031.6050100455,25.590552,0.8052984,27.3955389344,28.4480980232,8,0,16.491,1031.6050100455,26.24672,1.006623,27.3955389344,0.671082,-0.447388,-0.671082,325.8, -1.8, 0.7,0,0,1154,1024,1176,1024,20,0,23,0,324.9,0,0,94,4.121,4.123,4.122,4.125,0,0,8.638,69.62,1031.6050100455,26.24672,6,P-GPS,
33800,2025-03-14 05:44:39,37.0150657534136,140.149910083571,26.574804,,,1031.9330940455,25.918636,0.8052984,27.9626321284,29.0151912172,9,0,16.491,1031.9330940455,26.574804,1.006623,27.9626321284,0.671082,-0.447388,-0.447388,325.8, -2.4, -0.9,0,0,1154,1024,1176,1024,20,0,23,0,324.9,0,0,94,4.121,4.123,4.122,4.125,0,0,8.638,69.62,1031.9330940455,26.574804,6,P-GPS,
34000,2025-03-14 05:44:39,37.0150664679655,140.149909504791,26.574804,,,1031.9330940455,26.24672,0.8052984,28.2722121908,29.3256571064,10,0,16.491,1031.9330940455,26.574804,1.006623,28.2722121908,0.894776,-0.447388,-0.447388,325.5, -2, -0.9,0,0,1154,1024,1175,1024,20,0,23,0,324.9,0,0,94,4.121,4.123,4.122,4.125,0,0,8.638,69.62,1031.9330940455,26.574804,6,P-GPS,
34200,2025-03-14 05:44:39,37.0150672358526,140.149908899168,26.574804,,,1031.9330940455,26.574804,0.8052984,28.6021006528,29.6567594792,11,2,16.491,1031.9330940455,26.574804,1.006623,28.6021006528,0.894776,-0.447388,-0.447388,325.6, -1.9, -0.8,0,0,1154,1024,1175,1024,20,0,23,0,324.9,0,0,94,4.121,4.123,4.122,4.125,0,0,8.638,69.62,1031.9330940455,26.574804,6,P-GPS,
34400,2025-03-14 05:44:39,37.0150679833385,140.149908341576,26.574804,,,1031.9330940455,26.574804,1.006623,28.9176190356,29.9741807492,12,2,16.54,1031.9330940455,26.574804,1.006623,28.9176190356,0.894776,-0.447388,-0.447388,325.5, -2, -1.3,0,0,1154,1024,1175,1024,20,0,23,0,324.9,0,0,94,4.136,4.134,4.133,4.133,0,0,8.198,69.8,1031.9330940455,26.574804,6,P-GPS,
34600,2025-03-14 05:44:39,37.015068779658,140.149907736162,26.902888,,,1032.2611780455,26.902888,1.006623,29.2558080228,30.3140757732,12,2,16.54,1032.2611780455,26.902888,1.006623,29.2558080228,0.894776,-0.447388,-0.447388,325.5, -2, -1.6,0,0,1154,1024,1175,1024,20,0,23,0,324.9,0,0,94,4.136,4.134,4.133,4.133,0,0,8.198,69.8,1032.2611780455,26.902888,6,P-GPS,
34800,2025-03-14 05:44:39,37.0150695299665,140.149907144138,26.902888,,,1032.2611780455,26.902888,1.006623,29.578248978,30.637632214,11,2,16.54,1032.2611780455,26.902888,1.006623,29.578248978,0.894776,-0.447388,-0.447388,325.4, -1.9, -1.4,0,0,1154,1024,1175,1024,20,0,23,0,324.9,0,0,94,4.136,4.134,4.133,4.133,0,0,8.198,69.8,1032.2611780455,26.902888,6,P-GPS,
35000,2025-03-14 05:44:39,37.0150702914245,140.149906528242,26.902888,,,1032.2611780455,27.230972,1.006623,29.90813744,30.968340886,13,2,16.54,1032.2611780455,26.902888,1.006623,29.90813744,0.894776,-0.447388,-0.447388,325.5, -2.3, -1.6,0,0,1155,1024,1176,1024,20,0,23,0,324.9,0,0,94,4.136,4.134,4.133,4.133,0,0,8.198,69.8,1032.2611780455,26.902888,6,P-GPS,
35200,2025-03-14 05:44:40,37.0150710778496,140.149905903844,26.902888,,,1032.2611780455,27.559056,1.006623,30.2468513616,31.308071868,13,2,16.54,1032.2611780455,26.902888,1.006623,30.2468513616,0.894776,-0.447388,-0.447388,325.3, -2.1, -1.5,0,0,1155,1024,1176,1024,20,0,23,0,324.9,0,0,94,4.136,4.134,4.133,4.133,0,0,8.198,69.8,1032.2611780455,26.902888,6,P-GPS,
35400,2025-03-14 05:44:40,37.0150718984594,140.149905281431,27.230972,,,1032.5892620455,27.559056,1.006623,30.5952109528,31.6581046876,13,2,16.54,1032.5892620455,27.230972,1.006623,30.5952109528,0.894776,-0.447388,-0.447388,325.3, -1.5, -2,0,0,1155,1024,1176,1024,20,0,23,0,324.9,0,0,94,4.136,4.134,4.133,4.133,0,0,8.198,69.8,1032.5892620455,27.230972,6,P-GPS,
35600,2025-03-14 05:44:40,37.0150727262652,140.149904618785,27.230972,,,1032.5892620455,27.559056,1.11847,30.9527240876,32.0165364576,13,2,16.54,1032.5892620455,27.230972,1.11847,30.9527240876,0.894776,-0.671082,-0.447388,325.3, -1.7, -1.9,0,0,1155,1024,1176,1024,20,0,23,0,324.9,0,0,94,4.136,4.134,4.133,4.133,0,0,8.198,69.8,1032.5892620455,27.230972,6,P-GPS,
